timestamp,TimeUS,Instance,Volt,VoltR,Curr,CurrTot,EnrgTot,Temp,Res,RemPct
1659941426.67976189,101254936,0,24.939586639404297,24.940532684326172,0.023893490433692932,2.629870891571045,0.06573273986577988,0.0,0.039576150476932526,99
1659941426.77976179,101354936,0,24.987964630126953,24.990612030029297,0.06690176576375961,2.6317293643951416,0.0657791793346405,0.0,0.039576150476932526,99
1659941426.87976980,101454944,0,25.003969192504883,25.00723648071289,0.08255310356616974,2.6340229511260986,0.06583652645349503,0.0,0.039576150476932526,99
1659941426.97970891,101554883,0,25.0059814453125,25.00905418395996,0.07764288038015366,2.636178493499756,0.06589043140411377,0.0,0.039576150476932526,99
1659941427.07976580,101654940,0,25.01115608215332,25.014507293701172,0.08470132946968079,2.638532876968384,0.06594931334257126,0.0,0.039576150476932526,99
1659941427.17977881,101754953,0,24.949251174926758,24.95029640197754,0.026392443105578423,2.6392662525177,0.0659676045179367,0.0,0.039576150476932526,99
1659941427.27968192,101854856,0,24.980159759521484,24.982574462890625,0.06103678420186043,2.640960216522217,0.06600992381572723,0.0,0.039576150476932526,99
1659941427.37974787,101954922,0,24.994770050048828,24.997770309448242,0.0758015513420105,2.6430673599243164,0.06606259196996689,0.0,0.039576150476932526,99
1659941427.47985697,102055031,0,25.00617218017578,25.009695053100586,0.08899776637554169,2.6455423831939697,0.06612448394298553,0.0,0.039576150476932526,99
1659941427.57978392,102154958,0,24.995439529418945,24.99837875366211,0.07426710426807404,2.647603988647461,0.06617601960897446,0.0,0.039576150476932526,99
1659941427.67969298,102254867,0,24.9560546875,24.95746421813965,0.03559911251068115,2.648591995239258,0.06620067358016968,0.0,0.039576150476932526,99
1659941427.77974892,102354923,0,24.98988151550293,24.992504119873047,0.06628799438476562,2.6504342555999756,0.06624671071767807,0.0,0.039576150476932526,99
1659941427.87975502,102454929,0,25.00090217590332,25.003902435302734,0.0758015513420105,2.652540445327759,0.06629936397075653,0.0,0.039576150476932526,99
1659941427.97973299,102554907,0,25.00473403930664,25.00787925720215,0.07948421686887741,2.65474796295166,0.06635456532239914,0.0,0.039576150476932526,99
1659941428.07974887,102654923,0,25.00954818725586,25.013002395629883,0.08729283511638641,2.6571733951568604,0.0664152204990387,0.0,0.039576150476932526,99
1659941428.17971492,102754889,0,24.97800064086914,24.980344772338867,0.05922954902052879,2.658818244934082,0.06645630300045013,0.0,0.039576150476932526,99
1659941428.27977085,102854945,0,24.944076538085938,24.94523048400879,0.029154442250728607,2.6596286296844482,0.06647651642560959,0.0,0.039576150476932526,99
1659941428.37974691,102954921,0,24.984899520874023,24.987485885620117,0.06536732614040375,2.6614441871643066,0.06652187556028366,0.0,0.039576150476932526,99
1659941428.47977996,103054954,0,25.01106071472168,25.01448631286621,0.08654265850782394,2.663849115371704,0.06658202409744263,0.0,0.039576150476932526,99
1659941428.57975101,103154925,0,25.01431655883789,25.017911911010742,0.09083910286426544,2.6663718223571777,0.06664513051509857,0.0,0.039576150476932526,99
1659941428.67976379,103254938,0,24.94647216796875,24.947345733642578,0.022095996886491776,2.6669857501983643,0.06666044890880585,0.0,0.039576150476932526,99
1659941428.77969980,103354874,0,24.986528396606445,24.988903045654297,0.05984332785010338,2.668647050857544,0.0667019635438919,0.0,0.039668865501880646,99
1659941428.87971401,103454888,0,24.97435760498047,24.999807357788086,0.6576628684997559,2.6869192123413086,0.0671583041548729,0.0,0.03869682922959328,99
1659941428.97973585,103554910,0,24.867509841918945,24.977954864501953,2.8199679851531982,2.7652759552001953,0.06910683959722519,0.0,0.039165202528238297,99
1659941429.07974195,103654916,0,24.893190383911133,24.963085174560547,1.7428219318389893,2.813694477081299,0.07031212747097015,0.0,0.04010407254099846,99
1659941429.17978787,103754962,0,24.885046005249023,24.927839279174805,1.014574646949768,2.8418920040130615,0.07101382315158844,0.0,0.042179375886917114,99
1659941429.27968383,103854858,0,24.94426727294922,24.984588623046875,0.9559587836265564,2.8684210777282715,0.07167557626962662,0.0,0.042179375886917114,99
1659941429.37975383,103954928,0,24.94503402709961,24.98031997680664,0.8347377181053162,2.8916263580322266,0.07225443422794342,0.0,0.04227228835225105,99
1659941429.47972894,104054903,0,24.97809600830078,25.01497459411621,0.8470132946968079,2.9151504039764404,0.07284202426671982,0.0,0.043540459126234055,99
1659941429.57973695,104154911,0,24.97502899169922,25.010732650756836,0.8037419319152832,2.9374799728393555,0.07339970767498016,0.0,0.044421594589948654,99
1659941429.67973089,104254905,0,24.93123435974121,24.961198806762695,0.6745417714118958,2.9562177658081055,0.07386686652898788,0.0,0.044421594589948654,99
1659941429.77976584,104354940,0,24.92615509033203,24.95527458190918,0.655514657497406,2.9744343757629395,0.07432093471288681,0.0,0.044421594589948654,99
1659941429.87977600,104454950,0,24.963550567626953,24.996105194091797,0.7239167094230652,2.99454665184021,0.07482300698757172,0.0,0.044969622045755386,99
1659941429.97970486,104554879,0,24.978382110595703,25.01341438293457,0.761391282081604,3.01568341255188,0.07535096257925034,0.0,0.04601098224520683,99
1659941430.07975602,104654930,0,24.974550247192383,25.009593963623047,0.750036358833313,3.036530017852783,0.07587160170078278,0.0,0.04672389477491379,99
1659941430.17975092,104754925,0,24.907852172851562,24.93579864501953,0.5981264114379883,3.053144931793213,0.07628544420003891,0.0,0.04672389477491379,99
1659941430.27977991,104854954,0,24.949825286865234,24.982542037963867,0.700627326965332,3.0726141929626465,0.07677119970321655,0.0,0.04669596254825592,99
1659941430.37969780,104954872,0,24.96132469177246,24.995615005493164,0.727633535861969,3.092811346054077,0.0772753432393074,0.0,0.0471251979470253,99
1659941430.47971082,105054885,0,24.973400115966797,25.00897789001465,0.7549465894699097,3.113786458969116,0.07779916375875473,0.0,0.0471251979470253,99
1659941430.57972002,105154894,0,24.943788528442383,24.97605323791504,0.6846690773963928,3.132808208465576,0.07827363908290863,0.0,0.0471251979470253,99
1659941430.67977595,105254950,0,24.925113677978516,24.955629348754883,0.647535502910614,3.150801181793213,0.07872211188077927,0.0,0.0471251979470253,99
1659941430.77977300,105354947,0,24.948101043701172,24.98116111755371,0.7015479803085327,3.1702957153320312,0.07920846343040466,0.0,0.0471251979470253,99
1659941430.87969995,105454874,0,24.957202911376953,24.991275787353516,0.723030149936676,3.1903669834136963,0.07970938831567764,0.0,0.0471251979470253,99
1659941430.97977400,105554948,0,24.97570037841797,25.01139259338379,0.7574017643928528,3.21142315864563,0.08023528009653091,0.0,0.0471251979470253,99
1659941431.07973695,105654911,0,24.96860694885254,25.00364875793457,0.7435917854309082,3.232072591781616,0.08075086772441864,0.0,0.0471251979470253,99
1659941431.17973495,105754909,0,24.93123435974121,24.96245765686035,0.6625730395317078,3.250478506088257,0.08120974898338318,0.0,0.0471251979470253,99
1659941431.27975488,105854929,0,24.924528121948242,24.954971313476562,0.6460010409355164,3.268427848815918,0.08165712654590607,0.0,0.0471251979470253,99
1659941431.37979198,105954966,0,24.943405151367188,24.975988388061523,0.6914206147193909,3.28764271736145,0.08213641494512558,0.0,0.0471251979470253,99
1659941431.47973490,106054909,0,24.97282600402832,25.008432388305664,0.7555603384971619,3.3086202144622803,0.08266028016805649,0.0,0.0471251979470253,99
1659941431.57975602,106154930,0,24.97047233581543,25.00596809387207,0.7532417178153992,3.329549551010132,0.08318289369344711,0.0,0.0471251979470253,99
1659941431.67977595,106254950,0,24.977712631225586,25.013912200927734,0.768142819404602,3.350893020629883,0.0837160050868988,0.0,0.0471251979470253,99
1659941431.77975583,106354930,0,24.910537719726562,24.939693450927734,0.6186879873275757,3.3680765628814697,0.08414405584335327,0.0,0.0471251979470253,99
1659941431.87977695,106454951,0,24.927690505981445,24.958768844604492,0.6595041751861572,3.386401414871216,0.08460085093975067,0.0,0.0471251979470253,99
1659941431.97969699,106554871,0,24.969276428222656,25.004680633544922,0.7512639760971069,3.407254934310913,0.08512154966592789,0.0,0.0471251979470253,99
1659941432.07972980,106654904,0,24.944555282592773,24.97747039794922,0.6984791159629822,3.4266650676727295,0.08560572564601898,0.0,0.0471251979470253,99
1659941432.17975402,106754928,0,24.916858673095703,24.946910858154297,0.6377150416374207,3.444385051727295,0.08604725450277328,0.0,0.0471251979470253,99
1659941432.27977586,106854950,0,24.951454162597656,24.985050201416016,0.7129029035568237,3.46419358253479,0.08654151111841202,0.0,0.0471251979470253,99
1659941432.37970781,106954882,0,24.953754425048828,24.987436294555664,0.7147441506385803,3.4840357303619385,0.08703664690256119,0.0,0.0471251979470253,99
1659941432.47972989,107054904,0,24.97228240966797,25.008068084716797,0.7593794465065002,3.505136013031006,0.08756356686353683,0.0,0.0471251979470253,99
1659941432.57978892,107154963,0,24.966594696044922,25.001781463623047,0.7466606497764587,3.525890588760376,0.0880817323923111,0.0,0.0471251979470253,99
1659941432.67975593,107254930,0,24.953466415405273,24.987337112426758,0.7187337279319763,3.5458505153656006,0.08857979625463486,0.0,0.04712427034974098,99
1659941432.77974200,107354916,0,24.93976402282715,24.97185516357422,0.6809863448143005,3.5647659301757812,0.08905153721570969,0.0,0.04712427034974098,99
1659941432.87979198,107454966,0,24.911684036254883,24.941055297851562,0.6232912540435791,3.582089424133301,0.0894830971956253,0.0,0.04712427034974098,99
1659941432.97984600,107555020,0,24.966211318969727,25.001367568969727,0.7460468411445618,3.6028249263763428,0.09000078588724136,0.0,0.04712427034974098,99
1659941433.07978201,107654956,0,24.961610794067383,24.996246337890625,0.7349988222122192,3.6232309341430664,0.09051015228033066,0.0,0.04712427034974098,99
1659941433.17978692,107754961,0,24.89961051940918,24.928115844726562,0.6048779487609863,3.640035390853882,0.0909285768866539,0.0,0.04712427034974098,99
1659941433.27978086,107854955,0,24.928306579589844,24.9598331451416,0.6690177321434021,3.6586196422576904,0.09139184653759003,0.0,0.04712427034974098,99
1659941433.37978101,107954955,0,24.952411651611328,24.98617935180664,0.7165855169296265,3.6785261631011963,0.09188856184482574,0.0,0.04712427034974098,99
1659941433.47981596,108054990,0,24.97215461730957,25.00806427001953,0.762005090713501,3.699702262878418,0.09241737425327301,0.0,0.04712427034974098,99
1659941433.57982397,108154998,0,24.94062614440918,24.972991943359375,0.6868172883987427,3.7187836170196533,0.09289327263832092,0.0,0.04712427034974098,99
1659941433.67976594,108254940,0,24.917724609375,24.947675704956055,0.6355668306350708,3.736429214477539,0.09333296120166779,0.0,0.04712427034974098,99
1659941433.77978301,108354957,0,24.952604293823242,24.986719131469727,0.7239508032798767,3.7565438747406006,0.09383487701416016,0.0,0.04712427034974098,99
1659941433.87988091,108455055,0,24.974742889404297,25.011072158813477,0.7709048390388489,3.7779808044433594,0.09437026083469391,0.0,0.04712427034974098,99
1659941433.97972989,108554904,0,24.963815689086914,24.998886108398438,0.7442055344581604,3.798623561859131,0.09488558769226074,0.0,0.04712427034974098,99
1659941434.07983279,108655007,0,24.96343231201172,25.00459098815918,0.8734056949615479,3.822911500930786,0.09549190104007721,0.0,0.04712427034974098,99
1659941434.17978597,108754960,0,24.856647491455078,24.954734802246094,2.0268306732177734,3.8791909217834473,0.09689082205295563,0.0,0.048394180834293365,99
1659941434.27980781,108854982,0,24.618738174438477,24.950136184692383,6.771810054779053,4.067328929901123,0.1015225350856781,0.0,0.04893776774406433,99
1659941434.37982893,108955003,0,24.519458770751953,24.989225387573242,9.62434196472168,4.334784030914307,0.10808038711547852,0.0,0.048810217529535294,99
1659941434.47983789,109055012,0,24.555683135986328,24.984586715698242,8.796969413757324,4.579173564910889,0.11408153921365738,0.0,0.04875580221414566,99
1659941434.57987285,109155047,0,24.607622146606445,24.98752784729004,7.804797172546387,4.796075344085693,0.11941897869110107,0.0,0.04867604374885559,99
1659941434.67978191,109254956,0,24.528945922851562,24.919946670532227,7.919574737548828,5.015876770019531,0.12481047213077545,0.0,0.049371540546417236,99
1659941434.77980590,109354980,0,24.409639358520508,24.944644927978516,10.770264625549316,5.315155506134033,0.13211575150489807,0.0,0.049674246460199356,99
1659941434.87978387,109454958,0,24.282093048095703,24.961137771606445,13.649189949035645,5.694246768951416,0.14132088422775269,0.0,0.04974987730383873,99
1659941434.97986197,109555036,0,24.13001251220703,24.9668025970459,16.81443977355957,6.161566734313965,0.1525973230600357,0.0,0.04976619407534599,99
1659941435.07980800,109654982,0,23.974706649780273,24.9417724609375,19.371505737304688,6.699588775634766,0.16549624502658844,0.0,0.049922116100788116,99
1659941435.17978883,109754963,0,23.750244140625,24.890766143798828,22.679393768310547,7.329502582550049,0.18045684695243835,0.0,0.05028892681002617,99
1659941435.27986979,109855044,0,23.678085327148438,24.938953399658203,25.033845901489258,8.025506019592285,0.19693687558174133,0.0,0.05036653205752373,99
1659941435.37979484,109954969,0,23.714693069458008,24.920652389526367,23.873191833496094,8.68820571899414,0.21265260875225067,0.0,0.050515204668045044,99
1659941435.47994399,110055118,0,23.807165145874023,24.945396423339844,22.522266387939453,9.314800262451172,0.2275700569152832,0.0,0.050538014620542526,99
1659941435.57982993,110155004,0,23.80984878540039,24.937854766845703,22.296396255493164,9.933494567871094,0.2423010617494583,0.0,0.05059139430522919,99
1659941435.67985702,110255031,0,23.773530960083008,24.890512466430664,21.96772003173828,10.543922424316406,0.25681307911872864,0.0,0.050846491008996964,99
1659941435.77978683,110354961,0,23.750244140625,24.891061782836914,22.336599349975586,11.1639986038208,0.2715400457382202,0.0,0.051073942333459854,99
1659941435.87980890,110454983,0,23.82542610168457,24.932363510131836,21.66294288635254,11.7659273147583,0.28588125109672546,0.0,0.051098234951496124,99
1659941435.97977400,110554948,0,23.8433895111084,24.920442581176758,21.047664642333984,12.350420951843262,0.2998175621032715,0.0,0.051172129809856415,99
1659941436.07981586,110654990,0,23.847414016723633,24.930240631103516,21.150474548339844,12.938234329223633,0.31383538246154785,0.0,0.051196303218603134,99
1659941436.17981601,110754990,0,23.771806716918945,24.85750389099121,21.066999435424805,13.523469924926758,0.32774749398231506,0.0,0.05153544247150421,99
1659941436.27978802,110854962,0,23.82316780090332,24.90304183959961,20.90987205505371,14.104183197021484,0.34158194065093994,0.0,0.05164423584938049,99
1659941436.37981892,110954993,0,23.818281173706055,24.91207504272461,21.15507698059082,14.69205379486084,0.3555839955806732,0.0,0.051703620702028275,99
1659941436.47979283,111054967,0,23.839460372924805,24.921844482421875,20.929821014404297,15.27333927154541,0.36944150924682617,0.0,0.051714882254600525,99
1659941436.57985902,111155033,0,23.80898666381836,24.882638931274414,20.68860626220703,15.84826374053955,0.38312989473342896,0.0,0.05189581587910652,99
1659941436.67972779,111254902,0,23.77621078491211,24.867664337158203,20.939027786254883,16.42937469482422,0.3969464898109436,0.0,0.05212530866265297,99
1659941436.77990890,111355083,0,23.821487426757812,24.895984649658203,20.613725662231445,17.003061294555664,0.410612553358078,0.0,0.05212530866265297,99
1659941436.87982392,111454998,0,23.896862030029297,24.893909454345703,19.15293312072754,17.534677505493164,0.42331650853157043,0.0,0.052057184278964996,99
1659941436.97985482,111555029,0,23.896574020385742,24.88667869567871,19.04859161376953,18.064006805419922,0.4359656572341919,0.0,0.05197780951857567,99
1659941437.07983279,111655007,0,23.92359733581543,24.90045166015625,18.797250747680664,18.586084365844727,0.4484556317329407,0.0,0.05196790024638176,99
1659941437.17981791,111754992,0,23.892549514770508,24.83840560913086,18.284746170043945,19.093957901000977,0.46059003472328186,0.0,0.051729269325733185,99
1659941437.27990699,111855081,0,23.91104507446289,24.817115783691406,17.605600357055664,19.583477020263672,0.47229495644569397,0.0,0.051464952528476715,99
1659941437.37975097,111954925,0,23.880569458007812,24.874156951904297,19.302696228027344,20.11886978149414,0.48508042097091675,0.0,0.05147402733564377,99
1659941437.47992897,112055103,0,23.931453704833984,24.87529945373535,18.332313537597656,20.629043579101562,0.49728959798812866,0.0,0.0514853335916996,99
1659941437.57981586,112154990,0,23.933469772338867,24.869140625,18.17856216430664,21.13347816467285,0.5093624591827393,0.0,0.05147113651037216,99
1659941437.67985702,112255031,0,23.859071731567383,24.80615997314453,18.400375366210938,21.64484977722168,0.5215633511543274,0.0,0.05147113651037216,99
1659941437.77978683,112354961,0,23.909990310668945,24.83926773071289,18.082813262939453,22.146839141845703,0.533565878868103,0.0,0.051390115171670914,99
1659941437.87980294,112454977,0,23.931167602539062,24.860857009887695,18.084653854370117,22.64930534362793,0.5455905199050903,0.0,0.05140767991542816,99
1659941437.97980690,112554981,0,23.927717208862305,24.865867614746094,18.237791061401367,23.155977249145508,0.5577139854431152,0.0,0.05143994092941284,99
1659941438.07979679,112654971,0,23.915067672729492,24.826492309570312,17.760272979736328,23.649309158325195,0.5695120096206665,0.0,0.051318127661943436,99
1659941438.17982984,112755004,0,23.874916076660156,24.805994033813477,18.14327049255371,24.15349578857422,0.5815494060516357,0.0,0.051318127661943436,99
1659941438.27974200,112854916,0,23.911331176757812,24.846019744873047,18.211091995239258,24.65894889831543,0.5936354994773865,0.0,0.051325198262929916,99
1659941438.37986588,112955040,0,23.892263412475586,24.83418083190918,18.35195541381836,25.169368743896484,0.6058305501937866,0.0,0.051325198262929916,99
1659941438.47985101,113055025,0,23.92350196838379,24.86619758605957,18.335996627807617,25.678701400756836,0.6180155873298645,0.0,0.051412276923656464,99
1659941438.57981896,113154993,0,23.903152465820312,24.851835250854492,18.458341598510742,26.19131088256836,0.6302685737609863,0.0,0.051395878195762634,99
1659941438.67981291,113254987,0,23.857379913330078,24.797834396362305,18.298248291015625,26.699600219726562,0.64239501953125,0.0,0.051395878195762634,99
1659941438.77983093,113355005,0,23.866291046142578,24.7981014251709,18.13007354736328,27.203350067138672,0.6544176340103149,0.0,0.051395878195762634,99
1659941438.87991381,113455088,0,23.875682830810547,24.829795837402344,18.559104919433594,27.719345092773438,0.6667373776435852,0.0,0.05140945315361023,99
1659941438.97976089,113554935,0,23.892263412475586,24.845130920410156,18.534860610961914,28.233461380004883,0.6790207624435425,0.0,0.05140945315361023,99
1659941439.07982183,113654996,0,23.87673568725586,24.832988739013672,18.598079681396484,28.750431060791016,0.6913642883300781,0.0,0.05141680687665939,99
1659941439.17980480,113754979,0,23.848468780517578,24.771854400634766,17.958829879760742,29.249242782592773,0.7032601833343506,0.0,0.05141680687665939,99
1659941439.27981782,113854992,0,23.89417839050293,24.80404281616211,17.72160530090332,29.741613388061523,0.7150249481201172,0.0,0.05134205147624016,99
1659941439.37980199,113954976,0,23.919572830200195,24.80862045288086,17.330013275146484,30.222963333129883,0.7265386581420898,0.0,0.05130104348063469,99
1659941439.47985792,114055032,0,23.943294525146484,24.82933235168457,17.256019592285156,30.702604293823242,0.7380228638648987,0.0,0.051346588879823685,99
1659941439.57979488,114154969,0,23.927621841430664,24.79015350341797,16.83469581604004,31.16997718811035,0.749206006526947,0.0,0.05123533308506012,99
1659941439.67979980,114254974,0,23.91267204284668,24.74738311767578,16.37067985534668,31.62477684020996,0.7600814700126648,0.0,0.05098818615078926,99
1659941439.77982497,114354999,0,23.95732879638672,24.808439254760742,16.680328369140625,32.08827209472656,0.771185576915741,0.0,0.05102483555674553,99
1659941439.87975502,114454929,0,23.980710983276367,24.816265106201172,16.356870651245117,32.5423469543457,0.7820746302604675,0.0,0.05108273774385452,99
1659941439.97987080,114555045,0,24.00074005126953,24.809118270874023,15.81920051574707,32.98231506347656,0.7926341891288757,0.0,0.05110108479857445,99
1659941440.07986403,114655038,0,23.98310661315918,24.818330764770508,16.328941345214844,33.43574142456055,0.8035088181495667,0.0,0.051149882376194,99
1659941440.17981386,114754988,0,23.954742431640625,24.73651695251465,15.365006446838379,33.862518310546875,0.8137321472167969,0.0,0.050880175083875656,99
1659941440.27979302,114854967,0,23.953197479248047,24.74576759338379,15.631213188171387,34.29658508300781,0.8241294026374817,0.0,0.050704337656497955,99
1659941440.37986088,114955035,0,23.989717483520508,24.798847198486328,15.938272476196289,34.73973083496094,0.8347603678703308,0.0,0.05076645687222481,99
1659941440.47980881,115054983,0,23.981477737426758,24.80647087097168,16.22613525390625,35.19025421142578,0.845564603805542,0.0,0.050843495875597,99
1659941440.57982183,115154996,0,23.984542846679688,24.796184539794922,15.956686973571777,35.63358688354492,0.8561977744102478,0.0,0.050865285098552704,99
1659941440.67985892,115255033,0,23.951196670532227,24.73372459411621,15.384339332580566,36.061126708984375,0.8664378523826599,0.0,0.050865285098552704,99
1659941440.77980590,115354980,0,23.977548599243164,24.7817325592041,15.810300827026367,36.500099182128906,0.8769633769989014,0.0,0.05086461082100868,99
1659941440.87981892,115454993,0,23.965377807617188,24.789199829101562,16.196367263793945,36.95009231567383,0.8877476453781128,0.0,0.05086461082100868,99
1659941440.97978687,115554961,0,23.979272842407227,24.804609298706055,16.22613525390625,37.40071487426758,0.8985532522201538,0.0,0.05086461082100868,99
1659941441.07988501,115655059,0,23.952537536621094,24.750463485717773,15.687239646911621,37.83692932128906,0.9090017080307007,0.0,0.05086461082100868,99
1659941441.17979980,115754974,0,23.92572784423828,24.730464935302734,15.821144104003906,38.276065826416016,0.9195083975791931,0.0,0.05086461082100868,99
1659941441.27982593,115855000,0,23.979368209838867,24.781557083129883,15.760278701782227,38.7140007019043,0.9300097823143005,0.0,0.050899356603622437,99
1659941441.37975597,115954930,0,23.98665428161621,24.788427352905273,15.735727310180664,39.15083694458008,0.9404880404472351,0.0,0.05095239728689194,99
1659941441.47977281,116054947,0,23.999589920043945,24.79222297668457,15.53931713104248,39.58259201049805,0.9508500099182129,0.0,0.05100825056433678,99
1659941441.57985592,116155030,0,23.99700355529785,24.79425811767578,15.6141996383667,40.01670837402344,0.9612675309181213,0.0,0.05105964466929436,99
1659941441.67980886,116254983,0,23.951772689819336,24.72463035583496,15.136373519897461,40.43700408935547,0.9713343381881714,0.0,0.05105964466929436,99
1659941441.77993894,116355113,0,23.95512580871582,24.754636764526367,15.658390998840332,40.872554779052734,0.981768012046814,0.0,0.05105964466929436,99
1659941441.87981296,116454987,0,23.993553161621094,24.77450180053711,15.290431022644043,41.29678726196289,0.9919468760490417,0.0,0.05107433348894119,99
1659941441.97992802,116555102,0,24.017221450805664,24.791908264160156,15.144966125488281,41.71799850463867,1.0020631551742554,0.0,0.05115143582224846,99
1659941442.07978702,116654961,0,24.003454208374023,24.772600173950195,15.040282249450684,42.135231018066406,1.0120781660079956,0.0,0.05113907530903816,99
1659941442.17982101,116754995,0,24.01894760131836,24.790203094482422,15.06486701965332,42.55387496948242,1.0221335887908936,0.0,0.051195692270994186,99
1659941442.27980995,116854984,0,23.950334548950195,24.70547103881836,14.749999046325684,42.963584899902344,1.0319463014602661,0.0,0.051195692270994186,99
1659941442.37982202,116954996,0,23.98396873474121,24.743717193603516,14.864776611328125,43.3765754699707,1.0418514013290405,0.0,0.051110707223415375,99
1659941442.47982287,117054997,0,24.01453971862793,24.788454055786133,15.111822128295898,43.79638671875,1.05193293094635,0.0,0.05121256038546562,99
1659941442.57977986,117154954,0,23.984352111816406,24.736295700073242,14.682790756225586,44.2041015625,1.0617117881774902,0.0,0.05121256038546562,99
1659941442.67985082,117255025,0,23.98396873474121,24.727739334106445,14.523208618164062,44.607696533203125,1.0713915824890137,0.0,0.05121256038546562,99
1659941442.77980685,117354981,0,24.00140953063965,24.757522583007812,14.76288890838623,45.01777648925781,1.081234097480774,0.0,0.05121719464659691,99
1659941442.87981892,117454993,0,24.01293182373047,24.77303123474121,14.822732925415039,45.42959976196289,1.0911232233047485,0.0,0.051279328763484955,99
1659941442.97975683,117554931,0,24.0408935546875,24.777647018432617,14.348896980285645,45.827964782714844,1.1007002592086792,0.0,0.05134570971131325,99
1659941443.07987499,117655049,0,24.01913833618164,24.780925750732422,14.817822456359863,46.24008560180664,1.1105990409851074,0.0,0.051410164684057236,99
1659941443.17979884,117754973,0,23.977739334106445,24.724254608154297,14.520753860473633,46.64316940307617,1.1202640533447266,0.0,0.051410164684057236,99
1659941443.27983379,117855008,0,24.01894760131836,24.736743927001953,13.98646068572998,47.0318489074707,1.129599690437317,0.0,0.05132084712386131,99
1659941443.37985396,117955028,0,24.07807159423828,24.75088882446289,13.114280700683594,47.396236419677734,1.1383734941482544,0.0,0.051304154098033905,99
1659941443.47985482,118055029,0,24.081905364990234,24.78659439086914,13.702895164489746,47.77690505981445,1.147540807723999,0.0,0.051426272839307785,99
1659941443.57987189,118155046,0,23.952251434326172,24.76316261291504,15.771018028259277,48.2150993347168,1.158036470413208,0.0,0.05141786113381386,99
1659941443.67981291,118254987,0,23.885746002197266,24.709131240844727,15.944411277770996,48.6577033996582,1.1686084270477295,0.0,0.051640938967466354,99
1659941443.77985001,118355024,0,23.909860610961914,24.752037048339844,16.30364227294922,49.11085891723633,1.179443359375,0.0,0.05165566876530647,99
1659941443.87983584,118455010,0,23.916889190673828,24.76612663269043,16.455381393432617,49.56792449951172,1.1903749704360962,0.0,0.05160846188664436,99
1659941443.97989488,118555069,0,23.921585083007812,24.78272819519043,16.722681045532227,50.032588958740234,1.2014904022216797,0.0,0.05149548500776291,99
1659941444.07979989,118654974,0,23.879131317138672,24.73690414428711,16.626317977905273,50.49419403076172,1.2125132083892822,0.0,0.05159129574894905,99
1659941444.17985201,118755026,0,23.831602096557617,24.706758499145508,16.89300537109375,50.96354675292969,1.223698616027832,0.0,0.05180581286549568,99
1659941444.27988195,118855056,0,23.86782455444336,24.75644302368164,17.160306930541992,51.44058609008789,1.2350844144821167,0.0,0.05178341269493103,99
1659941444.37981987,118954994,0,23.869165420532227,24.754192352294922,17.094324111938477,51.9151725769043,1.2464123964309692,0.0,0.05177313834428787,99
1659941444.47983479,119055009,0,23.882776260375977,24.775989532470703,17.2867431640625,52.39546585083008,1.257883071899414,0.0,0.051670435816049576,99
1659941444.57985187,119155026,0,23.8754940032959,24.77269172668457,17.389856338500977,52.87864303588867,1.2694191932678223,0.0,0.05159314349293709,99
1659941444.67986894,119255043,0,23.810840606689453,24.699739456176758,17.147926330566406,53.35508728027344,1.2807637453079224,0.0,0.05183710530400276,99
1659941444.77981687,119354991,0,23.81569480895996,24.72460174560547,17.496349334716797,53.84088897705078,1.2923334836959839,0.0,0.0519484281539917,99
1659941444.87983394,119455008,0,23.828632354736328,24.760562896728516,17.95852279663086,54.3398551940918,1.3042231798171997,0.0,0.051893461495637894,99
1659941444.97983980,119555014,0,23.805633544921875,24.776575088500977,18.75305938720703,54.8608512878418,1.3166258335113525,0.0,0.05177511274814606,99
1659941445.07987285,119655047,0,23.76988983154297,24.74620246887207,18.847579956054688,55.384605407714844,1.3290753364562988,0.0,0.05180041119456291,99
1659941445.17987299,119755047,0,23.730886459350586,24.71138572692871,18.865379333496094,55.90858459472656,1.3415098190307617,0.0,0.051973484456539154,99
1659941445.27980685,119854981,0,23.730693817138672,24.734540939331055,19.294103622436523,56.44432830810547,1.354223370552063,0.0,0.052028726786375046,99
1659941445.37988186,119955056,0,23.72954559326172,24.752010345458984,19.66175651550293,56.99094009399414,1.3671942949295044,0.0,0.052002739161252975,99
1659941445.47985196,120055026,0,23.705429077148438,24.755273818969727,20.202836990356445,57.5517578125,1.3804887533187866,0.0,0.051965195685625076,99
1659941445.57986283,120155037,0,23.68134307861328,24.717817306518555,19.89621925354004,58.104774475097656,1.3935848474502563,0.0,0.05209400877356529,99
1659941445.67980981,120254984,0,23.67607307434082,24.736637115478516,20.345197677612305,58.66967010498047,1.4069594144821167,0.0,0.05212843418121338,99
1659941445.77988195,120355056,0,23.682109832763672,24.730609893798828,20.091707229614258,59.228214263916016,1.4201868772506714,0.0,0.05218566954135895,99
1659941445.87981200,120454986,0,23.66495704650879,24.722736358642578,20.236251831054688,59.78998947143555,1.433481216430664,0.0,0.05227147415280342,99
1659941445.97982597,120555000,0,23.691118240356445,24.7522029876709,20.319110870361328,60.35453414916992,1.446855902671814,0.0,0.052221015095710754,99
1659941446.07984495,120655019,0,23.728395462036133,24.74196434020996,19.40888023376465,60.8938102722168,1.459652066230774,0.0,0.05222193896770477,99
1659941446.17984080,120755015,0,23.656906127929688,24.68451690673828,19.584726333618164,61.43785095214844,1.4725223779678345,0.0,0.05247005820274353,99
1659941446.27990794,120855082,0,23.689105987548828,24.67829704284668,18.85249137878418,61.9619255065918,1.4849371910095215,0.0,0.05247005820274353,99
1659941446.37982798,120955002,0,23.660175323486328,24.726951599121094,20.331729888916016,62.52629470825195,1.4982903003692627,0.0,0.052468571811914444,99
1659941446.47985482,121055029,0,23.71641731262207,24.72733497619629,19.266176223754883,63.0616340637207,1.510986566543579,0.0,0.052471138536930084,99
1659941446.57984591,121155020,0,23.76778221130371,24.708250045776367,17.947168350219727,63.560176849365234,1.5228358507156372,0.0,0.052401989698410034,99
1659941446.67988896,121255063,0,23.732994079589844,24.658578872680664,17.744007110595703,64.05331420898438,1.5345395803451538,0.0,0.05216323211789131,99
1659941446.77976584,121354940,0,23.787521362304688,24.7010555267334,17.521820068359375,64.53947448730469,1.5461041927337646,0.0,0.052136994898319244,99
1659941446.87984991,121455024,0,23.802949905395508,24.70284080505371,17.2646484375,65.01948547363281,1.5575298070907593,0.0,0.0521232932806015,99
1659941446.97987580,121555050,0,23.8385009765625,24.729326248168945,17.06179428100586,65.49359130859375,1.5688318014144897,0.0,0.05221174284815788,99
1659941447.07981396,121654988,0,23.81780242919922,24.70975112915039,17.084810256958008,65.96791076660156,1.5801290273666382,0.0,0.052207134664058685,99
1659941447.17983985,121755014,0,23.808124542236328,24.67254638671875,16.602994918823242,66.42926788330078,1.5911130905151367,0.0,0.052064165472984314,99
1659941447.27980995,121854984,0,23.797954559326172,24.65517234802246,16.520509719848633,66.88806915283203,1.6020315885543823,0.0,0.05188814550638199,99
1659941447.37986588,121955040,0,23.828536987304688,24.67872428894043,16.400447845458984,67.34392547607422,1.6128939390182495,0.0,0.05183926597237587,99
1659941447.47980785,122054982,0,23.86772918701172,24.722675323486328,16.452003479003906,67.80070495605469,1.6237961053848267,0.0,0.05196603387594223,99
1659941447.57984495,122155019,0,23.882680892944336,24.717382431030273,16.03801155090332,68.24639892578125,1.634440541267395,0.0,0.05204522982239723,99
1659941447.67983198,122255006,0,23.81425666809082,24.63850212097168,15.908811569213867,68.68828582763672,1.6449638605117798,0.0,0.0518106184899807,99
1659941447.77987790,122355052,0,23.829687118530273,24.67166519165039,16.269405364990234,69.14046478271484,1.6557390689849854,0.0,0.05175225809216499,99
1659941447.87992382,122455098,0,23.8728084564209,24.70421600341797,16.0413875579834,69.58629608154297,1.6663824319839478,0.0,0.05182885378599167,99
1659941447.97981882,122554993,0,23.87529945373535,24.716941833496094,16.20526695251465,70.03600311279297,1.677119255065918,0.0,0.051936376839876175,99
1659941448.07998681,122655161,0,23.852256774902344,24.682601928710938,16.00152587890625,70.48126983642578,1.6877399682998657,0.0,0.05189165472984314,99
1659941448.17984796,122755022,0,23.826425552368164,24.647628784179688,15.825339317321777,70.9202880859375,1.6982002258300781,0.0,0.05189165472984314,99
1659941448.27993083,122855105,0,23.847604751586914,24.67876434326172,16.023895263671875,71.36579895019531,1.708824634552002,0.0,0.05187005177140236,99
1659941448.37982702,122955001,0,23.878557205200195,24.683902740478516,15.525506973266602,71.79664611816406,1.719112753868103,0.0,0.05187244340777397,99
1659941448.47987580,123055050,0,23.880380630493164,24.694499969482422,15.682021141052246,72.23250579833984,1.7295212745666504,0.0,0.05191414803266525,99
1659941448.57986188,123155036,0,23.90155792236328,24.70132827758789,15.388328552246094,72.65992736816406,1.7397373914718628,0.0,0.05197251960635185,99
1659941448.67982483,123254999,0,23.863895416259766,24.660999298095703,15.368379592895508,73.08670806884766,1.7499220371246338,0.0,0.05186643823981285,99
1659941448.77982283,123354997,0,23.842432022094727,24.627151489257812,15.129621505737305,73.50700378417969,1.759942889213562,0.0,0.05186643823981285,99
1659941448.87980986,123454984,0,23.895902633666992,24.687150955200195,15.240715980529785,73.93032836914062,1.7700586318969727,0.0,0.05191676318645477,99
1659941448.97987294,123555047,0,23.94063377380371,24.70701789855957,14.729301452636719,74.33976745605469,1.7798608541488647,0.0,0.05203123018145561,99
1659941449.07979584,123654970,0,23.926759719848633,24.707399368286133,14.977096557617188,74.75550842285156,1.7898082733154297,0.0,0.05212218686938286,99
1659941449.17984581,123755020,0,23.871274948120117,24.63751792907715,14.700897216796875,75.16410064697266,1.7995619773864746,0.0,0.05212218686938286,99
1659941449.27984691,123855021,0,23.883638381958008,24.652109146118164,14.773323059082031,75.57450866699219,1.8093640804290771,0.0,0.0520174466073513,99
1659941449.37989092,123955065,0,23.908649444580078,24.685548782348633,14.922778129577637,75.98918914794922,1.819278597831726,0.0,0.052061308175325394,99
1659941449.47987294,124055047,0,23.91391944885254,24.7059326171875,15.213095664978027,76.41178131103516,1.829384446144104,0.0,0.052061308175325394,99
1659941449.57985091,124155025,0,23.879514694213867,24.67249870300293,15.220767974853516,76.83451843261719,1.8394793272018433,0.0,0.05209886282682419,99
1659941449.67992091,124255095,0,23.859201431274414,24.629833221435547,14.791736602783203,77.24561309814453,1.849287748336792,0.0,0.05209886282682419,99
1659941449.77993393,124355108,0,23.882680892944336,24.67549705505371,15.22199535369873,77.66864776611328,1.8593909740447998,0.0,0.052083633840084076,99
1659941449.87983990,124455014,0,23.889951705932617,24.696392059326172,15.483566284179688,78.09837341308594,1.8696571588516235,0.0,0.052083633840084076,99
1659941449.97981191,124554986,0,23.898298263549805,24.705915451049805,15.506174087524414,78.52900695800781,1.879948616027832,0.0,0.052083633840084076,99
1659941450.07989693,124655071,0,23.86044692993164,24.694833755493164,16.03801155090332,78.97492980957031,1.890588402748108,0.0,0.05202554911375046,99
1659941450.17990685,124755081,0,23.80103302001953,24.65220832824707,16.319734573364258,79.42813873291016,1.9013752937316895,0.0,0.05215616524219513,99
1659941450.27986979,124855044,0,23.77880096435547,24.633975982666016,16.335695266723633,79.88180541992188,1.9121628999710083,0.0,0.05235008895397186,99
1659941450.37980390,124954978,0,23.805152893066406,24.671213150024414,16.53946876525879,80.34113311767578,1.9230972528457642,0.0,0.05236329883337021,98
1659941450.47981787,125054992,0,23.815980911254883,24.696231842041016,16.841140747070312,80.80905151367188,1.9342411756515503,0.0,0.05226793512701988,98
1659941450.57987189,125155046,0,23.78838348388672,24.689050674438477,17.249608993530273,81.28849792480469,1.9456465244293213,0.0,0.05221375450491905,98
1659941450.67980790,125254982,0,23.762893676757812,24.66315460205078,17.221067428588867,81.76659393310547,1.9570074081420898,0.0,0.05227667838335037,98
1659941450.77985787,125355032,0,23.721399307250977,24.623321533203125,17.17827606201172,82.24404907226562,1.96833336353302,0.0,0.05250367522239685,98
1659941450.87985992,125455034,0,23.749858856201172,24.668739318847656,17.498802185058594,82.73017883300781,1.9798787832260132,0.0,0.052511002868413925,98
1659941450.97990990,125555084,0,23.75254249572754,24.676105499267578,17.596393585205078,83.21925354003906,1.9914954900741577,0.0,0.05248590186238289,98
1659941451.07985187,125655026,0,23.741235733032227,24.6629638671875,17.5500545501709,83.70651245117188,2.003063678741455,0.0,0.05251994729042053,98
1659941451.17985702,125755031,0,23.733474731445312,24.66147804260254,17.65715980529785,84.19703674316406,2.0147054195404053,0.0,0.05255676805973053,98
1659941451.27984095,125855015,0,23.750722885131836,24.657024383544922,17.227205276489258,84.67555236816406,2.0260705947875977,0.0,0.052608735859394073,98
1659941451.37986684,125955041,0,23.762413024902344,24.644529342651367,16.767488479614258,85.14147186279297,2.037142038345337,0.0,0.052608735859394073,98
1659941451.47985387,126055028,0,23.811765670776367,24.697818756103516,16.80185890197754,85.60816955566406,2.04825496673584,0.0,0.05273544043302536,98
1659941451.57981896,126154993,0,23.792503356933594,24.69663429260254,17.1446533203125,86.08428192138672,2.0595829486846924,0.0,0.05273544043302536,98
1659941451.67988801,126255062,0,23.76675796508789,24.653583526611328,16.816486358642578,86.55175018310547,2.070693016052246,0.0,0.05273544043302536,98
1659941451.77981496,126354989,0,23.783784866333008,24.67662811279297,16.9249210357666,87.02159881591797,2.0818679332733154,0.0,0.05275319516658783,98
1659941451.87983990,126455014,0,23.78982162475586,24.674560546875,16.76932716369629,87.48756408691406,2.0929532051086426,0.0,0.05275933817028999,98
1659941451.97980690,126554981,0,23.772573471069336,24.64244842529297,16.48760414123535,87.94544219970703,2.1038382053375244,0.0,0.05275933817028999,98
1659941452.07987499,126655049,0,23.81713104248047,24.6878662109375,16.480852127075195,88.40359497070312,2.1147499084472656,0.0,0.05283309891819954,98
1659941452.17981601,126754990,0,23.801990509033203,24.675071716308594,16.522281646728516,88.86231231689453,2.1256682872772217,0.0,0.052842628210783005,98
1659941452.27983880,126855013,0,23.758005142211914,24.618257522583008,16.27953338623047,89.31465911865234,2.1364152431488037,0.0,0.052842628210783005,98
1659941452.37989998,126955074,0,23.783687591552734,24.640178680419922,16.23564910888672,89.76596069335938,2.147148847579956,0.0,0.052753761410713196,98
1659941452.47989392,127055068,0,23.82662010192871,24.690032958984375,16.330476760864258,90.21949768066406,2.1579551696777344,0.0,0.05287130922079086,98
1659941452.57992291,127155097,0,23.819570541381836,24.661088943481445,15.921395301818848,90.66201782226562,2.1684956550598145,0.0,0.05285460129380226,98
1659941452.67984200,127255016,0,23.761741638183594,24.628385543823242,16.396766662597656,91.11714935302734,2.1793103218078613,0.0,0.05285460129380226,98
1659941452.77984691,127355021,0,23.798158645629883,24.675443649291992,16.59808349609375,91.5782699584961,2.190284013748169,0.0,0.05285460129380226,98
1659941452.87991595,127455090,0,23.79595375061035,24.676450729370117,16.65884780883789,92.04137420654297,2.2013039588928223,0.0,0.05285460129380226,98
1659941452.97994280,127555117,0,23.806686401367188,24.693201065063477,16.772705078125,92.5074462890625,2.212399482727051,0.0,0.05285460129380226,98
1659941453.07981491,127654989,0,23.792024612426758,24.6915225982666,17.04982566833496,92.98048400878906,2.22365403175354,0.0,0.05275702849030495,98
1659941453.17987895,127755053,0,23.76787567138672,24.640918731689453,16.548368453979492,93.44049072265625,2.2345874309539795,0.0,0.05275702849030495,98
1659941453.27987480,127855049,0,23.75091552734375,24.622339248657227,16.51767921447754,93.89933013916016,2.245485305786133,0.0,0.05275702849030495,98
1659941453.37980485,127954979,0,23.777406692504883,24.670793533325195,16.95049476623535,94.36988830566406,2.25667405128479,0.0,0.052705634385347366,98
1659941453.47984791,128055022,0,23.80036163330078,24.68872833251953,16.855257034301758,94.83832550048828,2.2678229808807373,0.0,0.052705634385347366,98
1659941453.57980394,128154978,0,23.796720504760742,24.678634643554688,16.73280906677246,95.30290222167969,2.2788784503936768,0.0,0.052705634385347366,98
1659941453.67988992,128255064,0,23.737977981567383,24.615846633911133,16.656085968017578,95.76606750488281,2.2898731231689453,0.0,0.052705634385347366,98
1659941453.77982283,128354997,0,23.780908584594727,24.656776428222656,16.620182037353516,96.22747039794922,2.3008456230163574,0.0,0.05269904062151909,98
1659941453.87985587,128455030,0,23.787521362304688,24.659372329711914,16.542537689208984,96.68717193603516,2.3117806911468506,0.0,0.052703607827425,98
1659941453.97984791,128555022,0,23.795475006103516,24.678470611572266,16.753984451293945,97.15251159667969,2.3228535652160645,0.0,0.052703607827425,98
1659941454.07989788,128655072,0,23.758676528930664,24.6326961517334,16.583660125732422,97.61341094970703,2.33380389213562,0.0,0.052703607827425,98
1659941454.17985892,128755033,0,23.732515335083008,24.601293563842773,16.484228134155273,98.0711898803711,2.34466814994812,0.0,0.052703607827425,98
1659941454.27981496,128854989,0,23.812864303588867,24.645431518554688,15.799661636352539,98.50996398925781,2.355116605758667,0.0,0.052695274353027344,98
1659941454.37999797,128955172,0,23.82307243347168,24.6723575592041,16.088035583496094,98.9571304321289,2.365769386291504,0.0,0.05278982222080231,98
1659941454.47989893,129055073,0,23.80170440673828,24.66010856628418,16.252220153808594,99.40872192382812,2.3765180110931396,0.0,0.05281761661171913,98
1659941454.57991290,129155087,0,23.813777923583984,24.6740665435791,16.26511001586914,99.86044311523438,2.387275218963623,0.0,0.05289170891046524,98
1659941454.67982888,129255003,0,23.762605667114258,24.62196922302246,16.247617721557617,100.31161499023438,2.397996187210083,0.0,0.05289170891046524,98
1659941454.77989197,129355066,0,23.74593162536621,24.596675872802734,16.084659576416016,100.75875854492188,2.408613920211792,0.0,0.05289170891046524,98
1659941454.87981296,129454987,0,23.781484603881836,24.656009674072266,16.534252166748047,101.21772003173828,2.4195287227630615,0.0,0.05289170891046524,98
1659941454.97981787,129554992,0,23.79595375061035,24.654617309570312,16.223678588867188,101.66844177246094,2.4302539825439453,0.0,0.05292658507823944,98
1659941455.07984495,129655019,0,23.793079376220703,24.656457901000977,16.302244186401367,102.1214370727539,2.4410321712493896,0.0,0.05296076089143753,98
1659941455.17985797,129755032,0,23.738969802856445,24.58907699584961,16.051652908325195,102.56741333007812,2.4516191482543945,0.0,0.05296076089143753,98
1659941455.27987790,129855052,0,23.757143020629883,24.62142562866211,16.295799255371094,103.02020263671875,2.462376117706299,0.0,0.053037129342556,98
1659941455.37980580,129954980,0,23.788576126098633,24.65261459350586,16.291194915771484,103.47244262695312,2.4731342792510986,0.0,0.053037129342556,98
1659941455.47988796,130055062,0,23.797008514404297,24.671968460083008,16.49711799621582,103.93110656738281,2.484049081802368,0.0,0.053037129342556,98
1659941455.57988882,130155063,0,23.778512954711914,24.632606506347656,16.103687286376953,104.37847900390625,2.4946868419647217,0.0,0.053037129342556,98
1659941455.67989683,130255071,0,23.742671966552734,24.60552215576172,16.2687931060791,104.83045959472656,2.505418062210083,0.0,0.053037129342556,98
1659941455.77981782,130354992,0,23.78905487060547,24.65123176574707,16.239639282226562,105.28124237060547,2.516141891479492,0.0,0.05309094116091728,98
1659941455.87982988,130455004,0,23.798830032348633,24.665342330932617,16.321269989013672,105.73470306396484,2.5269336700439453,0.0,0.05309094116091728,98
1659941455.97988391,130555058,0,23.7952823638916,24.65618133544922,16.20189094543457,106.18502807617188,2.537649393081665,0.0,0.0531357005238533,98
1659941456.07982087,130654995,0,23.8044490814209,24.670175552368164,16.2927303314209,106.63734436035156,2.5484163761138916,0.0,0.0531357005238533,98
1659941456.17981887,130754993,0,23.766437530517578,24.615041732788086,15.97049617767334,107.08101654052734,2.5589609146118164,0.0,0.0531357005238533,98
1659941456.27981400,130854988,0,23.759729385375977,24.623428344726562,16.226749420166016,107.53177642822266,2.5696706771850586,0.0,0.05322682484984398,98
1659941456.37984490,130955019,0,23.767492294311523,24.63243865966797,16.2371826171875,107.98297882080078,2.580394744873047,0.0,0.053269535303115845,98
1659941456.47982001,131054994,0,23.76576805114746,24.625385284423828,16.137136459350586,108.43115997314453,2.591046094894409,0.0,0.053269535303115845,98
1659941456.57989383,131155068,0,23.803621292114258,24.655170440673828,15.967121124267578,108.87487030029297,2.6016080379486084,0.0,0.05333138629794121,98
1659941456.67983890,131255013,0,23.74574089050293,24.604490280151367,16.10215187072754,109.32198333740234,2.61222505569458,0.0,0.05333138629794121,98
1659941456.77982187,131354996,0,23.779088973999023,24.629199981689453,15.947786331176758,109.76506805419922,2.6227612495422363,0.0,0.05330584570765495,98
1659941456.87989187,131455066,0,23.818078994750977,24.65359878540039,15.653038024902344,110.2001953125,2.633125066757202,0.0,0.05337752774357796,98
1659941456.97984290,131555017,0,23.812820434570312,24.665061950683594,15.936739921569824,110.64271545410156,2.643662691116333,0.0,0.05347653478384018,98
1659941457.07989001,131655064,0,23.780046463012695,24.626855850219727,15.835158348083496,111.08282470703125,2.6541285514831543,0.0,0.05347653478384018,98
1659941457.17985487,131755029,0,23.7761173248291,24.595191955566406,15.316515922546387,111.50817108154297,2.6642415523529053,0.0,0.05347653478384018,98
1659941457.27990985,131855084,0,23.793941497802734,24.63081169128418,15.652560234069824,111.9432373046875,2.674593448638916,0.0,0.05346539244055748,98
1659941457.37982082,131954995,0,23.828344345092773,24.66161346435547,15.554047584533691,112.37494659423828,2.684880256652832,0.0,0.05357249826192856,98
1659941457.47994685,132055121,0,23.837448120117188,24.66044807434082,15.339531898498535,112.8016128540039,2.6950509548187256,0.0,0.053652260452508926,98
1659941457.57988787,132155062,0,23.84271812438965,24.665727615356445,15.316208839416504,113.22657012939453,2.7051830291748047,0.0,0.05373454838991165,98
1659941457.67981195,132254986,0,23.786754608154297,24.59790802001953,15.095556259155273,113.64588165283203,2.7151570320129395,0.0,0.05373454838991165,98
1659941457.77985001,132355024,0,23.78965187072754,24.605329513549805,15.179746627807617,114.0677261352539,2.7251925468444824,0.0,0.05373454838991165,98
1659941457.87981296,132454987,0,23.809656143188477,24.64663314819336,15.57614517211914,114.50028228759766,2.7354915142059326,0.0,0.05373454838991165,98
1659941457.97987485,132555049,0,23.841569900512695,24.66167640686035,15.235190391540527,114.92377471923828,2.7455883026123047,0.0,0.053829800337553024,98
1659941458.07981396,132654988,0,23.833518981933594,24.65572738647461,15.259435653686523,115.34742736816406,2.755685329437256,0.0,0.053882014006376266,98
1659941458.17982292,132754997,0,23.764808654785156,24.589548110961914,15.306389808654785,115.77267456054688,2.765791177749634,0.0,0.053882014006376266,98
1659941458.27980185,132854976,0,23.800649642944336,24.62666130065918,15.330018043518066,116.19845581054688,2.7759249210357666,0.0,0.053882014006376266,98
1659941458.37986898,132955043,0,23.80984878540039,24.653257369995117,15.652867317199707,116.63359069824219,2.786285400390625,0.0,0.053882014006376266,98
1659941458.47986197,133055036,0,23.822114944458008,24.669143676757812,15.720075607299805,117.07012176513672,2.796684503555298,0.0,0.053882014006376266,98
1659941458.57984900,133155023,0,23.793655395507812,24.61733627319336,15.286748886108398,117.49486541748047,2.806790590286255,0.0,0.053882014006376266,98
1659941458.67986488,133255039,0,23.77133560180664,24.595956802368164,15.304205894470215,117.92008972167969,2.816898822784424,0.0,0.053882014006376266,98
1659941458.77985382,133355028,0,23.786083221435547,24.631452560424805,15.689386367797852,118.35589599609375,2.8272647857666016,0.0,0.05388156324625015,98
1659941458.87983799,133455012,0,23.802852630615234,24.655248641967773,15.819814682006836,118.79530334472656,2.837723970413208,0.0,0.05388156324625015,98
1659941458.97982788,133555002,0,23.808507919311523,24.655431747436523,15.718234062194824,119.2319107055664,2.848118782043457,0.0,0.05388156324625015,98
1659941459.07986498,133655039,0,23.804100036621094,24.665739059448242,15.991364479064941,119.67632293701172,2.8586976528167725,0.0,0.05388156324625015,98
1659941459.17989802,133755072,0,23.748327255249023,24.601526260375977,15.782679557800293,120.11463928222656,2.8691070079803467,0.0,0.0540592260658741,98
1659941459.27984595,133855020,0,23.744014739990234,24.597841262817383,15.743705749511719,120.55204010009766,2.8794925212860107,0.0,0.05423283576965332,98
1659941459.37978196,133954956,0,23.773815155029297,24.645479202270508,16.087114334106445,120.9986572265625,2.8901102542877197,0.0,0.054184023290872574,98
1659941459.47991490,134055089,0,23.808177947998047,24.67224884033203,15.946969032287598,121.44224548339844,2.9006712436676025,0.0,0.054184023290872574,98
1659941459.57987285,134155047,0,23.7845516204834,24.648771286010742,15.95883560180664,121.8853988647461,2.9112114906311035,0.0,0.05415303632616997,98
1659941459.67982101,134254995,0,23.734336853027344,24.59855079650879,15.903902053833008,122.32697296142578,2.92169189453125,0.0,0.0543397031724453,98
1659941459.77988482,134355059,0,23.763179779052734,24.620756149291992,15.781760215759277,122.76554107666016,2.9321136474609375,0.0,0.0543397031724453,98
1659941459.87980795,134454982,0,23.77621078491211,24.64505958557129,15.989216804504395,123.20951843261719,2.942669630050659,0.0,0.0543397031724453,98
1659941459.97984099,134555015,0,23.800168991088867,24.659408569335938,15.787283897399902,123.64823150634766,2.953111171722412,0.0,0.054426051676273346,98
1659941460.07982397,134654998,0,23.745643615722656,24.609886169433594,15.840068817138672,124.08819580078125,2.9635584354400635,0.0,0.05456055700778961,98
1659941460.17983294,134755007,0,23.71660614013672,24.594209671020508,16.030033111572266,124.5335464477539,2.974120616912842,0.0,0.05474742129445076,98
1659941460.27987981,134855054,0,23.75254249572754,24.63910484313965,16.201278686523438,124.98382568359375,2.984815835952759,0.0,0.054721761494874954,98
1659941460.37983584,134955010,0,23.76633071899414,24.656572341918945,16.26852035522461,125.4355697631836,2.9955520629882812,0.0,0.054721761494874954,98
1659941460.47983885,135055013,0,23.74018096923828,24.634151458740234,16.332319259643555,125.88929748535156,3.0063235759735107,0.0,0.05473633483052254,98
1659941460.57982683,135155001,0,23.76653289794922,24.66179847717285,16.35594940185547,126.3436050415039,3.017120838165283,0.0,0.05473633483052254,98
1659941460.68000484,135255179,0,23.71727752685547,24.595609664916992,16.04660415649414,126.79017639160156,3.027712345123291,0.0,0.05473633483052254,98
1659941460.77982688,135355001,0,23.734146118164062,24.605911254882812,15.92661190032959,127.23182678222656,3.0381946563720703,0.0,0.05473633483052254,98
1659941460.87983179,135455006,0,23.76787567138672,24.650156021118164,16.118724822998047,127.67962646484375,3.048837900161743,0.0,0.05473633483052254,98
1659941460.97981286,135554987,0,23.759729385375977,24.652273178100586,16.306232452392578,128.13253784179688,3.059598922729492,0.0,0.05473633483052254,98
1659941461.07988691,135655061,0,23.762413024902344,24.642459869384766,16.070541381835938,128.57931518554688,3.0702152252197266,0.0,0.054761435836553574,98
1659941461.17980099,135754975,0,23.710432052612305,24.585447311401367,15.978680610656738,129.0228271484375,3.08073091506958,0.0,0.054761435836553574,98
1659941461.27980900,135854983,0,23.729162216186523,24.607526779174805,16.039854049682617,129.46844482421875,3.0913052558898926,0.0,0.054761435836553574,98
1659941461.37987900,135955053,0,23.765291213989258,24.644180297851562,16.028499603271484,129.91403198242188,3.1018946170806885,0.0,0.05483287200331688,98
1659941461.47987700,136055051,0,23.793367385864258,24.65676498413086,15.71639347076416,130.35060119628906,3.1122822761535645,0.0,0.05493608117103577,98
1659941461.57987881,136155053,0,23.749284744262695,24.609832763671875,15.664527893066406,130.78578186035156,3.122617483139038,0.0,0.05493608117103577,98
1659941461.67981291,136254987,0,23.7208251953125,24.588741302490234,15.798639297485352,131.22438049316406,3.133021354675293,0.0,0.05493608117103577,98
1659941461.77986598,136355040,0,23.761072158813477,24.626665115356445,15.753524780273438,131.66224670410156,3.143425464630127,0.0,0.05494595319032669,98
1659941461.87984991,136455024,0,23.76720428466797,24.64372444152832,15.952390670776367,132.10533142089844,3.153956174850464,0.0,0.05494595319032669,98
1659941461.97984481,136555019,0,23.786659240722656,24.65691566467285,15.806925773620605,132.54443359375,3.164400815963745,0.0,0.05505536124110222,98
1659941462.07982183,136654996,0,23.78922462463379,24.659217834472656,15.775110244750977,132.98255920410156,3.174823522567749,0.0,0.05514974147081375,98
1659941462.17984295,136755017,0,23.727819442749023,24.587583541870117,15.58964729309082,133.4157257080078,3.1851017475128174,0.0,0.05514974147081375,98
1659941462.27995896,136855133,0,23.736637115478516,24.60210609436035,15.693070411682129,133.85218811035156,3.1954617500305176,0.0,0.05514974147081375,98
1659941462.37982297,136954997,0,23.775543212890625,24.642240524291992,15.697979927062988,134.2876739501953,3.2058157920837402,0.0,0.05521078035235405,98
1659941462.47984290,137055017,0,23.80381202697754,24.653587341308594,15.366232872009277,134.71463012695312,3.2159790992736816,0.0,0.055301468819379807,98
1659941462.57985783,137155032,0,23.797103881835938,24.628124237060547,15.0338716506958,135.13233947753906,3.225919246673584,0.0,0.055276572704315186,98
1659941462.67989087,137255065,0,23.761072158813477,24.581186294555664,14.836542129516602,135.5446319580078,3.235715866088867,0.0,0.055276572704315186,98
1659941462.77982497,137354999,0,23.79652976989746,24.60814666748047,14.699361801147461,135.9527130126953,3.245426654815674,0.0,0.055214423686265945,98
1659941462.87988400,137455058,0,23.811765670776367,24.634450912475586,14.886259078979492,136.36648559570312,3.255279541015625,0.0,0.05526478588581085,98
1659941462.97981381,137554988,0,23.832029342651367,24.643901824951172,14.67065143585205,136.7737579345703,3.2649855613708496,0.0,0.055339958518743515,98
1659941463.07983184,137655006,0,23.78618049621582,24.60392189025879,14.77669906616211,137.184326171875,3.2747514247894287,0.0,0.055339958518743515,98
1659941463.17985201,137755026,0,23.760210037231445,24.577442169189453,14.767492294311523,137.5946502685547,3.28450083732605,0.0,0.055339958518743515,98
1659941463.27984381,137855018,0,23.813968658447266,24.62214469909668,14.598089218139648,138.00015258789062,3.2941575050354004,0.0,0.0553617849946022,98
1659941463.37990189,137955076,0,23.828248977661133,24.63844108581543,14.613740921020508,138.40635681152344,3.3038365840911865,0.0,0.05544044449925423,98
1659941463.47989893,138055073,0,23.84501838684082,24.642684936523438,14.367616653442383,138.80548095703125,3.3133537769317627,0.0,0.05551838129758835,98
1659941463.57985282,138155027,0,23.860925674438477,24.656518936157227,14.301021575927734,139.20257568359375,3.322828769683838,0.0,0.055631961673498154,98
1659941463.67984080,138255015,0,23.8625545501709,24.655380249023438,14.229516983032227,139.5978240966797,3.3322606086730957,0.0,0.05571702867746353,98
1659941463.77986979,138355044,0,23.810306549072266,24.589752197265625,13.989357948303223,139.98655700683594,3.3415164947509766,0.0,0.05571702867746353,98
1659941463.87981391,138454988,0,23.792503356933594,24.575977325439453,14.061647415161133,140.37696838378906,3.3508055210113525,0.0,0.05571702867746353,98
1659941463.97981596,138554990,0,23.845592498779297,24.642024993896484,14.27370834350586,140.77349853515625,3.3602609634399414,0.0,0.05579720437526703,98
1659941464.07989001,138655064,0,23.84051513671875,24.626461029052734,14.084664344787598,141.16505432128906,3.369596004486084,0.0,0.055801548063755035,98
1659941464.17985201,138755026,0,23.817611694335938,24.582801818847656,13.712714195251465,141.5458526611328,3.3786656856536865,0.0,0.055801548063755035,98
1659941464.27988291,138855057,0,23.825563430786133,24.602989196777344,13.946564674377441,141.93341064453125,3.387899398803711,0.0,0.05574311688542366,98
1659941464.37981081,138954985,0,23.84271812438965,24.63550567626953,14.222150802612305,142.32821655273438,3.3973124027252197,0.0,0.05574311688542366,98
1659941464.47982502,139054999,0,23.857763290405273,24.65130043029785,14.204044342041016,142.72286987304688,3.4067280292510986,0.0,0.05586701259016991,98
1659941464.57986403,139155038,0,23.804290771484375,24.600481033325195,14.22460651397705,143.11817932128906,3.416138172149658,0.0,0.055972788482904434,98
1659941464.67984891,139255023,0,23.79178237915039,24.600360870361328,14.421731948852539,143.5187530517578,3.425668478012085,0.0,0.05606667324900627,98
1659941464.77981687,139354991,0,23.799020767211914,24.61612319946289,14.569549560546875,143.92335510253906,3.435297727584839,0.0,0.0560828298330307,98
1659941464.87984991,139455024,0,23.8126277923584,24.646148681640625,14.892395973205566,144.3372039794922,3.445152521133423,0.0,0.05596962198615074,98
1659941464.97986889,139555043,0,23.799116134643555,24.658008575439453,15.387100219726562,144.76473999023438,3.4553275108337402,0.0,0.05581903085112572,98
1659941465.07981896,139654993,0,23.793367385864258,24.654380798339844,15.457685470581055,145.19393920898438,3.4655394554138184,0.0,0.05570126324892044,98
1659941465.17985082,139755025,0,23.707504272460938,24.57768440246582,15.560184478759766,145.6263427734375,3.4757907390594482,0.0,0.055923495441675186,98
1659941465.27993894,139855113,0,23.75398063659668,24.660551071166992,16.25651741027832,146.07833862304688,3.486527442932129,0.0,0.05576654523611069,98
1659941465.37994981,139955124,0,23.693321228027344,24.604970932006836,16.318815231323242,146.53172302246094,3.497269868850708,0.0,0.05586492270231247,98
1659941465.47980499,140054979,0,23.69159698486328,24.631568908691406,16.83377456665039,146.99868774414062,3.5083329677581787,0.0,0.05583847314119339,98
1659941465.57988787,140155062,0,23.677955627441406,24.643539428710938,17.31569480895996,147.4800567626953,3.519730806350708,0.0,0.05576353520154953,98
