timestamp,TimeUS,Instance,Volt,VoltR,Curr,CurrTot,EnrgTot,Temp,Res,RemPct
1659339519.32060409,154719768,0,24.78509521484375,24.81429672241211,0.16495276987552643,9.298629760742188,0.23040135204792023,0.0,0.17703254520893097,99
1659339519.42014599,154819310,0,24.80915069580078,24.845823287963867,0.20714998245239258,9.30435848236084,0.23054346442222595,0.0,0.17703254520893097,99
1659339519.52021313,154919377,0,24.818347930908203,24.858551025390625,0.2270977646112442,9.310670852661133,0.23070012032985687,0.0,0.17703254520893097,99
1659339519.62012100,155019285,0,24.787012100219727,24.816078186035156,0.1641855537891388,9.315228462219238,0.23081308603286743,0.0,0.17703254520893097,99
1659339519.72012997,155119294,0,24.74551773071289,24.762250900268555,0.09452176839113235,9.317852973937988,0.2308780401945114,0.0,0.17703254520893097,99
1659339519.82005405,155219218,0,24.780303955078125,24.808446884155273,0.15896843373775482,9.322267532348633,0.23098742961883545,0.0,0.17703254520893097,99
1659339519.92006111,155319225,0,24.78940773010254,24.81847381591797,0.1641855537891388,9.326828956604004,0.23110049962997437,0.0,0.17703254520893097,99
1659339520.02007008,155419234,0,24.790557861328125,24.82201385498047,0.17768865823745728,9.331765174865723,0.23122288286685944,0.0,0.17703254520893097,99
1659339520.12013006,155519294,0,24.783287048339844,24.81214141845703,0.16299208998680115,9.336296081542969,0.23133516311645508,0.0,0.17703254520893097,99
1659339520.22010398,155619268,0,24.772159576416016,24.79845428466797,0.14853420853614807,9.340420722961426,0.2314373403787613,0.0,0.17703254520893097,99
1659339520.32023597,155719400,0,24.77091407775879,24.794384002685547,0.13257598876953125,9.344109535217285,0.23152869939804077,0.0,0.17703254520893097,99
1659339520.42014098,155819305,0,24.825632095336914,24.86703109741211,0.23384931683540344,9.35059928894043,0.23168981075286865,0.0,0.17703254520893097,99
1659339520.52009606,155919260,0,24.815378189086914,24.854875564575195,0.2231082022190094,9.356795310974121,0.23184356093406677,0.0,0.17703254520893097,99
1659339520.62014508,156019309,0,24.816240310668945,24.855955123901367,0.22433575987815857,9.363030433654785,0.2319982945919037,0.0,0.17703254520893097,99
1659339520.72012210,156119286,0,24.74542236328125,24.763513565063477,0.10219399631023407,9.36586856842041,0.2320685237646103,0.0,0.17703254520893097,99
1659339520.82015109,156219315,0,24.759990692138672,24.78215789794922,0.12521065771579742,9.36934757232666,0.23215466737747192,0.0,0.17703254520893097,99
1659339520.92009497,156319259,0,24.79688262939453,24.82953453063965,0.18444019556045532,9.374468803405762,0.2322816550731659,0.0,0.17703254520893097,99
1659339521.02015805,156419322,0,24.792762756347656,24.824153900146484,0.17731358110904694,9.379396438598633,0.23240382969379425,0.0,0.17703254520893097,99
1659339521.12013006,156519294,0,24.764205932617188,24.787731170654297,0.13288287818431854,9.383087158203125,0.2324952334165573,0.0,0.17703254520893097,99
1659339521.22017097,156619335,0,24.78289222717285,24.8128719329834,0.16940265893936157,9.387795448303223,0.23261190950870514,0.0,0.17697373032569885,99
1659339521.32007909,156719243,0,24.808284759521484,24.84434700012207,0.20377419888973236,9.393450736999512,0.2327522188425064,0.0,0.17697373032569885,99
1659339521.42006898,156819233,0,24.778196334838867,24.806438446044922,0.1595821976661682,9.397883415222168,0.23286205530166626,0.0,0.17697373032569885,99
1659339521.52010202,156919266,0,24.820743560791016,24.86191177368164,0.23262175917625427,9.40434741973877,0.2330225110054016,0.0,0.17697373032569885,99
1659339521.62007594,157019240,0,24.810108184814453,24.84682273864746,0.20745687186717987,9.410109519958496,0.2331654578447342,0.0,0.17697373032569885,99
1659339521.72011900,157119283,0,24.742835998535156,24.760269165039062,0.09851132333278656,9.412847518920898,0.23323319852352142,0.0,0.17697373032569885,99
1659339521.82012415,157219288,0,24.75337791442871,24.774723052978516,0.12060733139514923,9.416197776794434,0.23331613838672638,0.0,0.17697373032569885,99
1659339521.92013001,157319294,0,24.795211791992188,24.827857971191406,0.18447431921958923,9.4213228225708,0.2334432154893875,0.0,0.17697373032569885,99
1659339522.02010894,157419273,0,24.792858123779297,24.824466705322266,0.17860932648181915,9.42628288269043,0.23356617987155914,0.0,0.17697373032569885,99
1659339522.12017393,157519338,0,24.784425735473633,24.812450408935547,0.15835465490818024,9.430685997009277,0.2336753010749817,0.0,0.17697373032569885,99
1659339522.22033811,157619502,0,24.759031295776367,24.78091812133789,0.12367620319128036,9.434126853942871,0.2337605059146881,0.0,0.17697373032569885,99
1659339522.32012105,157719285,0,24.758264541625977,24.77955436706543,0.12030044198036194,9.437461853027344,0.23384307324886322,0.0,0.17697373032569885,99
1659339522.42023516,157819399,0,24.811159133911133,24.849231719970703,0.215129092335701,9.443445205688477,0.23399151861667633,0.0,0.17697373032569885,99
1659339522.52009797,157919262,0,24.798416137695312,24.831491470336914,0.18689532577991486,9.448630332946777,0.23412010073661804,0.0,0.17697373032569885,99
1659339522.62013602,158019300,0,24.797649383544922,24.832136154174805,0.19487443566322327,9.454046249389648,0.234254390001297,0.0,0.17697373032569885,99
1659339522.72011900,158119283,0,24.77104377746582,24.7961483001709,0.14185084402561188,9.457985877990723,0.2343519926071167,0.0,0.17697373032569885,99
1659339522.82007694,158219241,0,24.759798049926758,24.78179359436035,0.12428998947143555,9.461437225341797,0.23443745076656342,0.0,0.17697373032569885,99
1659339522.92005897,158319223,0,24.78557586669922,24.815610885620117,0.16970953345298767,9.466151237487793,0.23455427587032318,0.0,0.17697373032569885,99
1659339523.02013397,158419298,0,24.816911697387695,24.856016159057617,0.22095997631549835,9.472293853759766,0.23470672965049744,0.0,0.17697373032569885,99
1659339523.12009311,158519257,0,24.78059196472168,24.808345794677734,0.15682020783424377,9.47664737701416,0.2348146140575409,0.0,0.17697373032569885,99
1659339523.22006392,158619228,0,24.761714935302734,24.783275604248047,0.12183487415313721,9.480031967163086,0.2348984181880951,0.0,0.17697373032569885,99
1659339523.32012701,158719291,0,24.758169174194336,24.78005599975586,0.12367620319128036,9.48346996307373,0.23498353362083435,0.0,0.17697373032569885,99
1659339523.42013812,158819302,0,24.812503814697266,24.850521087646484,0.2148222029209137,9.4894380569458,0.2351316213607788,0.0,0.17697373032569885,99
1659339523.52014995,158919314,0,24.80196189880371,24.837644577026367,0.2016259729862213,9.495039939880371,0.23527055978775024,0.0,0.17697373032569885,99
1659339523.62007308,159019237,0,24.80255889892578,24.836894989013672,0.19402195513248444,9.500425338745117,0.2354041337966919,0.0,0.17697373032569885,99
1659339523.72013593,159119300,0,24.74082374572754,24.758529663085938,0.10004577040672302,9.503206253051758,0.2354729324579239,0.0,0.17697373032569885,99
1659339523.82012296,159219287,0,24.80119514465332,24.836986541748047,0.2022397667169571,9.50882339477539,0.23561225831508636,0.0,0.17697373032569885,99
1659339523.92016006,159319324,0,24.775129318237305,24.800329208374023,0.1423964500427246,9.51278018951416,0.2357102930545807,0.0,0.17697373032569885,99
1659339524.02017093,159419335,0,24.81700897216797,24.857471466064453,0.22863219678401947,9.519131660461426,0.2358679175376892,0.0,0.17697373032569885,99
1659339524.12018299,159519347,0,24.787683486938477,24.817609786987305,0.16909575462341309,9.52383041381836,0.23598438501358032,0.0,0.17697373032569885,99
1659339524.22028112,159619445,0,24.788162231445312,24.819015502929688,0.17431285977363586,9.528677940368652,0.23610453307628632,0.0,0.17699943482875824,99
1659339524.32005596,159719220,0,24.747533798217773,24.766164779663086,0.1052628755569458,9.531595230102539,0.2361767441034317,0.0,0.17699943482875824,99
1659339524.42008710,159819251,0,24.817869186401367,24.85877227783203,0.231087327003479,9.538017272949219,0.2363361120223999,0.0,0.17699943482875824,99
1659339524.52011704,159919281,0,24.800216674804688,24.83443832397461,0.1933399885892868,9.543390274047852,0.2364693582057953,0.0,0.17699943482875824,99
1659339524.62008500,160019249,0,24.798606872558594,24.834077835083008,0.20039844512939453,9.548955917358398,0.2366073727607727,0.0,0.17699943482875824,99
1659339524.72008514,160119249,0,24.751171112060547,24.770401000976562,0.10863865911960602,9.551974296569824,0.23668207228183746,0.0,0.17699943482875824,99
1659339524.82014608,160219310,0,24.77676010131836,24.804136276245117,0.15467199683189392,9.556273460388184,0.23678860068321228,0.0,0.17699943482875824,99
1659339524.92012501,160319289,0,24.800716400146484,24.834665298461914,0.19180554151535034,9.561600685119629,0.23692071437835693,0.0,0.17699943482875824,99
1659339525.02013111,160419295,0,24.819595336914062,24.861257553100586,0.2353837490081787,9.568140983581543,0.23708303272724152,0.0,0.17699943482875824,99
1659339525.12015605,160519320,0,24.783849716186523,24.813236236572266,0.16602687537670135,9.57275390625,0.2371973693370819,0.0,0.17699943482875824,99
1659339525.22009993,160619264,0,24.76066017150879,24.782712936401367,0.12459687888622284,9.576212882995605,0.23728302121162415,0.0,0.17699943482875824,99
1659339525.32015514,160719319,0,24.759990692138672,24.782533645629883,0.12735888361930847,9.579752922058105,0.23737066984176636,0.0,0.17699943482875824,99
1659339525.42011809,160819282,0,24.813631057739258,24.852741241455078,0.22095997631549835,9.585888862609863,0.2375229299068451,0.0,0.17699943482875824,99
1659339525.52014112,160919305,0,24.788259506225586,24.81938362121582,0.17584732174873352,9.590774536132812,0.2376440465450287,0.0,0.17699943482875824,99
1659339525.62010503,161019269,0,24.806367874145508,24.843141555786133,0.20776376128196716,9.59654426574707,0.2377871721982956,0.0,0.17699943482875824,99
1659339525.72016692,161119331,0,24.766794204711914,24.791671752929688,0.14055509865283966,9.600451469421387,0.23788394033908844,0.0,0.17699943482875824,99
1659339525.82014608,161219310,0,24.75922393798828,24.78203773498535,0.12889331579208374,9.604031562805176,0.23797257244586945,0.0,0.17699943482875824,99
1659339525.92005801,161319222,0,24.797744750976562,24.832563400268555,0.19671577215194702,9.609491348266602,0.23810796439647675,0.0,0.17699943482875824,99
1659339526.02010298,161419267,0,24.813175201416016,24.852394104003906,0.22157374024391174,9.615649223327637,0.23826076090335846,0.0,0.17699943482875824,99
1659339526.12007213,161519236,0,24.7924747467041,24.82550048828125,0.18658843636512756,9.620830535888672,0.23838922381401062,0.0,0.17699943482875824,99
1659339526.22010899,161619273,0,24.767526626586914,24.79112434387207,0.13332615792751312,9.62453556060791,0.23848100006580353,0.0,0.17699943482875824,99
1659339526.32008410,161719248,0,24.758840560913086,24.781654357910156,0.12889331579208374,9.6281156539917,0.23856963217258453,0.0,0.17699943482875824,99
1659339526.42013407,161819298,0,24.81719970703125,24.85772132873535,0.22893908619880676,9.634478569030762,0.23872753977775574,0.0,0.17699943482875824,99
1659339526.52011108,161919275,0,24.797361373901367,24.830659866333008,0.18812286853790283,9.639702796936035,0.23885709047317505,0.0,0.17699943482875824,99
1659339526.62021899,162019383,0,24.802824020385742,24.839109420776367,0.20500177145004272,9.645403861999512,0.23899848759174347,0.0,0.17699943482875824,99
1659339526.72013712,162119301,0,24.74954605102539,24.768232345581055,0.10556977242231369,9.648334503173828,0.23907101154327393,0.0,0.17699943482875824,99
1659339526.82009196,162219256,0,24.80685043334961,24.844547271728516,0.21298088133335114,9.654248237609863,0.23921771347522736,0.0,0.17699943482875824,99
1659339526.92014408,162319308,0,24.78864097595215,24.81987953186035,0.1764611005783081,9.65915298461914,0.23933929204940796,0.0,0.1770283728837967,99
1659339527.02014208,162419306,0,24.82103157043457,24.862157821655273,0.2323148548603058,9.665606498718262,0.23949947953224182,0.0,0.1770283728837967,99
1659339527.12016106,162519325,0,24.78626823425293,24.81681251525879,0.17253974080085754,9.670400619506836,0.23961830139160156,0.0,0.1770283728837967,99
1659339527.22013998,162619304,0,24.78279685974121,24.81153678894043,0.16234421730041504,9.674909591674805,0.23973004519939423,0.0,0.1770283728837967,99
1659339527.32015395,162719318,0,24.744272232055664,24.760570526123047,0.09206666052341461,9.677467346191406,0.2397933453321457,0.0,0.1770283728837967,99
1659339527.42013001,162819294,0,24.809051513671875,24.84626579284668,0.2102188766002655,9.683305740356445,0.23993819952011108,0.0,0.1770283728837967,99
1659339527.52017212,162919336,0,24.79305076599121,24.825103759765625,0.1810644268989563,9.688338279724121,0.24006296694278717,0.0,0.1770283728837967,99
1659339527.62011099,163019275,0,24.797073364257812,24.83064842224121,0.1896573156118393,9.693603515625,0.24019353091716766,0.0,0.1770283728837967,99
1659339527.72002411,163119188,0,24.742835998535156,24.760656356811523,0.10065954923629761,9.69639778137207,0.24026265740394592,0.0,0.1770283728837967,99
1659339527.82013297,163219297,0,24.787395477294922,24.818145751953125,0.17369909584522247,9.701228141784668,0.24038240313529968,0.0,0.1770283728837967,99
1659339527.92006207,163319226,0,24.80724334716797,24.843582153320312,0.2052745521068573,9.706926345825195,0.24052377045154572,0.0,0.1770283728837967,99
1659339528.02014303,163419307,0,24.81710433959961,24.85714340209961,0.22617709636688232,9.713214874267578,0.24067983031272888,0.0,0.1770283728837967,99
1659339528.12016892,163519333,0,24.77992057800293,24.808605194091797,0.16203731298446655,9.717717170715332,0.24079139530658722,0.0,0.1770283728837967,99
1659339528.22016311,163619327,0,24.76286506652832,24.784921646118164,0.12459687888622284,9.72117805480957,0.24087710678577423,0.0,0.1770283728837967,99
1659339528.32008004,163719244,0,24.782316207885742,24.81121826171875,0.16326487064361572,9.725709915161133,0.24098941683769226,0.0,0.1770283728837967,99
1659339528.42015600,163819320,0,24.803781509399414,24.840072631835938,0.20500177145004272,9.731409072875977,0.2411307841539383,0.0,0.1770283728837967,99
1659339528.52014208,163919306,0,24.801576614379883,24.837162017822266,0.20101220905780792,9.736992835998535,0.24126926064491272,0.0,0.1770283728837967,99
1659339528.62012911,164019293,0,24.79975700378418,24.833984375,0.1933399885892868,9.742362976074219,0.24140244722366333,0.0,0.1770283728837967,99
1659339528.72023010,164119394,0,24.76363182067871,24.78672218322754,0.1304277777671814,9.745989799499512,0.24149225652217865,0.0,0.1770283728837967,99
1659339528.82009101,164219255,0,24.756986618041992,24.778778076171875,0.1230965405702591,9.749404907226562,0.24157680571079254,0.0,0.1770283728837967,99
1659339528.92013907,164319303,0,24.80205726623535,24.837099075317383,0.197943314909935,9.75490665435791,0.2417132556438446,0.0,0.1770283728837967,99
1659339529.02003098,164419195,0,24.801097869873047,24.83646583557129,0.19978463649749756,9.76045036315918,0.24185074865818024,0.0,0.1770283728837967,99
1659339529.12005210,164519216,0,24.785287857055664,24.815113067626953,0.1684819906949997,9.765131950378418,0.24196678400039673,0.0,0.1770283728837967,99
1659339529.22002792,164619192,0,24.758647918701172,24.780107498168945,0.12122109532356262,9.768498420715332,0.2420501410961151,0.0,0.1770283728837967,99
1659339529.32001114,164719175,0,24.788162231445312,24.819671630859375,0.17799553275108337,9.773442268371582,0.24217268824577332,0.0,0.1770283728837967,99
1659339529.42005014,164819214,0,24.797073364257812,24.83086585998535,0.19088487327098846,9.77874755859375,0.2423042356967926,0.0,0.1770283728837967,99
1659339529.52002597,164919190,0,24.794008255004883,24.826169967651367,0.18167820572853088,9.783793449401855,0.24242934584617615,0.0,0.1770283728837967,99
1659339529.62009907,165019263,0,24.796785354614258,24.830848693847656,0.19241932034492493,9.789142608642578,0.24256198108196259,0.0,0.1770283728837967,99
1659339529.72008610,165119250,0,24.749107360839844,24.767457962036133,0.10366024076938629,9.792021751403809,0.24263323843479156,0.0,0.1770283728837967,99
1659339529.82007098,165219235,0,24.817869186401367,24.85850715637207,0.22955287992954254,9.798398971557617,0.24279150366783142,0.0,0.1770283728837967,99
1659339529.92007613,165319240,0,24.778484344482422,24.80668067932129,0.15927532315254211,9.802824020385742,0.24290114641189575,0.0,0.1770283728837967,99
1659339530.02012300,165419287,0,24.813270568847656,24.853092193603516,0.22494953870773315,9.809076309204102,0.2430562824010849,0.0,0.1770283728837967,99
1659339530.12009096,165519255,0,24.78787612915039,24.818626403808594,0.17369909584522247,9.813899993896484,0.24317584931850433,0.0,0.1770283728837967,99
1659339530.22014809,165619312,0,24.769763946533203,24.795188903808594,0.14362399280071259,9.817892074584961,0.2432747334241867,0.0,0.1770283728837967,99
1659339530.32009196,165719256,0,24.750408172607422,24.770509719848633,0.1135488823056221,9.821044921875,0.2433527559041977,0.0,0.1770283728837967,99
1659339530.42008996,165819254,0,24.81643295288086,24.85723304748535,0.23047353327274323,9.827446937561035,0.2435116469860077,0.0,0.1770283728837967,99
1659339530.52008200,165919246,0,24.796785354614258,24.829763412475586,0.18628154695034027,9.832619667053223,0.24363991618156433,0.0,0.1770283728837967,99
1659339530.62002110,166019185,0,24.809585571289062,24.847736358642578,0.21550416946411133,9.838604927062988,0.24378840625286102,0.0,0.1770283728837967,99
1659339530.72005796,166119222,0,24.740726470947266,24.757080078125,0.0923735499382019,9.841172218322754,0.2438519150018692,0.0,0.1770283728837967,99
1659339530.82008696,166219251,0,24.77838897705078,24.80772590637207,0.16571998596191406,9.84577751159668,0.2439660280942917,0.0,0.1770283728837967,99
1659339530.92010808,166319272,0,24.801002502441406,24.83647918701172,0.20039844512939453,9.851346015930176,0.24410413205623627,0.0,0.1770283728837967,99
1659339531.02005005,166419214,0,24.81288719177246,24.85222053527832,0.22218753397464752,9.857514381408691,0.24425719678401947,0.0,0.1770283728837967,99
1659339531.12014794,166519312,0,24.781837463378906,24.810522079467773,0.16203731298446655,9.862020492553711,0.24436886608600616,0.0,0.1770283728837967,99
1659339531.22011209,166619276,0,24.764684677124023,24.789403915405273,0.13963443040847778,9.865898132324219,0.24446488916873932,0.0,0.1770283728837967,99
1659339531.32004905,166719213,0,24.782699584960938,24.811927795410156,0.16510620713233948,9.870481491088867,0.2445784956216812,0.0,0.1770283728837967,99
1659339531.42006803,166819232,0,24.815092086791992,24.855077743530273,0.22587020695209503,9.876757621765137,0.24473422765731812,0.0,0.1770283728837967,99
1659339531.52007699,166919241,0,24.79734230041504,24.830482482910156,0.18720221519470215,9.881958961486816,0.24486319720745087,0.0,0.1770283728837967,99
1659339531.62012315,167019287,0,24.802152633666992,24.837846755981445,0.2016259729862213,9.88756275177002,0.24500218033790588,0.0,0.1770283728837967,99
1659339531.72009110,167119255,0,24.771968841552734,24.796525955200195,0.1387137770652771,9.891414642333984,0.24509760737419128,0.0,0.1770283728837967,99
1659339531.82016611,167219330,0,24.76200294494629,24.7865047454834,0.1384068727493286,9.895262718200684,0.24519288539886475,0.0,0.1770283728837967,99
1659339531.92006612,167319230,0,24.802824020385742,24.838680267333984,0.20254665613174438,9.900883674621582,0.24533230066299438,0.0,0.1770283728837967,99
1659339532.02013898,167419303,0,24.81202507019043,24.849130630493164,0.20960509777069092,9.906710624694824,0.2454768866300583,0.0,0.1770283728837967,99
1659339532.12013412,167519298,0,24.805315017700195,24.84144401550293,0.20408110320568085,9.912379264831543,0.24561750888824463,0.0,0.1770283728837967,99
1659339532.22002697,167619191,0,24.75481605529785,24.775732040405273,0.1181522086262703,9.915657997131348,0.24569867551326752,0.0,0.1770283728837967,99
1659339532.32006097,167719225,0,24.7482967376709,24.767528533935547,0.10863865911960602,9.91867733001709,0.24577338993549347,0.0,0.1770283728837967,99
1659339532.42002797,167819192,0,24.793190002441406,24.825786590576172,0.18413332104682922,9.92379093170166,0.24590016901493073,0.0,0.1770283728837967,99
1659339532.52010298,167919267,0,24.788450241088867,24.81903648376465,0.1727784276008606,9.928593635559082,0.24601921439170837,0.0,0.1770283728837967,99
1659339532.62007594,168019240,0,24.77043342590332,24.796728134155273,0.14853420853614807,9.932719230651855,0.24612140655517578,0.0,0.1770283728837967,99
1659339532.72008610,168119250,0,24.733732223510742,24.74791145324707,0.080097995698452,9.934944152832031,0.24617645144462585,0.0,0.1770283728837967,99
1659339532.82012701,168219291,0,24.767080307006836,24.79315757751465,0.1473066508769989,9.939037322998047,0.2462778389453888,0.0,0.1770283728837967,99
1659339532.92016506,168319329,0,24.790271759033203,24.821456909179688,0.1761542111635208,9.943933486938477,0.24639920890331268,0.0,0.1770283728837967,99
1659339533.02010202,168419266,0,24.793336868286133,24.82588005065918,0.18382643163204193,9.949036598205566,0.24652573466300964,0.0,0.1770283728837967,99
1659339533.12013793,168519302,0,24.78279685974121,24.81224250793457,0.16633376479148865,9.953659057617188,0.24664029479026794,0.0,0.1770283728837967,99
1659339533.22013593,168619300,0,24.74542236328125,24.763893127441406,0.10434221476316452,9.956557273864746,0.24671201407909393,0.0,0.1770283728837967,99
1659339533.32012010,168719284,0,24.746551513671875,24.764781951904297,0.10297826677560806,9.959417343139648,0.2467827945947647,0.0,0.1770283728837967,99
1659339533.42016912,168819333,0,24.79391098022461,24.826942443847656,0.18658843636512756,9.964603424072266,0.24691137671470642,0.0,0.1770283728837967,99
1659339533.52010107,168919265,0,24.780975341796875,24.809389114379883,0.16050288081169128,9.969058990478516,0.24702179431915283,0.0,0.1770283728837967,99
1659339533.62012696,169019291,0,24.774555206298828,24.80133819580078,0.1512962132692337,9.973262786865234,0.24712595343589783,0.0,0.17702284455299377,99
1659339533.72006011,169119224,0,24.7291316986084,24.742931365966797,0.07794976979494095,9.97542667388916,0.24717946350574493,0.0,0.17702284455299377,99
1659339533.82019615,169219360,0,24.759414672851562,24.781797409057617,0.1264382153749466,9.978943824768066,0.24726654589176178,0.0,0.17702284455299377,99
1659339533.92008114,169319245,0,24.793720245361328,24.82512092590332,0.1773817539215088,9.983865737915039,0.2473885864019394,0.0,0.17702284455299377,99
1659339534.02008915,169419253,0,24.790462493896484,24.821863174438477,0.1773817539215088,9.98879337310791,0.24751074612140656,0.0,0.17702284455299377,99
1659339534.12013507,169519299,0,24.76075553894043,24.7850399017334,0.13717931509017944,9.992606163024902,0.24760515987873077,0.0,0.17702284455299377,99
1659339534.22006512,169619229,0,24.73643684387207,24.751466751098633,0.08490591496229172,9.994963645935059,0.2476634681224823,0.0,0.17702284455299377,99
1659339534.32012105,169719285,0,24.76296043395996,24.786754608154297,0.134417325258255,9.998700141906738,0.2477559894323349,0.0,0.17702284455299377,99
1659339534.42011595,169819280,0,24.79017448425293,24.821413040161133,0.1764611005783081,10.003602027893066,0.24787750840187073,0.0,0.17702284455299377,99
1659339534.52013397,169919298,0,24.784425735473633,24.815988540649414,0.17830243706703186,10.00855541229248,0.24800026416778564,0.0,0.17702284455299377,99
1659339534.62010908,170019273,0,24.570249557495117,24.948122024536133,2.2286269664764404,10.070463180541992,0.24952135980129242,0.0,0.16955356299877167,99
1659339534.72017193,170119336,0,24.539966583251953,24.880582809448242,2.0435729026794434,10.127269744873047,0.25091537833213806,0.0,0.16667667031288147,99
1659339534.82016802,170219332,0,24.609155654907227,24.809009552001953,1.1916494369506836,10.160372734069824,0.2517299950122833,0.0,0.16771270334720612,99
1659339534.92014503,170319309,0,24.686582565307617,24.871767044067383,1.117996096611023,10.191423416137695,0.25249651074409485,0.0,0.16563919186592102,99
1659339535.02023411,170419398,0,24.69904327392578,24.863996505737305,0.995854377746582,10.21911334991455,0.2531804144382477,0.0,0.16563919186592102,99
1659339535.12012601,170519290,0,24.70673179626465,24.8634090423584,0.9458997249603271,10.245362281799316,0.2538289427757263,0.0,0.16563919186592102,99
1659339535.22013903,170619303,0,24.65361976623535,24.78354835510254,0.784407913684845,10.267155647277832,0.2543662488460541,0.0,0.16563919186592102,99
1659339535.32005596,170719220,0,24.67556381225586,24.809101104736328,0.8061971068382263,10.289533615112305,0.2549184262752533,0.0,0.16563919186592102,99
1659339535.42008495,170819249,0,24.713417053222656,24.857948303222656,0.8660404086112976,10.3135986328125,0.25551316142082214,0.0,0.16688846051692963,99
1659339535.52009201,170919256,0,24.716388702392578,24.85979652404785,0.8537648320198059,10.33731746673584,0.2560994029045105,0.0,0.1679706573486328,99
1659339535.62014294,171019307,0,24.701631546020508,24.83892822265625,0.8175519704818726,10.360040664672852,0.25666069984436035,0.0,0.16793671250343323,99
1659339535.72012115,171119285,0,24.694923400878906,24.830467224121094,0.8071177005767822,10.382457733154297,0.2572142779827118,0.0,0.16793671250343323,99
1659339535.82006001,171219224,0,24.661766052246094,24.78514862060547,0.7346919178962708,10.402854919433594,0.2577173113822937,0.0,0.16793671250343323,99
1659339535.92013407,171319298,0,24.716100692749023,24.86004638671875,0.8571405410766602,10.426684379577637,0.25830626487731934,0.0,0.16793671250343323,99
1659339536.02013397,171419298,0,24.72035789489746,24.866153717041016,0.8681545257568359,10.450801849365234,0.2589024603366852,0.0,0.16793671250343323,99
1659339536.12012100,171519285,0,24.70623016357422,24.846773147583008,0.8353515267372131,10.47400188446045,0.2594756484031677,0.0,0.1682441383600235,99
1659339536.22010303,171619267,0,24.67613983154297,24.80583953857422,0.7709048390388489,10.495416641235352,0.26000407338142395,0.0,0.1682441383600235,99
1659339536.32014203,171719306,0,24.67336082458496,24.802854537963867,0.7696772813796997,10.516806602478027,0.26053184270858765,0.0,0.1682441383600235,99
1659339536.42012501,171819289,0,24.70258903503418,24.84287452697754,0.8338171243667603,10.539966583251953,0.26110392808914185,0.0,0.1682441383600235,99
1659339536.52020693,171919371,0,24.71370506286621,24.857913970947266,0.8571405410766602,10.563796997070312,0.2616928815841675,0.0,0.1682441383600235,99
1659339536.62011504,172019279,0,24.7113094329834,24.854795455932617,0.8528441190719604,10.587467193603516,0.2622778117656708,0.0,0.1682441383600235,99
1659339536.72013712,172119301,0,24.65860366821289,24.783708572387695,0.7435917854309082,10.608128547668457,0.2627872824668884,0.0,0.1682441383600235,99
1659339536.82014608,172219310,0,24.683229446411133,24.817060470581055,0.7954559922218323,10.630228042602539,0.2633327841758728,0.0,0.1682441383600235,99
1659339536.92006016,172319224,0,24.70673179626465,24.84860610961914,0.8432623744010925,10.653633117675781,0.26391106843948364,0.0,0.1682441383600235,99
1659339537.02008295,172419247,0,24.71514129638672,24.85940170288086,0.8574474453926086,10.677458763122559,0.2644999027252197,0.0,0.1682441383600235,99
1659339537.12015200,172519316,0,24.693099975585938,24.829151153564453,0.8086521625518799,10.699938774108887,0.26505500078201294,0.0,0.1682441383600235,99
1659339537.22010398,172619268,0,24.66224479675293,24.788278579711914,0.7491157650947571,10.720735549926758,0.2655678987503052,0.0,0.1682441383600235,99
1659339537.32006311,172719227,0,24.684860229492188,24.819103240966797,0.7979110479354858,10.742897033691406,0.2661149501800537,0.0,0.1682441383600235,99
1659339537.42013502,172819299,0,24.70412254333496,24.846111297607422,0.8439443707466125,10.766358375549316,0.2666945457458496,0.0,0.1682441383600235,99
1659339537.52019215,172919356,0,24.713321685791016,24.858047485351562,0.8602094650268555,10.790267944335938,0.26728543639183044,0.0,0.1682441383600235,99
1659339537.62007713,173019241,0,24.70249366760254,24.843862533569336,0.8402616381645203,10.813583374023438,0.26786139607429504,0.0,0.1682441383600235,99
1659339537.72015309,173119317,0,24.67201805114746,24.80146026611328,0.7693703770637512,10.834972381591797,0.26838910579681396,0.0,0.1682441383600235,99
1659339537.82011604,173219280,0,24.653919219970703,24.77886962890625,0.7426710724830627,10.855596542358398,0.26889756321907043,0.0,0.1682441383600235,99
1659339537.92018509,173319349,0,24.71533203125,24.860109329223633,0.860516369342804,10.879517555236816,0.26948878169059753,0.0,0.1682441383600235,99
1659339538.02013302,173419297,0,24.716867446899414,24.863245010375977,0.8700299263000488,10.903675079345703,0.270085871219635,0.0,0.1682441383600235,99
1659339538.12022901,173519393,0,24.70718765258789,24.85010528564453,0.8494683504104614,10.927295684814453,0.27066946029663086,0.0,0.1682441383600235,99
1659339538.22019601,173619360,0,24.642791748046875,24.764179229736328,0.7214957475662231,10.947332382202148,0.2711632251739502,0.0,0.1682441383600235,99
1659339538.32025599,173719420,0,24.66377830505371,24.79094886779785,0.7558672428131104,10.968340873718262,0.27168139815330505,0.0,0.1682441383600235,99
1659339538.42016315,173819327,0,24.705175399780273,24.847681045532227,0.8470132946968079,10.991850852966309,0.27226221561431885,0.0,0.1682441383600235,99
1659339538.52008414,173919248,0,24.706037521362305,24.848543167114258,0.8470132946968079,11.015362739562988,0.2728430926799774,0.0,0.1682441383600235,99
1659339538.62010598,174019270,0,24.675106048583984,24.80642318725586,0.7805206775665283,11.037050247192383,0.2733782231807709,0.0,0.1682441383600235,99
1659339538.72011113,174119275,0,24.648637771606445,24.77203941345215,0.7334644198417664,11.057426452636719,0.2738804817199707,0.0,0.1682441383600235,99
1659339538.82017112,174219335,0,24.696935653686523,24.837169647216797,0.8335102200508118,11.08059024810791,0.2744525372982025,0.0,0.1682441383600235,99
1659339538.92011905,174319283,0,24.697603225708008,24.83917808532715,0.841489315032959,11.103960037231445,0.275029718875885,0.0,0.1682441383600235,99
1659339539.02018595,174419350,0,24.715717315673828,24.862560272216797,0.8727918863296509,11.128215789794922,0.2756292223930359,0.0,0.1682441383600235,99
1659339539.12015510,174519319,0,24.693195343017578,24.831724166870117,0.8233827948570251,11.15108871459961,0.2761940360069275,0.0,0.1682441383600235,99
1659339539.22020197,174619366,0,24.66454315185547,24.792797088623047,0.7623119354248047,11.17227554321289,0.2767166197299957,0.0,0.1682441383600235,99
1659339539.32015705,174719321,0,24.678916931152344,24.81228256225586,0.7926939129829407,11.194283485412598,0.2772597670555115,0.0,0.1682441383600235,99
1659339539.42015696,174819321,0,24.703834533691406,24.845409393310547,0.841489315032959,11.217662811279297,0.277837336063385,0.0,0.1682441383600235,99
1659339539.52021003,174919374,0,24.709922790527344,24.85472297668457,0.8606528043746948,11.241584777832031,0.27842843532562256,0.0,0.1682441383600235,99
1659339539.62021303,175019377,0,24.6983699798584,24.83808708190918,0.8304412961006165,11.264655113220215,0.2789982259273529,0.0,0.1682441383600235,99
1659339539.72020102,175119365,0,24.653907775878906,24.77958106994629,0.7469674944877625,11.28540325164795,0.2795097529888153,0.0,0.1682441383600235,99
1659339539.82015705,175219321,0,24.673168182373047,24.80457305908203,0.781032145023346,11.307090759277344,0.2800448536872864,0.0,0.1682441383600235,99
1659339539.92017007,175319334,0,24.70709228515625,24.85042381286621,0.8519235253334045,11.330760955810547,0.2806296646595001,0.0,0.1682441383600235,99
1659339540.02016497,175419329,0,24.707763671875,24.852643966674805,0.8611301779747009,11.354680061340332,0.2812206447124481,0.0,0.1682441383600235,99
1659339540.12021613,175519380,0,24.674413681030273,24.806333541870117,0.7841010093688965,11.376469612121582,0.28175827860832214,0.0,0.1682441383600235,99
1659339540.22012401,175619288,0,24.68064308166504,24.81488609313965,0.7979110479354858,11.39862060546875,0.282304972410202,0.0,0.1682441383600235,99
1659339540.32012701,175719291,0,24.65419578552246,24.779043197631836,0.7420573234558105,11.419236183166504,0.2828132212162018,0.0,0.1682441383600235,99
1659339540.42015600,175819320,0,24.70619773864746,24.848817825317383,0.8476952314376831,11.442791938781738,0.2833952009677887,0.0,0.1682441383600235,99
1659339540.52012396,175919288,0,24.708433151245117,24.853002548217773,0.8592888116836548,11.466654777526855,0.28398481011390686,0.0,0.1682441383600235,99
1659339540.62024403,176019408,0,24.707666397094727,24.85135841369629,0.8540716767311096,11.490409851074219,0.28457173705101013,0.0,0.1682441383600235,99
1659339540.72013402,176119298,0,24.657835006713867,24.7845401763916,0.7531052231788635,11.511307716369629,0.28508704900741577,0.0,0.1682441383600235,99
1659339540.82018495,176219349,0,24.65266227722168,24.797739028930664,0.8562199473381042,11.53510570526123,0.28567373752593994,0.0,0.1694387048482895,99
1659339540.92015409,176319318,0,24.578296661376953,24.937313079833984,2.1945621967315674,11.596052169799805,0.28717169165611267,0.0,0.1635938137769699,99
1659339541.02024412,176419408,0,24.21501350402832,24.934110641479492,5.846232891082764,11.758606910705566,0.2911079525947571,0.0,0.12300173938274384,99
1659339541.12022305,176519387,0,24.17840576171875,24.903564453125,5.974205493927002,11.924535751342773,0.29511985182762146,0.0,0.12138157337903976,99
1659339541.22019315,176619357,0,23.871212005615234,24.898502349853516,8.527419090270996,12.16133975982666,0.30077263712882996,0.0,0.12046913057565689,99
1659339541.32035494,176719519,0,23.967008590698242,24.86476707458496,7.473357677459717,12.369297981262207,0.3057567775249481,0.0,0.12012791633605957,99
1659339541.42017198,176819336,0,24.047313690185547,24.91061782836914,7.239815711975098,12.570054054260254,0.3105844259262085,0.0,0.11924397200345993,99
1659339541.52019310,176919357,0,23.78023910522461,24.93223762512207,9.801416397094727,12.842394828796387,0.3170607388019562,0.0,0.11753395944833755,99
1659339541.62016606,177019330,0,23.510961532592773,24.931015014648438,12.460915565490723,13.188403129577637,0.3251957297325134,0.0,0.11396060883998871,99
1659339541.72012401,177119288,0,23.23621940612793,24.93016242980957,14.939657211303711,13.603326797485352,0.3348369896411896,0.0,0.11338566243648529,99
1659339541.82014298,177219307,0,22.954002380371094,24.927927017211914,17.473026275634766,14.088814735412598,0.3459808826446533,0.0,0.11296981573104858,99
1659339541.92019701,177319361,0,22.669010162353516,24.92871856689453,21.06853485107422,14.674420356750488,0.35925599932670593,0.0,0.10725516825914383,99
1659339542.02021003,177419374,0,22.326614379882812,24.927730560302734,24.922752380371094,15.366864204406738,0.3747159242630005,0.0,0.10436713695526123,99
1659339542.12019610,177519360,0,22.071552276611328,24.915252685546875,27.34618377685547,16.126434326171875,0.39148083329200745,0.0,0.10398893803358078,99
1659339542.22015214,177619316,0,22.1031436920166,24.830625534057617,26.22580337524414,16.854665756225586,0.4075770676136017,0.0,0.10399993509054184,99
1659339542.32014608,177719310,0,22.13668441772461,24.839025497436523,25.9901123046875,17.576627731323242,0.42355892062187195,0.0,0.10397573560476303,99
1659339542.42018104,177819345,0,22.198589324951172,24.860214233398438,25.624914169311523,18.288644790649414,0.4393647015094757,0.0,0.10386866331100464,99
1659339542.52019095,177919355,0,22.248516082763672,24.846633911132812,25.02341079711914,18.98394775390625,0.4548341631889343,0.0,0.10382746160030365,99
1659339542.62021112,178019375,0,22.315114974975586,24.815574645996094,24.062541961669922,19.652538299560547,0.46975386142730713,0.0,0.1039150133728981,99
1659339542.72019315,178119357,0,22.29805564880371,24.74107551574707,23.424827575683594,20.30316925048828,0.4842616617679596,0.0,0.1042918711900711,99
1659339542.82026601,178219430,0,22.249183654785156,24.764341354370117,24.059165954589844,20.972021102905273,0.4991430640220642,0.0,0.10454052686691284,99
1659339542.92024994,178319414,0,22.32145118713379,24.792644500732422,23.613393783569336,21.62789535522461,0.5137831568717957,0.0,0.10465219616889954,99
1659339543.02015495,178419319,0,22.35191535949707,24.796100616455078,23.33582878112793,22.275543212890625,0.5282593369483948,0.0,0.10473959147930145,99
1659339543.12019610,178519360,0,22.3393611907959,24.76474380493164,23.11118507385254,22.917835235595703,0.5426077246665955,0.0,0.1049441322684288,99
1659339543.22011614,178619280,0,22.33399200439453,24.747827529907227,22.94577407836914,23.554765701293945,0.5568329095840454,0.0,0.10519737005233765,99
1659339543.32014799,178719312,0,22.24612045288086,24.710350036621094,23.34043312072754,24.2033634185791,0.5712617039680481,0.0,0.10557771474123001,99
1659339543.42016912,178819333,0,22.250429153442383,24.791034698486328,24.058551788330078,24.871850967407227,0.5861358046531677,0.0,0.10560094565153122,99
1659339543.52020812,178919372,0,22.25359535217285,24.78264617919922,23.936717987060547,25.537078857421875,0.6009395122528076,0.0,0.10565568506717682,99
1659339543.62014508,179019309,0,22.302562713623047,24.74082374572754,23.077428817749023,26.177759170532227,0.6152283549308777,0.0,0.10565568506717682,99
1659339543.72026300,179119427,0,22.308313369750977,24.682601928710938,22.47193717956543,26.802772521972656,0.6291713714599609,0.0,0.10565568506717682,99
1659339543.82017207,179219336,0,22.303668975830078,24.660140991210938,22.303319931030273,27.421794891357422,0.6429778337478638,0.0,0.10565568506717682,99
1659339543.92010999,179319274,0,22.377500534057617,24.74149513244629,22.3810977935791,28.043149948120117,0.6568822264671326,0.0,0.10562460124492645,99
1659339544.02020407,179419368,0,22.42838478088379,24.718324661254883,21.701032638549805,28.646577835083008,0.6704161167144775,0.0,0.10552214831113815,99
1659339544.12016702,179519331,0,22.465375900268555,24.683305740356445,21.0580997467041,29.231355667114258,0.6835533380508423,0.0,0.10532429814338684,99
1659339544.22020102,179619365,0,22.450807571411133,24.693132400512695,21.313739776611328,29.823646545410156,0.6968507766723633,0.0,0.10520555824041367,99
1659339544.32019997,179719364,0,22.392257690429688,24.603431701660156,21.097074508666992,30.40972328186035,0.7099743485450745,0.0,0.10480953752994537,99
1659339544.42022610,179819390,0,22.441513061523438,24.6344051361084,20.962657928466797,30.992218017578125,0.7230464220046997,0.0,0.10460944473743439,99
1659339544.52015805,179919322,0,22.518749237060547,24.6439208984375,20.339059829711914,31.556852340698242,0.735761284828186,0.0,0.10448723286390305,99
1659339544.62027597,180019440,0,22.54970359802246,24.631624221801758,19.951152801513672,32.11174011230469,0.7482737898826599,0.0,0.10435092449188232,99
1659339544.72018814,180119352,0,22.561235427856445,24.620168685913086,19.75818634033203,32.6601448059082,0.7606464624404907,0.0,0.10420654714107513,99
1659339544.82009411,180219258,0,22.563215255737305,24.605571746826172,19.629531860351562,33.2049446105957,0.7729389071464539,0.0,0.10404513776302338,99
1659339544.92011309,180319277,0,22.536479949951172,24.556167602539062,19.466575622558594,33.74583053588867,0.7851285338401794,0.0,0.10375156253576279,99
1659339545.02013803,180419302,0,22.58928108215332,24.601852416992188,19.411334991455078,34.28520584106445,0.7973126769065857,0.0,0.10368025302886963,99
1659339545.12015915,180519323,0,22.541845321655273,24.598329544067383,19.84773063659668,34.836692810058594,0.8097441792488098,0.0,0.10361307114362717,99
1659339545.22013402,180619298,0,22.59426498413086,24.599445343017578,19.361618041992188,35.37442398071289,0.8218938112258911,0.0,0.10356469452381134,99
1659339545.32021904,180719383,0,22.564077377319336,24.532255172729492,19.053503036499023,35.904178619384766,0.8338472843170166,0.0,0.10329743474721909,99
1659339545.42016315,180819327,0,22.54366683959961,24.542795181274414,19.3852481842041,36.44239807128906,0.8459807634353638,0.0,0.10312628746032715,99
1659339545.52020597,180919370,0,22.57379913330078,24.583402633666992,19.48573875427246,36.983951568603516,0.8582056760787964,0.0,0.10313205420970917,99
1659339545.62023902,181019403,0,22.535329818725586,24.567392349243164,19.703493118286133,37.531402587890625,0.8705426454544067,0.0,0.10313205420970917,99
1659339545.72017193,181119336,0,22.475725173950195,24.51218605041504,19.746150970458984,38.07967758178711,0.8828654885292053,0.0,0.10313205420970917,99
1659339545.82017803,181219342,0,22.46633529663086,24.550935745239258,20.199424743652344,38.64085006713867,0.8954730033874512,0.0,0.1032010167837143,99
1659339545.92018509,181319349,0,22.522296905517578,24.54488754272461,19.612651824951172,39.18572235107422,0.9077447652816772,0.0,0.10312683135271072,99
1659339546.02023411,181419398,0,22.63690948486328,24.555212020874023,18.605443954467773,39.70283889770508,0.9194507002830505,0.0,0.10310434550046921,99
1659339546.12015915,181519323,0,22.712514877319336,24.530946731567383,17.654088973999023,40.19289779663086,0.9305811524391174,0.0,0.10300347208976746,99
1659339546.22017312,181619337,0,22.7789249420166,24.528247833251953,16.99765396118164,40.665164947509766,0.941338837146759,0.0,0.10291559994220734,99
1659339546.32009101,181719255,0,22.68485450744629,24.51746368408203,17.82512855529785,41.159942626953125,0.9525627493858337,0.0,0.10281039774417877,99
1659339546.42023802,181819402,0,22.717979431152344,24.53108787536621,17.64150619506836,41.6507453918457,0.963712751865387,0.0,0.10277517139911652,99
1659339546.52014899,181919313,0,22.747112274169922,24.502492904663086,17.10076904296875,42.12538146972656,0.9745093584060669,0.0,0.10264923423528671,99
1659339546.62015009,182019314,0,22.74404525756836,24.440242767333984,16.57476043701172,42.58583450317383,0.984981894493103,0.0,0.10233617573976517,99
1659339546.72016811,182119332,0,22.765029907226562,24.447099685668945,16.472259521484375,43.04351806640625,0.9954010248184204,0.0,0.10211531072854996,99
1659339546.82017899,182219343,0,22.873987197875977,24.487560272216797,15.806618690490723,43.48267364501953,1.0054463148117065,0.0,0.10208217054605484,99
1659339546.92017913,182319343,0,22.74797248840332,24.5106201171875,17.25789451599121,43.96209716796875,1.0163522958755493,0.0,0.10213568806648254,99
1659339547.02013803,182419302,0,22.824731826782227,24.51407814025879,16.5314884185791,44.42115020751953,1.0268300771713257,0.0,0.10218963772058487,99
1659339547.12020302,182519367,0,22.855398178100586,24.479543685913086,15.905434608459473,44.863250732421875,1.036934494972229,0.0,0.10211264342069626,99
1659339547.22016311,182619327,0,22.801767349243164,24.4182071685791,15.872292518615723,45.30405044555664,1.0469855070114136,0.0,0.1018403023481369,99
1659339547.32020307,182719367,0,22.81764030456543,24.46780776977539,16.210176467895508,45.75455093383789,1.057264804840088,0.0,0.10179819166660309,99
1659339547.42022204,182819386,0,22.805662155151367,24.47834587097168,16.430830001831055,46.211082458496094,1.067676305770874,0.0,0.10180151462554932,99
1659339547.52020907,182919373,0,22.826265335083008,24.48820686340332,16.319429397583008,46.66437911987305,1.0780233144760132,0.0,0.10183815658092499,99
1659339547.62036514,183019529,0,22.83814811706543,24.48198699951172,16.140512466430664,47.113468170166016,1.0882796049118042,0.0,0.10184547305107117,99
1659339547.72015095,183119315,0,22.809017181396484,24.455434799194336,16.179487228393555,47.561973571777344,1.0985095500946045,0.0,0.10175954550504684,99
1659339547.82018304,183219347,0,22.804033279418945,24.412357330322266,15.838842391967773,48.00211715698242,1.1085466146469116,0.0,0.10154304653406143,99
1659339547.92009902,183319263,0,22.843799591064453,24.490976333618164,16.20526695251465,48.4519157409668,1.1188217401504517,0.0,0.10164453089237213,99
1659339548.02012515,183419289,0,22.816587448120117,24.49383544921875,16.501108169555664,48.910438537597656,1.1292836666107178,0.0,0.10164453089237213,99
1659339548.12014914,183519313,0,22.82391357421875,24.470529556274414,16.20066261291504,49.360599517822266,1.1395580768585205,0.0,0.1016387864947319,99
1659339548.22020793,183619372,0,22.798282623291016,24.418790817260742,15.943796157836914,49.80377960205078,1.1496617794036865,0.0,0.1016387864947319,99
1659339548.32022214,183719386,0,22.81371307373047,24.417381286621094,15.802628517150879,50.24283981323242,1.159678339958191,0.0,0.10148108750581741,99
1659339548.42014408,183819308,0,22.85721778869629,24.46607208251953,15.846821784973145,50.68272018432617,1.1697328090667725,0.0,0.10152538120746613,99
1659339548.52015996,183919324,0,22.84840202331543,24.47329330444336,15.995354652404785,51.12714385986328,1.1798871755599976,0.0,0.10158515721559525,99
1659339548.62017107,184019335,0,22.80940055847168,24.45013427734375,16.145421981811523,51.575714111328125,1.1901187896728516,0.0,0.10162224620580673,99
1659339548.72017193,184119336,0,22.798858642578125,24.39789581298828,15.735113143920898,52.012840270996094,1.2000848054885864,0.0,0.10162224620580673,99
1659339548.82019806,184219362,0,22.808441162109375,24.454532623291016,16.20189094543457,52.46297073364258,1.210351586341858,0.0,0.10159868746995926,99
1659339548.92018700,184319351,0,22.848188400268555,24.470783233642578,15.958902359008789,52.906333923339844,1.2204816341400146,0.0,0.10167337208986282,99
1659339549.02019310,184419357,0,22.83843421936035,24.462800979614258,15.971417427062988,53.350040435791016,1.230615258216858,0.0,0.10170456022024155,99
1659339549.12025905,184519423,0,22.83316421508789,24.456844329833984,15.964052200317383,53.793819427490234,1.2407481670379639,0.0,0.10170853137969971,99
1659339549.22023010,184619394,0,22.819557189941406,24.4306583404541,15.840374946594238,54.23373794555664,1.2507869005203247,0.0,0.10170853137969971,99
1659339549.32018495,184719349,0,22.790903091430664,24.392234802246094,15.744318008422852,54.67091369628906,1.2607505321502686,0.0,0.10170853137969971,99
1659339549.42018199,184819346,0,22.84849739074707,24.47123908996582,15.938888549804688,55.11368179321289,1.270867109298706,0.0,0.10181020200252533,99
1659339549.52012014,184919284,0,22.826934814453125,24.45983123779297,16.03862762451172,55.558963775634766,1.2810314893722534,0.0,0.10181020200252533,99
1659339549.62013793,185019302,0,22.819364547729492,24.451982498168945,16.037092208862305,56.004554748535156,1.2911995649337769,0.0,0.10180263221263885,99
1659339549.72019601,185119360,0,22.800870895385742,24.385189056396484,15.562642097473145,56.437137603759766,1.301062822341919,0.0,0.10180263221263885,99
1659339549.82020211,185219366,0,22.820825576782227,24.407339096069336,15.60120677947998,56.87056350708008,1.310953974723816,0.0,0.10169167071580887,99
1659339549.92013192,185319296,0,22.881174087524414,24.461544036865234,15.525506973266602,57.30155944824219,1.3208156824111938,0.0,0.10179183632135391,99
1659339550.02021313,185419377,0,22.89554786682129,24.460289001464844,15.36070728302002,57.7286262512207,1.3305935859680176,0.0,0.10186642408370972,99
1659339550.12023807,185519402,0,22.898900985717773,24.44741439819336,15.199285507202148,58.15096664428711,1.3402647972106934,0.0,0.10188060998916626,99
1659339550.22016311,185619327,0,22.99846839904785,24.421173095703125,13.975411415100098,58.53891372680664,1.349186897277832,0.0,0.10180053859949112,99
1659339550.32024002,185719404,0,22.908390045166016,24.385421752929688,14.535791397094727,58.94302749633789,1.3584445714950562,0.0,0.10161342471837997,99
1659339550.42017508,185819339,0,22.834505081176758,24.435028076171875,15.755367279052734,59.380428314208984,1.3684324026107788,0.0,0.10158589482307434,99
1659339550.52021098,185919375,0,22.78611183166504,24.455768585205078,16.452926635742188,59.83765411376953,1.3788508176803589,0.0,0.10148084163665771,99
1659339550.62023115,186019395,0,22.771833419799805,24.451473236083984,16.56371307373047,60.297882080078125,1.3893309831619263,0.0,0.10140476375818253,99
1659339550.72024107,186119405,0,22.716585159301758,24.410987854003906,16.694412231445312,60.76168441772461,1.399867057800293,0.0,0.1014951765537262,99
1659339550.82017207,186219336,0,22.695554733276367,24.405029296875,16.825796127319336,61.22880172729492,1.410468578338623,0.0,0.10159838944673538,99
1659339550.92023110,186319395,0,22.717498779296875,24.44200897216797,16.982616424560547,61.70085906982422,1.4211925268173218,0.0,0.10154557973146439,99
1659339551.02020502,186419369,0,22.738292694091797,24.451099395751953,16.88103675842285,62.16969299316406,1.43185293674469,0.0,0.10146341472864151,99
1659339551.12012315,186519287,0,22.740020751953125,24.44292449951172,16.790197372436523,62.635738372802734,1.442450761795044,0.0,0.1014225110411644,99
1659339551.22015810,186619322,0,22.675813674926758,24.376758575439453,16.734344482421875,63.10078430175781,1.4529961347579956,0.0,0.10164399445056915,99
1659339551.32014394,186719308,0,22.73609161376953,24.407976150512695,16.43635368347168,63.55731964111328,1.4633759260177612,0.0,0.10171866416931152,99
1659339551.42021203,186819376,0,22.75880241394043,24.45147705078125,16.6407413482666,64.0199203491211,1.4739041328430176,0.0,0.10171866416931152,99
1659339551.52019000,186919354,0,22.721269607543945,24.458202362060547,17.0947322845459,64.49470520019531,1.484691858291626,0.0,0.1016063392162323,99
1659339551.62023211,187019396,0,22.68674087524414,24.412376403808594,16.970340728759766,64.9663314819336,1.495391607284546,0.0,0.10168543457984924,99
1659339551.72016215,187119326,0,22.533510208129883,24.373891830444336,18.05948829650879,65.4676742553711,1.5066885948181152,0.0,0.10190659761428833,99
1659339551.82025313,187219417,0,22.511947631835938,24.38009262084961,18.301010131835938,65.9765396118164,1.518144130706787,0.0,0.10207878798246384,99
1659339551.92024112,187319405,0,22.623586654663086,24.44072914123535,17.81612777709961,66.47142028808594,1.5293400287628174,0.0,0.10199429094791412,99
1659339552.02021098,187419375,0,22.582382202148438,24.460643768310547,18.443099975585938,66.98361206054688,1.540906548500061,0.0,0.10184089094400406,99
1659339552.12024593,187519410,0,22.535232543945312,24.454647064208984,18.868141174316406,67.5079574584961,1.5527228116989136,0.0,0.10172775387763977,99
1659339552.22024298,187619407,0,22.475244522094727,24.431726455688477,19.234567642211914,68.04227447509766,1.5647317171096802,0.0,0.1017170175909996,99
1659339552.32025814,187719422,0,22.430055618286133,24.421239852905273,19.569622039794922,68.58600616455078,1.576927661895752,0.0,0.1017487496137619,99
1659339552.42018509,187819349,0,22.507061004638672,24.46335220336914,19.25267219543457,69.12045288085938,1.588956356048584,0.0,0.10161136835813522,99
1659339552.52021694,187919381,0,22.49393081665039,24.45619010925293,19.329395294189453,69.65760040283203,1.601038932800293,0.0,0.10151683539152145,99
1659339552.62011695,188019281,0,22.468826293945312,24.460002899169922,19.633522033691406,70.20247650146484,1.6132816076278687,0.0,0.10141723603010178,99
1659339552.72016692,188119331,0,22.390052795410156,24.36610984802246,19.430667877197266,70.7425308227539,1.6253734827041626,0.0,0.10169786959886551,99
1659339552.82014799,188219312,0,22.45061683654785,24.395605087280273,19.099843978881836,71.27302551269531,1.6372833251953125,0.0,0.10183268040418625,99
1659339552.92015696,188319321,0,22.429534912109375,24.442453384399414,19.779294967651367,71.82254028320312,1.6496087312698364,0.0,0.10176899284124374,99
1659339553.02022910,188419393,0,22.434709548950195,24.443979263305664,19.755664825439453,72.37174224853516,1.661929965019226,0.0,0.10170596837997437,99
1659339553.12022209,188519386,0,22.51146697998047,24.41408348083496,18.71684455871582,72.89166259765625,1.6736341714859009,0.0,0.10165267437696457,99
1659339553.22024798,188619412,0,22.584341049194336,24.395139694213867,17.83228874206543,73.38716888427734,1.684824824333191,0.0,0.10154601186513901,99
1659339553.32014608,188719310,0,22.540311813354492,24.367019653320312,18.02082061767578,73.88728332519531,1.696097493171692,0.0,0.10136652737855911,99
1659339553.42020607,188819370,0,22.551715850830078,24.376787185668945,18.023584365844727,74.38827514648438,1.7073956727981567,0.0,0.10126014798879623,99
1659339553.52017307,188919337,0,22.628089904785156,24.411603927612305,17.606828689575195,74.87723541259766,1.718459963798523,0.0,0.10129668563604355,99
1659339553.62027693,189019441,0,22.615825653076172,24.400373458862305,17.618797302246094,75.36719512939453,1.7295408248901367,0.0,0.10128661245107651,99
1659339553.72024202,189119406,0,22.636140823364258,24.405107498168945,17.463512420654297,75.85215759277344,1.7405184507369995,0.0,0.10129500925540924,99
1659339553.82022214,189219386,0,22.596084594726562,24.363903045654297,17.475479125976562,76.33753204345703,1.7514859437942505,0.0,0.10115993767976761,99
1659339553.92030907,189319473,0,22.604228973388672,24.332237243652344,17.118261337280273,76.81349182128906,1.7622445821762085,0.0,0.10094530135393143,99
1659339554.02017212,189419336,0,22.684053421020508,24.3969783782959,16.959598541259766,77.28398132324219,1.7729172706604004,0.0,0.10100037604570389,99
1659339554.12021899,189519383,0,22.71605110168457,24.392053604125977,16.58972930908203,77.74506378173828,1.7833912372589111,0.0,0.1010265201330185,99
1659339554.22012711,189619291,0,22.700441360473633,24.379053115844727,16.61956787109375,78.20632934570312,1.7938621044158936,0.0,0.10100214928388596,99
1659339554.32017994,189719344,0,22.70370101928711,24.373104095458984,16.534866333007812,78.6659164428711,1.8042963743209839,0.0,0.10096254199743271,99
1659339554.42016792,189819332,0,22.664409637451172,24.336698532104492,16.58918571472168,79.126708984375,1.8147399425506592,0.0,0.10080601274967194,99
1659339554.52020097,189919365,0,22.73101043701172,24.36122703552246,16.177953720092773,79.57627868652344,1.8249591588974,0.0,0.1007678434252739,99
1659339554.62024498,190019409,0,22.719127655029297,24.363290786743164,16.320043563842773,80.02984619140625,1.8352638483047485,0.0,0.1007450520992279,98
1659339554.72020698,190119371,0,22.763689041137695,24.363981246948242,15.887022972106934,80.47088623046875,1.8453035354614258,0.0,0.10072953253984451,98
1659339554.82023001,190219394,0,22.684053421020508,24.30913734436035,16.133148193359375,80.91914367675781,1.8554717302322388,0.0,0.10072953253984451,98
1659339554.92017603,190319340,0,22.668882369995117,24.377338409423828,16.97368049621582,81.39059448242188,1.8661589622497559,0.0,0.1006532683968544,98
1659339555.02022195,190419386,0,22.64352035522461,24.394485473632812,17.41931915283203,81.87472534179688,1.8771214485168457,0.0,0.10051852464675903,98
1659339555.12024808,190519412,0,22.639495849609375,24.368377685546875,17.202655792236328,82.35273742675781,1.8879433870315552,0.0,0.10050090402364731,98
1659339555.22024107,190619405,0,22.66642189025879,24.369489669799805,16.94916534423828,82.82355499267578,1.8986151218414307,0.0,0.10048094391822815,98
1659339555.32021809,190719382,0,22.690284729003906,24.326623916625977,16.30653953552246,83.27635955810547,1.9088894128799438,0.0,0.10034870356321335,98
1659339555.42029810,190819462,0,22.651283264160156,24.300003051757812,16.42991065979004,83.73323059082031,1.9192380905151367,0.0,0.10034870356321335,98
1659339555.52019906,190919363,0,22.71261215209961,24.374725341796875,16.547754287719727,84.19247436523438,1.929668664932251,0.0,0.10044344514608383,98
1659339555.62018108,191019345,0,22.72832679748535,24.371206283569336,16.346128463745117,84.64649200439453,1.9399877786636353,0.0,0.10050574690103531,98
1659339555.72019911,191119363,0,22.766563415527344,24.35991096496582,15.851729393005371,85.08692932128906,1.9500150680541992,0.0,0.1005157083272934,98
1659339555.82012105,191219285,0,22.72882843017578,24.29458236694336,15.611095428466797,85.520263671875,1.9598643779754639,0.0,0.10029754787683487,98
1659339555.92017603,191319340,0,22.756694793701172,24.303701400756836,15.445716857910156,85.9495849609375,1.9696342945098877,0.0,0.10015758872032166,98
1659339556.02027202,191419436,0,22.779212951660156,24.366880416870117,15.834545135498047,86.38988494873047,1.9796639680862427,0.0,0.10026609152555466,98
1659339556.12018800,191519352,0,22.770780563354492,24.36075782775879,15.847434043884277,86.82975769042969,1.989680290222168,0.0,0.10033027827739716,98
1659339556.22022104,191619385,0,22.762346267700195,24.339557647705078,15.723758697509766,87.2667007446289,1.9996261596679688,0.0,0.10030748695135117,98
1659339556.32026696,191719431,0,22.71864891052246,24.309743881225586,15.862166404724121,87.70755767822266,2.009641647338867,0.0,0.10030748695135117,98
1659339556.42018700,191819351,0,22.689517974853516,24.346637725830078,16.525352478027344,88.16626739501953,2.020049571990967,0.0,0.10027742385864258,98
1659339556.52019405,191919358,0,22.674762725830078,24.378145217895508,17.01207733154297,88.6388931274414,2.030766248703003,0.0,0.10012789070606232,98
1659339556.62024403,192019408,0,22.660001754760742,24.354211807250977,16.92707061767578,89.10935974121094,2.0414271354675293,0.0,0.10008880496025085,98
1659339556.72018409,192119348,0,22.648651123046875,24.35993003845215,17.107349395751953,89.58432006835938,2.0521843433380127,0.0,0.10003183782100677,98
1659339556.82021809,192219382,0,22.605764389038086,24.339487075805664,17.326637268066406,90.0658187866211,2.0630688667297363,0.0,0.10006111860275269,98
1659339556.92021513,192319379,0,22.57433319091797,24.30842399597168,17.30484962463379,90.5465316772461,2.073920488357544,0.0,0.1002083569765091,98
1659339557.02026701,192419431,0,22.577686309814453,24.369474411010742,17.8999080657959,91.04405212402344,2.085153341293335,0.0,0.10010042786598206,98
1659339557.12018609,192519350,0,22.600589752197266,24.34857177734375,17.464736938476562,91.5288314819336,2.096109628677368,0.0,0.10008641332387924,98
1659339557.22021794,192619382,0,22.615154266357422,24.37538719177246,17.607749938964844,92.01812744140625,2.10717511177063,0.0,0.09996916353702545,98
1659339557.32023311,192719397,0,22.53130531311035,24.294702529907227,17.60222625732422,92.50719451904297,2.118194341659546,0.0,0.10018030554056168,98
1659339557.42011213,192819276,0,22.56446075439453,24.337072372436523,17.6903018951416,92.99803924560547,2.12926983833313,0.0,0.10020244121551514,98
1659339557.52020311,192919367,0,22.604707717895508,24.371767044067383,17.655317306518555,93.48895263671875,2.140366792678833,0.0,0.1000865027308464,98
1659339557.62015605,193019320,0,22.597862243652344,24.33807945251465,17.382184982299805,93.97159576416016,2.151273488998413,0.0,0.10011501610279083,98
1659339557.72022510,193119389,0,22.596277236938477,24.342561721801758,17.44141387939453,94.45645904541016,2.162229537963867,0.0,0.10012288391590118,98
1659339557.82020903,193219373,0,22.535232543945312,24.29397201538086,17.531333923339844,94.94339752197266,2.1732027530670166,0.0,0.1003197506070137,98
1659339557.92018008,193319344,0,22.59733009338379,24.342985153198242,17.40090560913086,95.4266586303711,2.1841232776641846,0.0,0.1003197506070137,98
1659339558.02022600,193419390,0,22.606721878051758,24.366939544677734,17.546064376831055,95.91431427001953,2.1951475143432617,0.0,0.1003197506070137,98
1659339558.12027812,193519442,0,22.601354598999023,24.34434700012207,17.37420654296875,96.397216796875,2.206061840057373,0.0,0.10032067447900772,98
1659339558.22024894,193619413,0,22.529483795166016,24.312768936157227,17.754135131835938,96.8902816772461,2.217170476913452,0.0,0.10044334828853607,98
1659339558.32020402,193719368,0,22.53782081604004,24.31112289428711,17.634449005126953,97.37995147705078,2.2282066345214844,0.0,0.10055892169475555,98
