timestamp,TimeUS,Instance,Volt,VoltR,Curr,CurrTot,EnrgTot,Temp,Res,RemPct
1659940448.67967486,253245486,0,24.688581466674805,24.705419540405273,0.10215014964342117,14.291716575622559,0.3535325229167938,0.0,0.16483016312122345,99
1659940448.77989292,253345704,0,24.702972412109375,24.72295379638672,0.12122109532356262,14.29509162902832,0.3536158800125122,0.0,0.16483016312122345,99
1659940448.87964773,253445459,0,24.725873947143555,24.751115798950195,0.15313754975795746,14.299335479736328,0.3537208139896393,0.0,0.16483016312122345,99
1659940448.97977495,253545586,0,24.712650299072266,24.733896255493164,0.12889331579208374,14.3029203414917,0.3538094162940979,0.0,0.16483016312122345,99
1659940449.07969189,253645503,0,24.70258903503418,24.722166061401367,0.11876599490642548,14.306217193603516,0.3538908362388611,0.0,0.16483016312122345,99
1659940449.17977977,253745591,0,24.70354652404785,24.7230224609375,0.1181522086262703,14.309501647949219,0.3539719879627228,0.0,0.16483016312122345,99
1659940449.27967787,253845489,0,24.659082412719727,24.66925048828125,0.06168466433882713,14.311213493347168,0.35401421785354614,0.0,0.16483016312122345,99
1659940449.37978196,253945593,0,24.712053298950195,24.733524322509766,0.1302572786808014,14.314835548400879,0.3541037440299988,0.0,0.16483016312122345,99
1659940449.47968483,254045496,0,24.673934936523438,24.686023712158203,0.07334643602371216,14.31687068939209,0.35415396094322205,0.0,0.16483016312122345,99
1659940449.57979774,254145609,0,24.66310691833496,24.674589157104492,0.06966377794742584,14.318808555603027,0.3542017340660095,0.0,0.16483016312122345,99
1659940449.67971182,254245523,0,24.70345115661621,24.72226905822754,0.11416266113519669,14.321976661682129,0.3542799949645996,0.0,0.16483016312122345,99
1659940449.77981496,254345626,0,24.72031593322754,24.74489974975586,0.14914798736572266,14.326125144958496,0.35438254475593567,0.0,0.16483016312122345,99
1659940449.87963080,254445442,0,24.717920303344727,24.74088478088379,0.13932755589485168,14.329988479614258,0.35447803139686584,0.0,0.16483016312122345,99
1659940449.97984290,254545654,0,24.721275329589844,24.74469566345215,0.14208954572677612,14.333944320678711,0.3545758128166199,0.0,0.16483016312122345,99
1659940450.07961893,254645430,0,24.64834976196289,24.65431785583496,0.03621288388967514,14.334948539733887,0.35460054874420166,0.0,0.16483016312122345,99
1659940450.17982292,254745634,0,24.677959442138672,24.69207191467285,0.08562199771404266,14.337331771850586,0.35465937852859497,0.0,0.16483016312122345,99
1659940450.27966595,254845477,0,24.719932556152344,24.74196434020996,0.13366715610027313,14.341039657592773,0.35475102066993713,0.0,0.16483016312122345,99
1659940450.37981176,254945623,0,24.71236228942871,24.734416961669922,0.13380353152751923,14.344761848449707,0.35484302043914795,0.0,0.16483016312122345,99
1659940450.47968674,255045498,0,24.70038414001465,24.719860076904297,0.1181522086262703,14.348039627075195,0.3549239933490753,0.0,0.16483016312122345,99
1659940450.57980394,255145615,0,24.652278900146484,24.660423278808594,0.049409110099077225,14.349413871765137,0.3549578785896301,0.0,0.16483016312122345,99
1659940450.67965794,255245469,0,24.7042179107666,24.72379493713379,0.11876599490642548,14.35270881652832,0.3550392687320709,0.0,0.16483016312122345,99
1659940450.77979589,255345607,0,24.71523666381836,24.737646102905273,0.13595177233219147,14.356491088867188,0.35513272881507874,0.0,0.16483016312122345,99
1659940450.87967682,255445488,0,24.69175910949707,24.780014038085938,0.5511724352836609,14.371784210205078,0.35551032423973083,0.0,0.16012297570705414,99
1659940450.97982883,255545640,0,24.420467376708984,24.824542999267578,2.5919833183288574,14.443902015686035,0.3572714626789093,0.0,0.15589435398578644,99
1659940451.07968187,255645493,0,24.499526977539062,24.752107620239258,1.6246696710586548,14.488968849182129,0.35837557911872864,0.0,0.15546563267707825,99
1659940451.17979479,255745606,0,24.60706901550293,24.791135787963867,1.198912501335144,14.52231216430664,0.3591960668563843,0.0,0.15352734923362732,99
1659940451.27970195,255845513,0,24.60426902770996,24.761220932006836,1.025315761566162,14.550768852233887,0.3598962426185608,0.0,0.15307582914829254,99
1659940451.37981772,255945629,0,24.632537841796875,24.776851654052734,0.9427626132965088,14.57698917388916,0.3605421185493469,0.0,0.15307582914829254,99
1659940451.47970676,256045518,0,24.645376205444336,24.785743713378906,0.9169838428497314,14.602433204650879,0.3611691892147064,0.0,0.15307582914829254,99
1659940451.57977581,256145587,0,24.57724380493164,24.69017791748047,0.7377607822418213,14.622943878173828,0.3616732954978943,0.0,0.15307582914829254,99
1659940451.67964292,256245454,0,24.62717056274414,24.75130844116211,0.810493528842926,14.645429611206055,0.36222705245018005,0.0,0.15316230058670044,99
1659940451.77986073,256345672,0,24.636947631835938,24.761934280395508,0.8135623931884766,14.668079376220703,0.36278507113456726,0.0,0.15362954139709473,99
1659940451.87961888,256445430,0,24.654674530029297,24.782297134399414,0.8246104121208191,14.69093132019043,0.36334848403930664,0.0,0.15476767718791962,99
1659940451.97979283,256545604,0,24.61308479309082,24.72883415222168,0.7478881478309631,14.71174430847168,0.36386075615882874,0.0,0.15476767718791962,99
1659940452.07962775,256645439,0,24.590457916259766,24.69748306274414,0.6915228962898254,14.73092269897461,0.364332377910614,0.0,0.15476767718791962,99
1659940452.17980075,256745612,0,24.63081169128418,24.75193214416504,0.781032145023346,14.752655982971191,0.3648676872253418,0.0,0.1550767421722412,99
1659940452.27965188,256845463,0,24.64739227294922,24.77498435974121,0.822769045829773,14.775480270385742,0.36543023586273193,0.0,0.1550767421722412,99
1659940452.37980294,256945614,0,24.651704788208008,24.77910614013672,0.8215415477752686,14.79833698272705,0.3659937083721161,0.0,0.1550767421722412,99
1659940452.47966695,257045478,0,24.588167190551758,24.69662857055664,0.6993997097015381,14.817726135253906,0.36647045612335205,0.0,0.1550767421722412,99
1659940452.57978892,257145600,0,24.5998592376709,24.711936950683594,0.7227232456207275,14.837841987609863,0.36696529388427734,0.0,0.1550767421722412,99
1659940452.67965889,257245470,0,24.631961822509766,24.753273010253906,0.7822597026824951,14.85954475402832,0.3674998879432678,0.0,0.1550767421722412,99
1659940452.77979684,257345608,0,24.654003143310547,24.7845458984375,0.8417961001396179,14.882962226867676,0.36807721853256226,0.0,0.1550767421722412,99
1659940452.87967992,257445491,0,24.646242141723633,24.774072647094727,0.8243035078048706,14.905835151672363,0.3686409294605255,0.0,0.1550767421722412,99
1659940452.97976494,257545576,0,24.648807525634766,24.777250289916992,0.8282589316368103,14.928863525390625,0.36920854449272156,0.0,0.1550767421722412,99
1659940453.07971096,257645522,0,24.58088493347168,24.686491012573242,0.6809863448143005,14.947771072387695,0.36967331171035767,0.0,0.1550767421722412,99
1659940453.17979074,257745602,0,24.62103843688965,24.741016387939453,0.7736668586730957,14.969281196594238,0.370202898979187,0.0,0.1550767421722412,99
1659940453.27969694,257845508,0,24.6422176361084,24.768524169921875,0.8144829869270325,14.991886138916016,0.3707599341869354,0.0,0.1550767421722412,99
1659940453.37982488,257945636,0,24.64154624938965,24.767805099487305,0.814176082611084,15.014533042907715,0.371317982673645,0.0,0.1550767421722412,99
1659940453.47967196,258045483,0,24.62266731262207,24.7416934967041,0.7675290703773499,15.035821914672852,0.3718421757221222,0.0,0.1550767421722412,99
1659940453.57978892,258145600,0,24.601106643676758,24.713565826416016,0.7251783609390259,15.055991172790527,0.37233835458755493,0.0,0.1550767421722412,99
1659940453.67965078,258245462,0,24.612892150878906,24.72996711730957,0.7549465894699097,15.076934814453125,0.3728538155555725,0.0,0.1550767421722412,99
1659940453.77982187,258345633,0,24.645187377929688,24.77349281311035,0.8273723721504211,15.099958419799805,0.37342125177383423,0.0,0.1550767421722412,99
1659940453.87964177,258445453,0,24.65189552307129,24.780710220336914,0.8306458592414856,15.122992515563965,0.373989075422287,0.0,0.1550767421722412,99
1659940453.97979975,258545611,0,24.592670440673828,24.703414916992188,0.7141304016113281,15.142862319946289,0.37447771430015564,0.0,0.1550767421722412,99
1659940454.07959175,258645403,0,24.598901748657227,24.711313247680664,0.7248714566230774,15.162957191467285,0.37497201561927795,0.0,0.1550767421722412,99
1659940454.17981696,258745628,0,24.647966384887695,24.77646255493164,0.8285999298095703,15.186027526855469,0.3755406439304352,0.0,0.1550767421722412,99
1659940454.27960491,258845416,0,24.63531494140625,24.75933837890625,0.7997523546218872,15.208197593688965,0.3760868012905121,0.0,0.1550767421722412,99
1659940454.37992382,258945735,0,24.648733139038086,24.776945114135742,0.8267585635185242,15.23123836517334,0.376654714345932,0.0,0.1550767421722412,99
1659940454.47971988,259045531,0,24.638668060302734,24.763023376464844,0.8019005656242371,15.253469467163086,0.37720245122909546,0.0,0.1550767421722412,99
1659940454.57983088,259145642,0,24.576379776000977,24.680938720703125,0.6742348670959473,15.272220611572266,0.3776632845401764,0.0,0.1550767421722412,99
1659940454.67966294,259245474,0,24.615863800048828,24.734224319458008,0.7632325887680054,15.293387413024902,0.37818431854248047,0.0,0.1550767421722412,99
1659940454.77990580,259345717,0,24.62563705444336,24.74737548828125,0.7850217223167419,15.315248489379883,0.3787226676940918,0.0,0.1550767421722412,99
1659940454.87969780,259445509,0,24.640501022338867,24.766353607177734,0.8115506172180176,15.337746620178223,0.3792770206928253,0.0,0.1550767421722412,99
1659940454.97984290,259545654,0,24.61155128479004,24.7283878326416,0.753412127494812,15.3587064743042,0.37979286909103394,0.0,0.1550767421722412,99
1659940455.07972789,259645539,0,24.58721160888672,24.69533920288086,0.6972514390945435,15.378049850463867,0.38026848435401917,0.0,0.1550767421722412,99
1659940455.17988276,259745694,0,24.62046241760254,24.740345001220703,0.7730530500411987,15.399560928344727,0.3807981014251709,0.0,0.1550767421722412,99
1659940455.27970386,259845515,0,24.645282745361328,24.773113250732422,0.8243035078048706,15.4224214553833,0.3813614845275879,0.0,0.1550767421722412,99
1659940455.37986493,259945676,0,24.64039421081543,24.76751136779785,0.8197001814842224,15.445229530334473,0.38192349672317505,0.0,0.1550767421722412,99
1659940455.47973585,260045547,0,24.587594985961914,24.695817947387695,0.6978653073310852,15.464588165283203,0.38239946961402893,0.0,0.1550767421722412,99
1659940455.57981491,260145626,0,24.599956512451172,24.713224411010742,0.730395495891571,15.484898567199707,0.38289910554885864,0.0,0.1550767421722412,99
1659940455.67967772,260245489,0,24.64508056640625,24.7729434967041,0.8245080709457397,15.507772445678711,0.3834628164768219,0.0,0.1550767421722412,99
1659940455.77988386,260345695,0,24.6381893157959,24.763402938842773,0.8074246048927307,15.530248641967773,0.38401660323143005,0.0,0.1550767421722412,99
1659940455.87966084,260445472,0,24.583375930786133,24.80752944946289,1.4699976444244385,15.57099437713623,0.3850182890892029,0.0,0.15248584747314453,99
1659940455.97992086,260545732,0,24.27461814880371,24.844388961791992,4.916973114013672,15.70789909362793,0.38834160566329956,0.0,0.11587832123041153,99
1659940456.07971883,260645530,0,23.699453353881836,24.843103408813477,10.298883438110352,15.993513107299805,0.39511048793792725,0.0,0.11104597896337509,99
1659940456.17991996,260745731,0,23.871658325195312,24.782785415649414,8.229225158691406,16.22258186340332,0.4005787670612335,0.0,0.11071845889091492,99
1659940456.27978182,260845593,0,24.015687942504883,24.826705932617188,7.374232292175293,16.427154541015625,0.40549173951148987,0.0,0.10998000204563141,99
1659940456.37993693,260945748,0,24.00811767578125,24.80646324157715,7.287383079528809,16.62989044189453,0.4103590250015259,0.0,0.10955171287059784,99
1659940456.47973180,261045543,0,23.769411087036133,24.821664810180664,9.653188705444336,16.897533416748047,0.41672074794769287,0.0,0.10900579392910004,99
1659940456.57985377,261145665,0,23.47075653076172,24.81025505065918,12.322270393371582,17.240262985229492,0.4247649013996124,0.0,0.1087055429816246,99
1659940456.67972493,261245536,0,23.30080795288086,24.84124755859375,14.801557540893555,17.65091896057129,0.43433353304862976,0.0,0.10407280176877975,99
1659940456.77991891,261345730,0,23.03871726989746,24.84064483642578,17.698894500732422,18.143552780151367,0.44568318128585815,0.0,0.10181022435426712,99
1659940456.87975073,261445562,0,22.778255462646484,24.840129852294922,20.64472007751465,18.716093063354492,0.4587246775627136,0.0,0.09987420588731766,99
1659940456.97984695,261545658,0,22.371366500854492,24.839914321899414,24.91999053955078,19.409034729003906,0.4742267429828644,0.0,0.09905891120433807,99
1659940457.07974577,261645557,0,22.26106834411621,24.791011810302734,25.569059371948242,20.118633270263672,0.4900231659412384,0.0,0.09894547611474991,99
1659940457.17987275,261745684,0,22.31080436706543,24.781824111938477,24.988733291625977,20.813695907592773,0.5055305361747742,0.0,0.09888536483049393,99
1659940457.27972984,261845541,0,22.4254150390625,24.809804916381836,24.155221939086914,21.483755111694336,0.5205568671226501,0.0,0.09871118515729904,99
1659940457.37989688,261945708,0,22.389862060546875,24.80586051940918,24.509986877441406,22.165800094604492,0.5358277559280396,0.0,0.0985720232129097,99
1659940457.47975993,262045571,0,22.36370086669922,24.7784481048584,24.498939514160156,22.845434188842773,0.5510268807411194,0.0,0.09856539219617844,99
1659940457.57987690,262145688,0,22.34487533569336,24.691444396972656,23.71841812133789,23.505109786987305,0.565767228603363,0.0,0.09893448650836945,99
1659940457.67970085,262245512,0,22.4116153717041,24.747095108032227,23.58379554748535,24.159120559692383,0.5804246664047241,0.0,0.09902901202440262,99
1659940457.77987885,262345690,0,22.442472457885742,24.749526977539062,23.279056549072266,24.806962966918945,0.5949638485908508,0.0,0.09910429269075394,99
1659940457.87969375,262445505,0,22.468151092529297,24.750829696655273,23.01850700378418,25.445234298706055,0.6093046069145203,0.0,0.0991671085357666,99
1659940457.98000073,262545812,0,22.4410343170166,24.702882766723633,22.748138427734375,26.079116821289062,0.6235296130180359,0.0,0.09943008422851562,99
1659940458.07973695,262645548,0,22.420238494873047,24.68636703491211,22.7202091217041,26.7086124420166,0.637643039226532,0.0,0.09974067658185959,99
1659940458.17987680,262745688,0,22.43068504333496,24.724258422851562,22.967561721801758,27.347475051879883,0.6519731283187866,0.0,0.09986144304275513,99
1659940458.27975178,262845563,0,22.494985580444336,24.727203369140625,22.331382751464844,27.967140197753906,0.6659125089645386,0.0,0.09995874017477036,99
1659940458.37986374,262945675,0,22.5217342376709,24.729352951049805,22.10009002685547,28.581768035888672,0.6797549724578857,0.0,0.09989186376333237,99
1659940458.47972083,263045532,0,22.590431213378906,24.69640350341797,21.11855697631836,29.1675968170166,0.6929891109466553,0.0,0.09972138702869415,99
1659940458.57986093,263145672,0,22.638057708740234,24.613510131835938,19.895912170410156,29.721084594726562,0.7055190205574036,0.0,0.09928937256336212,99
1659940458.67973781,263245549,0,22.709354400634766,24.567340850830078,18.80768394470215,30.242919921875,0.717369556427002,0.0,0.09878867119550705,99
1659940458.77983284,263345644,0,22.778541564941406,24.62654685974121,18.73863410949707,30.763973236083984,0.7292383909225464,0.0,0.09862005710601807,99
1659940458.87970281,263445514,0,22.824634552001953,24.641210556030273,18.434200286865234,31.275409698486328,0.7409117221832275,0.0,0.09854374825954437,99
1659940458.97987294,263545684,0,22.811508178710938,24.62160301208496,18.39276885986328,31.787229537963867,0.752587080001831,0.0,0.09841343760490417,99
1659940459.07973886,263645550,0,22.770109176635742,24.542055130004883,18.076982498168945,32.288734436035156,0.7640064358711243,0.0,0.09802224487066269,99
1659940459.17988086,263745692,0,22.772695541381836,24.573862075805664,18.409955978393555,32.80088806152344,0.7756695747375488,0.0,0.09783656150102615,99
1659940459.27972889,263845540,0,22.78728485107422,24.592382431030273,18.464481353759766,33.313053131103516,0.7873404026031494,0.0,0.09776055067777634,99
1659940459.37999892,263945810,0,22.795696258544922,24.606679916381836,18.52596092224121,33.829063415527344,0.7991032004356384,0.0,0.0977538675069809,99
1659940459.47978377,264045595,0,22.76483917236328,24.559673309326172,18.393999099731445,34.33897399902344,0.8107112646102905,0.0,0.09757717698812485,99
1659940459.57993579,264145747,0,22.702741622924805,24.517250061035156,18.595623016357422,34.85633087158203,0.8224566578865051,0.0,0.09757717698812485,99
1659940459.67971182,264245523,0,22.73541831970215,24.585365295410156,18.957752227783203,35.381813049316406,0.8344036936759949,0.0,0.09758259356021881,99
1659940459.77995491,264345766,0,22.734939575195312,24.587766647338867,18.984760284423828,35.91049575805664,0.8464232683181763,0.0,0.09759554266929626,99
1659940459.87974691,264445558,0,22.75458526611328,24.592920303344727,18.830699920654297,36.43250274658203,0.8583013415336609,0.0,0.09762435406446457,99
1659940459.97988486,264545696,0,22.74404525756836,24.54726791381836,18.498340606689453,36.94711685180664,0.87000572681427,0.0,0.09748023003339767,99
1659940460.07973289,264645544,0,22.666540145874023,24.51833152770996,18.947660446166992,37.472618103027344,0.8819170594215393,0.0,0.09773194044828415,99
1659940460.17984295,264745654,0,22.67830467224121,24.54401206970215,19.067005157470703,38.00294494628906,0.8939439654350281,0.0,0.0978500247001648,99
1659940460.27971673,264845528,0,22.714624404907227,24.56721305847168,18.931360244750977,38.528194427490234,0.9058748483657837,0.0,0.0978582352399826,99
1659940460.37982178,264945633,0,22.7053279876709,24.578386306762695,19.148330688476562,39.060691833496094,0.9179654121398926,0.0,0.09781838953495026,99
1659940460.47975779,265045569,0,22.65233612060547,24.56639289855957,19.564472198486328,39.603843688964844,0.9302691221237183,0.0,0.09783326834440231,99
1659940460.57984877,265145660,0,22.554975509643555,24.505395889282227,19.880874633789062,40.15663146972656,0.9427372217178345,0.0,0.09810535609722137,99
1659940460.67971087,265245522,0,22.642179489135742,24.552196502685547,19.459821701049805,40.69648361206055,0.9549607038497925,0.0,0.09815187007188797,99
1659940460.77993393,265345745,0,22.702932357788086,24.55576515197754,18.88164520263672,41.22218704223633,0.9668956995010376,0.0,0.0981288030743599,99
1659940460.87965488,265445466,0,22.788986206054688,24.55073356628418,17.960058212280273,41.7197265625,0.9782341122627258,0.0,0.0980924740433693,99
1659940460.97995877,265545770,0,22.762582778930664,24.501972198486328,17.769546508789062,42.21485900878906,0.9895046353340149,0.0,0.09788598865270615,99
1659940461.07970595,265645517,0,22.735708236694336,24.465822219848633,17.727741241455078,42.70608901977539,1.0006730556488037,0.0,0.09759361296892166,99
1659940461.17991090,265745722,0,22.789657592773438,24.51095199584961,17.648563385009766,43.1973762512207,1.0118693113327026,0.0,0.09753173589706421,99
1659940461.27972794,265845539,0,22.819557189941406,24.533079147338867,17.562944412231445,43.684261322021484,1.022979736328125,0.0,0.09756463766098022,99
1659940461.37988377,265945695,0,22.85923194885254,24.525882720947266,17.082660675048828,44.15967559814453,1.0338473320007324,0.0,0.09756386280059814,99
1659940461.47977090,266045582,0,22.866897583007812,24.537565231323242,17.11642074584961,44.6346321105957,1.0447081327438354,0.0,0.09760607779026031,99
1659940461.57987475,266145686,0,22.82204818725586,24.4450626373291,16.68063735961914,45.09831237792969,1.0552902221679688,0.0,0.09729935973882675,99
1659940461.67973089,266245542,0,22.81898307800293,24.45400047302246,16.8396053314209,45.565635681152344,1.0659540891647339,0.0,0.09709351509809494,99
1659940461.77982473,266345636,0,22.82866096496582,24.522371292114258,17.42791175842285,46.05023193359375,1.077016830444336,0.0,0.09718381613492966,99
1659940461.87971878,266445530,0,22.86426544189453,24.54033851623535,17.222261428833008,46.528160095214844,1.0879442691802979,0.0,0.09732010215520859,99
1659940461.97983074,266545642,0,22.88797950744629,24.50428009033203,16.61250877380371,46.990177154541016,1.0985188484191895,0.0,0.09729418903589249,99
1659940462.07975674,266645568,0,22.85932731628418,24.417911529541016,16.075145721435547,47.43640899658203,1.1087194681167603,0.0,0.09695613384246826,99
1659940462.17987180,266745683,0,22.89823341369629,24.45298957824707,16.057960510253906,47.882999420166016,1.118945598602295,0.0,0.09682146459817886,99
1659940462.27973795,266845549,0,22.892480850219727,24.481365203857422,16.41057586669922,48.33829116821289,1.1293684244155884,0.0,0.09682073444128036,99
1659940462.37986279,266945674,0,22.780651092529297,24.48409652709961,17.595781326293945,48.82769775390625,1.1405174732208252,0.0,0.09680990874767303,99
1659940462.47971082,267045522,0,22.83680534362793,24.444229125976562,16.60391616821289,49.288230895996094,1.1510345935821533,0.0,0.09680990874767303,99
1659940462.57984996,267145661,0,22.864118576049805,24.459583282470703,16.490365982055664,49.747005462646484,1.1615240573883057,0.0,0.09675129503011703,99
1659940462.67971182,267245523,0,22.86977195739746,24.469316482543945,16.534252166748047,50.205692291259766,1.1720141172409058,0.0,0.09674124419689178,99
1659940462.77995276,267345764,0,22.876405715942383,24.474754333496094,16.51982879638672,50.66571807861328,1.1825379133224487,0.0,0.09675336629152298,99
1659940462.87973595,267445547,0,22.892866134643555,24.491085052490234,16.50663185119629,51.123268127441406,1.1930125951766968,0.0,0.0968228355050087,99
1659940462.97991586,267545727,0,22.853288650512695,24.414691925048828,16.12639617919922,51.571922302246094,1.2032657861709595,0.0,0.0968228355050087,99
1659940463.07976294,267645574,0,22.863445281982422,24.410964965820312,16.016529083251953,52.01633071899414,1.2134264707565308,0.0,0.09662016481161118,99
1659940463.17984176,267745653,0,22.89727210998535,24.48360824584961,16.39983367919922,52.4722785949707,1.2238664627075195,0.0,0.09672880172729492,99
1659940463.27971077,267845522,0,22.912033081054688,24.47321128845215,16.131919860839844,52.91978073120117,1.2341196537017822,0.0,0.09677566587924957,99
1659940463.37982678,267945638,0,22.912128448486328,24.47488784790039,16.14112663269043,53.36875534057617,1.2444065809249878,0.0,0.09681852161884308,99
1659940463.47977686,268045588,0,22.88970184326172,24.45771598815918,16.200355529785156,53.818572998046875,1.2547026872634888,0.0,0.0967889130115509,99
1659940463.57991290,268145724,0,22.889223098754883,24.41440200805664,15.787590980529785,54.25775146484375,1.264755129814148,0.0,0.09660613536834717,99
1659940463.67978573,268245597,0,22.90951919555664,24.45122718811035,15.95992660522461,54.7005500793457,1.2748994827270508,0.0,0.09659864008426666,99
1659940463.77985978,268345671,0,22.93081283569336,24.466989517211914,15.894081115722656,55.142417907714844,1.2850319147109985,0.0,0.09665080904960632,99
1659940463.87972093,268445532,0,22.94183349609375,24.476924896240234,15.870142936706543,55.58267593383789,1.2951322793960571,0.0,0.09672828018665314,99
1659940463.97984791,268545659,0,22.91730308532715,24.41183090209961,15.479474067687988,56.013240814208984,1.3049997091293335,0.0,0.09654903411865234,99
1659940464.07975483,268645566,0,22.89986228942871,24.394123077392578,15.476713180541992,56.442779541015625,1.3148361444473267,0.0,0.09654903411865234,99
1659940464.17989779,268745709,0,22.94260025024414,24.438079833984375,15.490829467773438,56.87373352050781,1.3247233629226685,0.0,0.09653962403535843,99
1659940464.27972794,268845539,0,22.964162826538086,24.46054458618164,15.488066673278809,57.30325698852539,1.3345869779586792,0.0,0.09661508351564407,99
1659940464.37989688,268945708,0,22.973073959350586,24.468008041381836,15.459219932556152,57.73344421386719,1.344469666481018,0.0,0.09670183062553406,99
1659940464.47969079,269045502,0,22.975425720214844,24.472997665405273,15.472655296325684,58.162384033203125,1.3543248176574707,0.0,0.09678829461336136,99
1659940464.57990885,269145720,0,22.935413360595703,24.388111114501953,15.009014129638672,58.58024215698242,1.3639086484909058,0.0,0.09678829461336136,99
1659940464.67970085,269245512,0,22.947874069213867,24.410802841186523,15.133609771728516,58.99978256225586,1.373536229133606,0.0,0.09666751325130463,99
1659940464.77991390,269345725,0,22.980453491210938,24.44382095336914,15.133916854858398,59.42109298706055,1.3832181692123413,0.0,0.09669456630945206,99
1659940464.87970090,269445512,0,23.014373779296875,24.459518432617188,14.933212280273438,59.83505630493164,1.3927453756332397,0.0,0.09677384048700333,99
1659940464.97990179,269545713,0,23.007862091064453,24.431678771972656,14.719003677368164,60.24476623535156,1.4021719694137573,0.0,0.0967332273721695,99
1659940465.07973480,269645546,0,23.10991668701172,24.385269165039062,13.212180137634277,60.61118698120117,1.4106398820877075,0.0,0.0965285375714302,99
1659940465.17993879,269745750,0,23.040058135986328,24.416345596313477,14.26450252532959,61.00826644897461,1.4197885990142822,0.0,0.09648337960243225,99
1659940465.27980280,269845614,0,22.92353057861328,24.42831802368164,15.597933769226074,61.44098663330078,1.4297081232070923,0.0,0.09647350013256073,99
1659940465.37988186,269945693,0,22.87628746032715,24.457725524902344,16.414871215820312,61.8973503112793,1.440148115158081,0.0,0.0963418260216713,99
1659940465.47982574,270045637,0,22.798782348632812,24.403438568115234,16.63678741455078,62.35913848876953,1.4506763219833374,0.0,0.0964522436261177,99
1659940465.57986474,270145676,0,22.75861167907715,24.401424407958984,17.01361083984375,62.832088470458984,1.4614399671554565,0.0,0.09655869752168655,99
1659940465.67989492,270245706,0,22.763402938842773,24.44343376159668,17.413795471191406,63.315982818603516,1.4724550247192383,0.0,0.09647700190544128,99
1659940465.78000188,270345813,0,22.742223739624023,24.46135902404785,17.846506118774414,63.812294006347656,1.4837422370910645,0.0,0.09632894396781921,99
1659940465.87981486,270445626,0,22.738008499145508,24.45717430114746,17.867990493774414,64.3077392578125,1.4950076341629028,0.0,0.09621486067771912,99
1659940465.97993183,270545743,0,22.7289981842041,24.4547061920166,17.952999114990234,64.80705261230469,1.5063564777374268,0.0,0.09612362831830978,99
1659940466.07973194,270645543,0,22.663068771362305,24.380443572998047,17.823490142822266,65.30120086669922,1.5175553560256958,0.0,0.09635455906391144,99
1659940466.17985392,270745665,0,22.670448303222656,24.3984375,17.909420013427734,65.7993392944336,1.5288482904434204,0.0,0.09648498147726059,99
1659940466.27972293,270845534,0,22.706254959106445,24.433334350585938,17.905601501464844,66.29609680175781,1.5401278734207153,0.0,0.0964546650648117,99
1659940466.37991381,270945725,0,22.661725997924805,24.458114624023438,18.64963722229004,66.81517028808594,1.5518909692764282,0.0,0.09632296115159988,99
1659940466.47972178,271045533,0,22.634225845336914,24.44304656982422,18.789270401000977,67.33614349365234,1.5636827945709229,0.0,0.09626876562833786,99
1659940466.57990289,271145714,0,22.5889949798584,24.389020919799805,18.66313934326172,67.85554504394531,1.5754154920578003,0.0,0.09644822031259537,99
1659940466.67974973,271245561,0,22.618602752685547,24.42852210998535,18.766868591308594,68.37604522705078,1.587188482284546,0.0,0.09644227474927902,99
1659940466.77994585,271345757,0,22.614099502563477,24.45118522644043,19.068538665771484,68.90685272216797,1.5991922616958618,0.0,0.09634117037057877,99
1659940466.87971592,271445527,0,22.601642608642578,24.4608154296875,19.32417869567871,69.44244384765625,1.6112974882125854,0.0,0.09620966017246246,99
1659940466.97996092,271545772,0,22.57155418395996,24.41474723815918,19.142807006835938,69.97553253173828,1.6233301162719727,0.0,0.09628648310899734,99
1659940467.07976890,271645580,0,22.52756690979004,24.415544509887695,19.594547271728516,70.5188217163086,1.6355689764022827,0.0,0.0963522344827652,99
1659940467.17988396,271745695,0,22.484678268432617,24.403100967407227,19.887420654296875,71.07193756103516,1.6480056047439575,0.0,0.09646416455507278,99
1659940467.27978683,271845598,0,22.514728546142578,24.46344757080078,20.234102249145508,71.63349151611328,1.6606488227844238,0.0,0.09630869328975677,99
1659940467.37988496,271945696,0,22.48722267150879,24.46556282043457,20.573522567749023,72.2055892944336,1.6735137701034546,0.0,0.09615954756736755,99
1659940467.47985196,272045663,0,22.476970672607422,24.458824157714844,20.632753372192383,72.77857208251953,1.6863926649093628,0.0,0.09605378657579422,99
1659940467.57991195,272145723,0,22.400211334228516,24.37748146057129,20.531478881835938,73.34928131103516,1.6991767883300781,0.0,0.09630434960126877,99
1659940467.67973590,272245547,0,22.400306701660156,24.369110107421875,20.388160705566406,73.91466522216797,1.7118415832519531,0.0,0.09656596928834915,99
1659940467.77998376,272345795,0,22.46796226501465,24.436511993408203,20.396142959594727,74.482666015625,1.724603533744812,0.0,0.09651581197977066,99
1659940467.87972975,272445541,0,22.47476577758789,24.42128562927246,20.16382598876953,75.04139709472656,1.7371608018875122,0.0,0.09653519839048386,99
1659940467.97994280,272545754,0,22.462501525878906,24.39372444152832,19.9775447845459,75.59756469726562,1.7496535778045654,0.0,0.09666964411735535,99
1659940468.07971692,272645528,0,22.42302894592285,24.332782745361328,19.755460739135742,76.14512634277344,1.7619315385818481,0.0,0.09666964411735535,99
1659940468.17990184,272745713,0,22.522010803222656,24.375022888183594,19.191909790039062,76.67926788330078,1.7739615440368652,0.0,0.09655171632766724,99
1659940468.27975273,272845564,0,22.561010360717773,24.381643295288086,18.86967658996582,77.20269012451172,1.7857704162597656,0.0,0.09648457169532776,99
1659940468.37991095,272945722,0,22.614770889282227,24.407306671142578,18.570459365844727,77.71939086914062,1.7974555492401123,0.0,0.09652616083621979,99
1659940468.47972274,273045534,0,22.573467254638672,24.352476119995117,18.462432861328125,78.23131561279297,1.809011459350586,0.0,0.09635835140943527,99
1659940468.57988691,273145698,0,22.575000762939453,24.360641479492188,18.550512313842773,78.74748992919922,1.8206640481948853,0.0,0.0962582528591156,99
1659940468.67975974,273245571,0,22.623491287231445,24.382654190063477,18.274925231933594,79.25452423095703,1.8321349620819092,0.0,0.09626097232103348,99
1659940468.77998781,273345799,0,22.60700798034668,24.349699020385742,18.126083374023438,79.75921630859375,1.8435444831848145,0.0,0.0961427316069603,99
1659940468.87978077,273445592,0,22.6224365234375,24.340835571289062,17.896530151367188,80.25535583496094,1.8547682762145996,0.0,0.09601856768131256,98
1659940468.97999191,273545803,0,22.654190063476562,24.39346694946289,18.09587287902832,80.75911712646484,1.8661805391311646,0.0,0.09611453860998154,98
1659940469.07974482,273645556,0,22.599916458129883,24.318716049194336,17.919857025146484,81.25569915771484,1.8774032592773438,0.0,0.09591588377952576,98
1659940469.17981482,273745626,0,22.618602752685547,24.318077087402344,17.74738311767578,81.74906921386719,1.8885626792907715,0.0,0.09575916826725006,98
1659940469.27973390,273845545,0,22.66709327697754,24.376020431518555,17.829322814941406,82.24396514892578,1.899780511856079,0.0,0.09584929049015045,98
1659940469.37988782,273945699,0,22.704370498657227,24.379287719726562,17.459522247314453,82.72953033447266,1.9108049869537354,0.0,0.09593139588832855,98
1659940469.47980189,274045613,0,22.672555923461914,24.347055435180664,17.465044021606445,83.2145004272461,1.9218004941940308,0.0,0.09587723761796951,98
1659940469.57982779,274145639,0,22.68453598022461,24.303728103637695,16.92369270324707,83.68476867675781,1.932468295097351,0.0,0.09567608684301376,98
1659940469.67977977,274245591,0,22.70743751525879,24.32278823852539,16.898834228515625,84.15393829345703,1.9431220293045044,0.0,0.09558944404125214,98
1659940469.77991891,274345730,0,22.70887565612793,24.363449096679688,17.294416427612305,84.63509368896484,1.95404851436615,0.0,0.09567101299762726,98
1659940469.87981892,274445630,0,22.745437622070312,24.376476287841797,17.028581619262695,85.10767364501953,1.9647976160049438,0.0,0.09578240662813187,98
1659940469.97992277,274545734,0,22.691051483154297,24.3048095703125,16.879194259643555,85.57707214355469,1.975448727607727,0.0,0.09560634940862656,98
1659940470.07974076,274645552,0,22.670734405517578,24.293676376342773,16.975250244140625,86.04778289794922,1.9861202239990234,0.0,0.09560634940862656,98
1659940470.17994094,274745752,0,22.719799041748047,24.367809295654297,17.215238571166992,86.5269775390625,1.9970074892044067,0.0,0.09572972357273102,98
1659940470.27975893,274845570,0,22.708683013916016,24.354827880859375,17.18700408935547,87.00355529785156,2.0078299045562744,0.0,0.0957784354686737,98
1659940470.37996578,274945777,0,22.730243682861328,24.37423324584961,17.144962310791016,87.4808349609375,2.0186784267425537,0.0,0.09588758647441864,98
1659940470.47979975,275045611,0,22.745960235595703,24.37876319885254,17.010234832763672,87.95259857177734,2.029409170150757,0.0,0.09598943591117859,98
1659940470.57998395,275145795,0,22.69641876220703,24.30644989013672,16.773012161254883,88.41938781738281,2.040003776550293,0.0,0.09598943591117859,98
1659940470.67976975,275245581,0,22.683895111083984,24.28726577758789,16.70362091064453,88.88243865966797,2.0505075454711914,0.0,0.09598943591117859,98
1659940470.77993393,275345745,0,22.749603271484375,24.3619384765625,16.781909942626953,89.34941101074219,2.061131000518799,0.0,0.09607576578855515,98
1659940470.87976694,275445578,0,22.790042877197266,24.379308700561523,16.51921272277832,89.80754089355469,2.0715718269348145,0.0,0.09620706737041473,98
1659940470.97990680,275545718,0,22.755064010620117,24.337934494018555,16.461212158203125,90.2654800415039,2.0819921493530273,0.0,0.09615764021873474,98
1659940471.07978678,275645598,0,22.75899314880371,24.295263290405273,16.009164810180664,90.70967864990234,2.092101573944092,0.0,0.09596189111471176,98
1659940471.17983079,275745642,0,22.75295639038086,24.308534622192383,16.227977752685547,91.16069793701172,2.1023635864257812,0.0,0.09585782140493393,98
1659940471.27974391,275845555,0,22.775476455688477,24.350051879882812,16.413949966430664,91.61627960205078,2.1127395629882812,0.0,0.09592905640602112,98
1659940471.37989187,275945703,0,22.789369583129883,24.36038589477539,16.36086082458496,92.07146453857422,2.123112916946411,0.0,0.09602278470993042,98
1659940471.47976995,276045581,0,22.730722427368164,24.293987274169922,16.280147552490234,92.52312469482422,2.1333794593811035,0.0,0.09602278470993042,98
1659940471.57996774,276145779,0,22.69369125366211,24.29129409790039,16.607803344726562,92.9854507446289,2.143871307373047,0.0,0.09619595110416412,98
1659940471.67974091,276245552,0,22.771642684936523,24.365859985351562,16.572612762451172,93.44479370117188,2.1543312072753906,0.0,0.09619595110416412,98
1659940471.77995276,276345764,0,22.7530517578125,24.347505569458008,16.5750675201416,93.9062271118164,2.164830207824707,0.0,0.09619595110416412,98
1659940471.87974787,276445559,0,22.73541831970215,24.369949340820312,17.016374588012695,94.37796783447266,2.175555467605591,0.0,0.09605637192726135,98
1659940471.98000073,276545812,0,22.754106521606445,24.36142921447754,16.733116149902344,94.84398651123047,2.186159372329712,0.0,0.09605637192726135,98
1659940472.07973075,276645542,0,22.64716148376465,24.284832000732422,17.005327224731445,95.31512451171875,2.196829319000244,0.0,0.09630338847637177,98
1659940472.17991376,276745725,0,22.61649513244629,24.325288772583008,17.734493255615234,95.8086929321289,2.2079920768737793,0.0,0.09635424613952637,98
1659940472.27974486,276845556,0,22.59426498413086,24.339550018310547,18.115957260131836,96.3110580444336,2.2193427085876465,0.0,0.096339650452137,98
1659940472.37986279,276945674,0,22.53839683532715,24.353107452392578,18.850341796875,96.83538055419922,2.2311601638793945,0.0,0.09626934677362442,98
1659940472.47978473,277045596,0,22.550588607788086,24.330554962158203,18.483234405517578,97.34844970703125,2.242730140686035,0.0,0.09630170464515686,98
1659940472.57989788,277145709,0,22.531593322753906,24.2791805267334,18.100919723510742,97.85186004638672,2.254072666168213,0.0,0.09654683619737625,98
1659940472.67978787,277245599,0,22.56446075439453,24.320737838745117,18.182552337646484,98.3564224243164,2.26545786857605,0.0,0.09659131616353989,98
1659940472.77990389,277345715,0,22.589759826660156,24.361021041870117,18.36238670349121,98.86711883544922,2.276994228363037,0.0,0.09646143019199371,98
1659940472.87976694,277445578,0,22.62013816833496,24.373016357421875,18.171810150146484,99.3712387084961,2.2883975505828857,0.0,0.09646143019199371,98
1659940472.97989273,277545704,0,22.5841064453125,24.281864166259766,17.600383758544922,99.86079406738281,2.2994537353515625,0.0,0.09646143019199371,98
1659940473.07978177,277645593,0,22.63901710510254,24.301469802856445,17.253292083740234,100.33956146240234,2.3102924823760986,0.0,0.09635571390390396,98
1659940473.17987490,277745686,0,22.680795669555664,24.309751510620117,16.914794921875,100.80989074707031,2.32096004486084,0.0,0.09630364924669266,98
1659940473.27973175,277845543,0,22.735111236572266,24.345542907714844,16.706687927246094,101.2733383178711,2.331496477127075,0.0,0.09639444947242737,98
1659940473.37995696,277945768,0,22.726314544677734,24.367830276489258,17.00225830078125,101.7467269897461,2.342254877090454,0.0,0.09654687345027924,98
1659940473.47974277,278045554,0,22.69363784790039,24.356576919555664,17.210329055786133,102.22380065917969,2.353081464767456,0.0,0.09662442654371262,98
1659940473.57996988,278145781,0,22.639495849609375,24.276636123657227,16.94333267211914,102.695556640625,2.3637619018554688,0.0,0.09662442654371262,98
1659940473.67972279,278245534,0,22.660865783691406,24.287269592285156,16.8592472076416,103.1627426147461,2.3743488788604736,0.0,0.09646950662136078,98
1659940473.78002977,278345841,0,22.724685668945312,24.36172103881836,16.942720413208008,103.6348648071289,2.385077714920044,0.0,0.09662171453237534,98
1659940473.87971091,278445522,0,22.733217239379883,24.36131477355957,16.829784393310547,104.10089874267578,2.395672082901001,0.0,0.09673910588026047,98
1659940473.97995687,278545768,0,22.701879501342773,24.317007064819336,16.707950592041016,104.56619262695312,2.4062352180480957,0.0,0.09666814655065536,98
1659940474.07973576,278645547,0,22.6875057220459,24.267440795898438,16.38418197631836,105.02033996582031,2.416538715362549,0.0,0.0964304730296135,98
1659940474.17993879,278745750,0,22.743757247924805,24.336820602416992,16.508472442626953,105.47987365722656,2.426990270614624,0.0,0.09649979323148727,98
1659940474.27976990,278845581,0,22.779403686523438,24.37236213684082,16.475839614868164,105.93679809570312,2.437398672103882,0.0,0.09668456017971039,98
1659940474.37983274,278945644,0,22.733501434326172,24.373945236206055,16.96696662902832,106.40843963623047,2.448120594024658,0.0,0.09668456017971039,98
1659940474.47979188,279045603,0,22.720949172973633,24.291215896606445,16.27124786376953,106.86026763916016,2.4583864212036133,0.0,0.09650566428899765,98
1659940474.57985473,279145666,0,22.729093551635742,24.29163932800293,16.2144718170166,107.31099700927734,2.4686310291290283,0.0,0.09636732190847397,98
1659940474.67981577,279245627,0,22.775859832763672,24.376121520996094,16.571077346801758,107.77115631103516,2.479111671447754,0.0,0.09656957536935806,98
1659940474.77991891,279345730,0,22.770299911499023,24.368412017822266,16.526578903198242,108.2307357788086,2.489576578140259,0.0,0.09669952094554901,98
1659940474.87974095,279445552,0,22.772600173950195,24.376319885253906,16.562177658081055,108.69001770019531,2.5000357627868652,0.0,0.09683021903038025,98
1659940474.97988176,279545693,0,22.74404525756836,24.368892669677734,16.780376434326172,109.15682983398438,2.510653018951416,0.0,0.09683021903038025,98
1659940475.07977796,279645589,0,22.679424285888672,24.298362731933594,16.680774688720703,109.61973571777344,2.521151542663574,0.0,0.0970541387796402,98
1659940475.17996478,279745776,0,22.711078643798828,24.34160614013672,16.796947479248047,110.08723449707031,2.531769037246704,0.0,0.09707280993461609,98
1659940475.27973080,279845542,0,22.710023880004883,24.364768981933594,17.06056785583496,110.56006622314453,2.5425069332122803,0.0,0.09699240326881409,98
1659940475.37993789,279945749,0,22.728424072265625,24.379329681396484,17.020977020263672,111.03388977050781,2.5532760620117188,0.0,0.09699240326881409,98
1659940475.47976375,280045575,0,22.71318817138672,24.3276309967041,16.645038604736328,111.49549102783203,2.56376051902771,0.0,0.09699240326881409,98
1659940475.57994390,280145755,0,22.690475463867188,24.286283493041992,16.452926635742188,111.953369140625,2.5741500854492188,0.0,0.09699240326881409,98
1659940475.67973876,280245550,0,22.730915069580078,24.325313568115234,16.446481704711914,112.40926361083984,2.584512948989868,0.0,0.09694460779428482,98
1659940475.77992082,280345732,0,22.72804069519043,24.358110427856445,16.81443977355957,112.87727355957031,2.5951499938964844,0.0,0.09694460779428482,98
1659940475.87973881,280445550,0,22.713666915893555,24.359630584716797,16.993356704711914,113.3484878540039,2.6058530807495117,0.0,0.09685925394296646,98
1659940475.97993684,280545748,0,22.672504425048828,24.27204132080078,16.5140323638916,113.80815887451172,2.616274833679199,0.0,0.09685925394296646,98
1659940476.07977486,280645586,0,22.67744255065918,24.289817810058594,16.64657211303711,114.26984405517578,2.6267447471618652,0.0,0.09685925394296646,98
1659940476.17994475,280745756,0,22.719223022460938,24.351810455322266,16.855257034301758,114.73888397216797,2.6374008655548096,0.0,0.09685925394296646,98
1659940476.27981782,280845629,0,22.740690231323242,24.342374801635742,16.527193069458008,115.19721221923828,2.6478235721588135,0.0,0.09691212326288223,98
1659940476.37988782,280945699,0,22.746728897094727,24.35967445373535,16.625396728515625,115.65959930419922,2.658341407775879,0.0,0.09701698273420334,98
1659940476.47976089,281045572,0,22.755638122558594,24.346540451049805,16.392467498779297,116.11441040039062,2.6686909198760986,0.0,0.09705080837011337,98
1659940476.57989478,281145706,0,22.704946517944336,24.282445907592773,16.25436782836914,116.56655883789062,2.678956985473633,0.0,0.09705080837011337,98
1659940476.67981887,281245630,0,22.71778678894043,24.31393051147461,16.446481704711914,117.0230941772461,2.68932843208313,0.0,0.09705080837011337,98
1659940476.77995086,281345762,0,22.734556198120117,24.357149124145508,16.7189998626709,117.4881591796875,2.699901580810547,0.0,0.09705080837011337,98
1659940476.87975383,281445565,0,22.712430953979492,24.3446044921875,16.826717376708984,117.95467376708984,2.7104973793029785,0.0,0.09699887782335281,98
1659940476.97994375,281545755,0,22.682619094848633,24.31602668762207,16.826717376708984,118.42301940917969,2.721120595932007,0.0,0.09707224369049072,98
1659940477.07973695,281645548,0,22.654348373413086,24.30259895324707,16.958370208740234,118.89314270019531,2.7317709922790527,0.0,0.09719391912221909,98
1659940477.17992377,281745735,0,22.674470901489258,24.353397369384766,17.292573928833008,119.3743667602539,2.742682456970215,0.0,0.09708946198225021,98
1659940477.27974391,281845555,0,22.676578521728516,24.35599708557129,17.316204071044922,119.85456085205078,2.7535715103149414,0.0,0.09698540717363358,98
1659940477.37994289,281945754,0,22.7111759185791,24.357467651367188,16.974637985229492,120.32711029052734,2.764303684234619,0.0,0.09698540717363358,98
1659940477.47978592,282045597,0,22.650514602661133,24.28546714782715,16.85771369934082,120.794677734375,2.7748942375183105,0.0,0.09698540717363358,98
1659940477.57990289,282145714,0,22.655881881713867,24.287113189697266,16.819351196289062,121.2624740600586,2.785492420196533,0.0,0.09698540717363358,98
1659940477.67973375,282245545,0,22.729042053222656,24.365983963012695,16.850244522094727,121.72977447509766,2.7961137294769287,0.0,0.09714646637439728,98
1659940477.77996087,282345772,0,22.720661163330078,24.358400344848633,16.841445922851562,122.19869995117188,2.8067679405212402,0.0,0.09724453836679459,98
1659940477.87974787,282445559,0,22.727081298828125,24.352615356445312,16.7064151763916,122.66181945800781,2.817293167114258,0.0,0.09730000793933868,98
1659940477.97991085,282545722,0,22.73225975036621,24.344173431396484,16.564327239990234,123.12271881103516,2.827770471572876,0.0,0.09731238335371017,98
1659940478.07973981,282645551,0,22.698719024658203,24.291580200195312,16.368532180786133,123.57666015625,2.8380744457244873,0.0,0.09731238335371017,98
1659940478.17984986,282745661,0,22.753435134887695,24.369596481323242,16.585195541381836,124.03791046142578,2.848569393157959,0.0,0.0974460020661354,98
1659940478.27986979,282845681,0,22.705041885375977,24.301645278930664,16.384489059448242,124.4931640625,2.8589060306549072,0.0,0.0974460020661354,98
1659940478.37994194,282945753,0,22.754680633544922,24.358694076538086,16.445560455322266,124.95015716552734,2.869304656982422,0.0,0.09753468632698059,98
1659940478.47977996,283045591,0,22.71625328063965,24.301349639892578,16.25160789489746,125.40109252929688,2.8795480728149414,0.0,0.09753468632698059,98
1659940478.57990885,283145720,0,22.71104621887207,24.286617279052734,16.153947830200195,125.85042572021484,2.8897528648376465,0.0,0.09753468632698059,98
1659940478.67974186,283245553,0,22.74864387512207,24.320093154907227,16.115041732788086,126.29735565185547,2.8999199867248535,0.0,0.09751440584659576,98
1659940478.77993393,283345745,0,22.79857063293457,24.349714279174805,15.89162540435791,126.73961639404297,2.9100029468536377,0.0,0.0976075753569603,98
1659940478.87974787,283445559,0,22.824731826782227,24.370574951171875,15.81306266784668,127.17813110351562,2.9200119972229004,0.0,0.09775737673044205,98
1659940478.97992277,283545734,0,22.81467056274414,24.351503372192383,15.713324546813965,127.61541748046875,2.929988384246826,0.0,0.0978044718503952,98
1659940479.07970786,283645519,0,22.781415939331055,24.276578903198242,15.324803352355957,128.04022216796875,2.9396660327911377,0.0,0.09756495803594589,98
1659940479.17990685,283745718,0,22.80441665649414,24.28510856628418,15.200819969177246,128.46334838867188,2.949315071105957,0.0,0.09740865975618362,98
1659940479.27972174,283845533,0,22.834121704101562,24.320432662963867,15.257286071777344,128.88641357421875,2.958975315093994,0.0,0.09741651266813278,98
1659940479.37995982,283945771,0,22.86766242980957,24.340984344482422,15.111207962036133,129.3072052001953,2.968597650527954,0.0,0.09749855846166611,98
1659940479.47972679,284045538,0,22.860431671142578,24.331926345825195,15.087679862976074,129.72537231445312,2.9781570434570312,0.0,0.09752950072288513,98
1659940479.57993889,284145750,0,22.80815315246582,24.25916862487793,14.915105819702148,130.14059448242188,2.9876275062561035,0.0,0.09728493541479111,98
1659940479.67975974,284245571,0,22.835464477539062,24.30491065979004,15.108139038085938,130.55953979492188,2.997194290161133,0.0,0.09726191312074661,98
1659940479.77993774,284345749,0,22.867088317871094,24.337860107421875,15.105684280395508,130.97991943359375,3.006807327270508,0.0,0.09736549854278564,98
1659940479.87979984,284445611,0,22.884624481201172,24.34199333190918,14.953160285949707,131.39474487304688,3.0163004398345947,0.0,0.09746222198009491,98
1659940479.97996473,284545776,0,22.83153533935547,24.2855167388916,14.938735961914062,131.8104248046875,3.0257909297943115,0.0,0.09732956439256668,98
1659940480.07975483,284645566,0,22.8043212890625,24.265291213989258,15.01054859161377,132.22650146484375,3.0352792739868164,0.0,0.09732956439256668,98
1659940480.17984581,284745657,0,22.843608856201172,24.331401824951172,15.286133766174316,132.65158081054688,3.044989585876465,0.0,0.09732956439256668,98
1659940480.27980494,284845616,0,22.851564407348633,24.35211181640625,15.417177200317383,133.07969665527344,3.0547726154327393,0.0,0.09732956439256668,98
1659940480.37997794,284945789,0,22.863201141357422,24.353450775146484,15.311367988586426,133.5057830810547,3.064514398574829,0.0,0.09732956439256668,98
1659940480.47973680,285045548,0,22.863733291625977,24.350481033325195,15.27539348602295,133.92910766601562,3.074193239212036,0.0,0.09732956439256668,98
1659940480.57988477,285145696,0,22.78697395324707,24.271211624145508,15.249614715576172,134.35336303710938,3.0838608741760254,0.0,0.09732956439256668,98
1659940480.67973995,285245551,0,22.796079635620117,24.261381149291992,15.055047988891602,134.7709197998047,3.093379497528076,0.0,0.09732956439256668,98
1659940480.77991891,285345730,0,22.843036651611328,24.344449996948242,15.426074981689453,135.20030212402344,3.1031877994537354,0.0,0.09732956439256668,98
1659940480.87974191,285445553,0,22.839296340942383,24.35403060913086,15.562949180603027,135.6318817138672,3.1130447387695312,0.0,0.09732956439256668,98
1659940480.97989893,285545710,0,22.816587448120117,24.323389053344727,15.482850074768066,136.0626678466797,3.1228737831115723,0.0,0.09732069820165634,98
1659940481.07972193,285645533,0,22.806236267089844,24.307710647583008,15.41901683807373,136.49024963378906,3.1326253414154053,0.0,0.09737810492515564,98
1659940481.17990780,285745719,0,22.774517059326172,24.275772094726562,15.387714385986328,136.91851806640625,3.14237904548645,0.0,0.09756190329790115,98
1659940481.27975488,285845566,0,22.829021453857422,24.341890335083008,15.506753921508789,137.3486328125,3.152198314666748,0.0,0.09756190329790115,98
1659940481.37999392,285945805,0,22.844375610351562,24.346887588500977,15.400603294372559,137.77748107910156,3.1619951725006104,0.0,0.09756190329790115,98
1659940481.47981977,286045631,0,22.797325134277344,24.292322158813477,15.323575973510742,138.20242309570312,3.171682834625244,0.0,0.09756190329790115,98
1659940481.57991195,286145723,0,22.78170394897461,24.276071548461914,15.317131042480469,138.62831115722656,3.1813852787017822,0.0,0.09756190329790115,98
1659940481.67976689,286245578,0,22.846773147583008,24.318279266357422,15.078984260559082,139.04661560058594,3.1909420490264893,0.0,0.09758652001619339,98
1659940481.77984786,286345659,0,22.810836791992188,24.32977294921875,15.57614517211914,139.47967529296875,3.2008204460144043,0.0,0.09751683473587036,98
1659940481.87977386,286445585,0,22.797996520996094,24.351041793823242,15.950549125671387,139.92245483398438,3.2109148502349854,0.0,0.09736625105142593,98
1659940481.97990179,286545713,0,22.807004928588867,24.346214294433594,15.826872825622559,140.36268615722656,3.2209551334381104,0.0,0.09725291281938553,98
1659940482.07979989,286645611,0,22.725740432739258,24.264305114746094,15.781146049499512,140.80064392089844,3.230908155441284,0.0,0.09749382734298706,98
1659940482.17982984,286745641,0,22.701677322387695,24.282669067382812,16.19350242614746,141.25062561035156,3.241123676300049,0.0,0.09763126820325851,98
1659940482.27978492,286845596,0,22.725645065307617,24.345928192138672,16.620182037353516,141.71212768554688,3.2516114711761475,0.0,0.09748885780572891,98
1659940482.37990594,286945717,0,22.719799041748047,24.342519760131836,16.66437339782715,142.17562866210938,3.2621421813964844,0.0,0.09737664461135864,98
1659940482.47986674,287045678,0,22.733596801757812,24.352664947509766,16.651174545288086,142.6380157470703,3.2726540565490723,0.0,0.09723450243473053,98
1659940482.57992196,287145733,0,22.712419509887695,24.33867835998535,16.736799240112305,143.1032257080078,3.283220052719116,0.0,0.09716663509607315,98
1659940482.67973995,287245551,0,22.653486251831055,24.26924705505371,16.589492797851562,143.563232421875,3.2936408519744873,0.0,0.09739668667316437,98
1659940482.77995586,287345767,0,22.67178726196289,24.290515899658203,16.600234985351562,144.025390625,3.3041186332702637,0.0,0.09751243889331818,98
1659940482.87969875,287445510,0,22.73340606689453,24.351327896118164,16.59194564819336,144.48513793945312,3.314570188522339,0.0,0.09751243889331818,98
1659940482.97994685,287545758,0,22.692731857299805,24.29996109008789,16.467313766479492,144.94374084472656,3.324976921081543,0.0,0.09760113805532455,98
1659940483.07973790,287645549,0,22.68309783935547,24.26603889465332,16.218463897705078,145.39334106445312,3.3351755142211914,0.0,0.09760113805532455,98
1659940483.17995191,287745763,0,22.695363998413086,24.3194637298584,16.646879196166992,145.85678100585938,3.345693349838257,0.0,0.09756176173686981,98
1659940483.27976179,287845573,0,22.721332550048828,24.342527389526367,16.617111206054688,146.31753540039062,3.3561623096466064,0.0,0.09756176173686981,98
1659940483.37987876,287945690,0,22.7325439453125,24.34068489074707,16.483308792114258,146.77597045898438,3.366583824157715,0.0,0.09756176173686981,98
1659940483.47980881,288045620,0,22.750751495361328,24.355663299560547,16.428375244140625,147.23202514648438,3.3769595623016357,0.0,0.09769139438867569,98
1659940483.57987475,288145686,0,22.690093994140625,24.262266159057617,16.093252182006836,147.6793975830078,3.387110471725464,0.0,0.09769139438867569,98
1659940483.67973495,288245546,0,22.710023880004883,24.282794952392578,16.099390029907227,148.12600708007812,3.3972530364990234,0.0,0.09769139438867569,98
1659940483.77988696,288345698,0,22.74567413330078,24.349565505981445,16.417940139770508,148.58277893066406,3.407642364501953,0.0,0.09769139438867569,98
1659940483.87976074,288445572,0,22.744800567626953,24.355979919433594,16.4925479888916,149.04039001464844,3.418050527572632,0.0,0.09769139438867569,98
1659940483.97989893,288545710,0,22.755542755126953,24.31395721435547,15.958528518676758,149.48419189453125,3.428149461746216,0.0,0.09765402227640152,98
1659940484.07978177,288645593,0,22.732065200805664,24.263099670410156,15.713017463684082,149.92027282714844,3.4380624294281006,0.0,0.09743733704090118,98
1659940484.17994881,288745760,0,22.786685943603516,24.33438491821289,15.868915557861328,150.36187744140625,3.448125123977661,0.0,0.09753021597862244,98
1659940484.27973580,288845547,0,22.758514404296875,24.260194778442383,15.428837776184082,150.7895965576172,3.457859516143799,0.0,0.09732946753501892,98
1659940484.37992787,288945739,0,22.82195281982422,24.32697868347168,15.449091911315918,151.21958923339844,3.467672824859619,0.0,0.09741846472024918,98
1659940484.47980285,289045614,0,22.792917251586914,24.260683059692383,15.093713760375977,151.63836669921875,3.47721791267395,0.0,0.09724350273609161,98
1659940484.58004689,289145858,0,22.809112548828125,24.249832153320312,14.842680931091309,152.0517120361328,3.4866459369659424,0.0,0.09706603735685349,98
1659940484.67972589,289245537,0,22.862201690673828,24.294485092163086,14.751840591430664,152.460205078125,3.4959850311279297,0.0,0.09709184616804123,98
1659940484.77995396,289345765,0,22.886306762695312,24.31794548034668,14.728960037231445,152.8703155517578,3.505370855331421,0.0,0.09719886630773544,98
1659940484.87971783,289445529,0,22.884815216064453,24.333585739135742,14.883495330810547,153.28280639648438,3.514810562133789,0.0,0.09734069555997849,98
1659940484.97997594,289545787,0,22.885103225708008,24.330425262451172,14.83285903930664,153.6959228515625,3.5242648124694824,0.0,0.09744051098823547,98
1659940485.07978392,289645595,0,22.840255737304688,24.245981216430664,14.461217880249023,154.09689331054688,3.5334229469299316,0.0,0.09720652550458908,98
1659940485.17991185,289745723,0,22.823774337768555,24.251693725585938,14.689542770385742,154.5054931640625,3.5427486896514893,0.0,0.09720652550458908,98
1659940485.27977490,289845586,0,22.889606475830078,24.32817268371582,14.77669906616211,154.91543579101562,3.5521321296691895,0.0,0.09735371917486191,98
1659940485.37984896,289945660,0,22.906761169433594,24.316978454589844,14.474413871765137,155.3178253173828,3.561349630355835,0.0,0.09742826223373413,98
1659940485.47980189,290045613,0,22.909923553466797,24.29660987854004,14.235346794128418,155.71310424804688,3.5704052448272705,0.0,0.09741152822971344,98
1659940485.57990694,290145718,0,22.861434936523438,24.237415313720703,14.1592378616333,156.10684204101562,3.57940673828125,0.0,0.09717898070812225,98
1659940485.67980289,290245614,0,22.880407333374023,24.280473709106445,14.410581588745117,156.50677490234375,3.588557243347168,0.0,0.09715539216995239,98
1659940485.77988076,290345692,0,22.934860229492188,24.313074111938477,14.170763969421387,156.90074157714844,3.597592830657959,0.0,0.0972575917840004,98
1659940485.87974477,290445556,0,22.953044891357422,24.319011688232422,14.030038833618164,157.2899627685547,3.6065266132354736,0.0,0.09736018627882004,98
1659940485.97996473,290545776,0,22.908199310302734,24.26314353942871,13.934903144836426,157.6779327392578,3.6154141426086426,0.0,0.09723388403654099,98
1659940486.07978773,290645599,0,22.899093627929688,24.2603759765625,14.015921592712402,158.0666046142578,3.624314308166504,0.0,0.09712405502796173,98
1659940486.17997789,290745789,0,22.919984817504883,24.27802085876465,13.985540390014648,158.4558563232422,3.6332359313964844,0.0,0.0971028208732605,98
1659940486.27975774,290845569,0,22.92257308959961,24.296100616455078,14.13775634765625,158.84774780273438,3.642219066619873,0.0,0.09715308248996735,98
1659940486.38002682,290945838,0,22.92190170288086,24.31206512451172,14.309000968933105,159.24595642089844,3.6513469219207764,0.0,0.09715308248996735,98
1659940486.47975874,291045570,0,22.91088104248047,24.316041946411133,14.463364601135254,159.64703369140625,3.660536050796509,0.0,0.09715308248996735,98
1659940486.57993174,291145743,0,22.820419311523438,24.236738204956055,14.542542457580566,160.0516815185547,3.6697702407836914,0.0,0.09739141166210175,97
1659940486.67984176,291245653,0,22.813264846801758,24.25592041015625,14.79306697845459,160.46217346191406,3.6791350841522217,0.0,0.09752238541841507,97
1659940486.77994776,291345759,0,22.84006690979004,24.32442855834961,15.247159004211426,160.88632202148438,3.6888225078582764,0.0,0.09735332429409027,97
1659940486.87974381,291445555,0,22.814861297607422,24.33869743347168,15.686317443847656,161.32119750976562,3.698744058609009,0.0,0.09714427590370178,97
1659940486.97989273,291545704,0,22.790809631347656,24.302574157714844,15.567551612854004,161.7543182373047,3.7086150646209717,0.0,0.09711003303527832,97
1659940487.07977796,291645589,0,22.728424072265625,24.25666618347168,15.711174964904785,162.19021606445312,3.718522310256958,0.0,0.09727103263139725,97
1659940487.17991495,291745726,0,22.70360565185547,24.285329818725586,16.257131576538086,162.64234924316406,3.7287871837615967,0.0,0.09729412943124771,97
1659940487.27980375,291845615,0,22.720279693603516,24.335601806640625,16.634912490844727,163.1039276123047,3.739274263381958,0.0,0.09710431843996048,97
1659940487.37988377,291945695,0,22.706863403320312,24.33226203918457,16.765338897705078,163.57025146484375,3.7498629093170166,0.0,0.09694996476173401,97
1659940487.47979093,292045602,0,22.62852668762207,24.27358627319336,16.94913101196289,164.04066467285156,3.760507583618164,0.0,0.09705868363380432,97
1659940487.57992887,292145740,0,22.612279891967773,24.299907684326172,17.39016342163086,164.52442932128906,3.771446466445923,0.0,0.09704495966434479,97
1659940487.67980886,292245620,0,22.61774253845215,24.318553924560547,17.542383193969727,165.01116943359375,3.7824556827545166,0.0,0.09695445746183395,97
