timestamp,TimeUS,C1,C2,C3,C4,C5,C6,C7,C8,C9,C10,C11,C12,C13,C14
1659941426.58595896,101161133,1100,1100,1100,1100,0,0,0,0,0,0,0,0,0,0
1659941426.68532085,101260495,1100,1100,1100,1100,0,0,0,0,0,0,0,0,0,0
1659941426.78530097,101360475,1100,1100,1100,1100,0,0,0,0,0,0,0,0,0,0
1659941426.88533783,101460512,1100,1100,1100,1100,0,0,0,0,0,0,0,0,0,0
1659941426.98536301,101560537,1100,1100,1100,1100,0,0,0,0,0,0,0,0,0,0
1659941427.08535695,101660531,1100,1100,1100,1100,0,0,0,0,0,0,0,0,0,0
1659941427.18541694,101760591,1100,1100,1100,1100,0,0,0,0,0,0,0,0,0,0
1659941427.28535700,101860531,1100,1100,1100,1100,0,0,0,0,0,0,0,0,0,0
1659941427.38539386,101960568,1100,1100,1100,1100,0,0,0,0,0,0,0,0,0,0
1659941427.48546290,102060637,1100,1100,1100,1100,0,0,0,0,0,0,0,0,0,0
1659941427.58540797,102160582,1100,1100,1100,1100,0,0,0,0,0,0,0,0,0,0
1659941427.68534994,102260524,1100,1100,1100,1100,0,0,0,0,0,0,0,0,0,0
1659941427.78536701,102360541,1100,1100,1100,1100,0,0,0,0,0,0,0,0,0,0
1659941427.88542581,102460600,1100,1100,1100,1100,0,0,0,0,0,0,0,0,0,0
1659941427.98539495,102560569,1100,1100,1100,1100,0,0,0,0,0,0,0,0,0,0
1659941428.08540797,102660582,1100,1100,1100,1100,0,0,0,0,0,0,0,0,0,0
1659941428.18536401,102760538,1100,1100,1100,1100,0,0,0,0,0,0,0,0,0,0
1659941428.28534579,102860520,1100,1100,1100,1100,0,0,0,0,0,0,0,0,0,0
1659941428.38542795,102960602,1100,1100,1100,1100,0,0,0,0,0,0,0,0,0,0
1659941428.48537397,103060548,1100,1100,1100,1100,0,0,0,0,0,0,0,0,0,0
1659941428.58536100,103160535,1100,1100,1100,1100,0,0,0,0,0,0,0,0,0,0
1659941428.68532586,103260500,1125,1125,1125,1125,0,0,0,0,0,0,0,0,0,0
1659941428.78534484,103360519,1151,1151,1151,1151,0,0,0,0,0,0,0,0,0,0
1659941428.88531899,103460493,1178,1178,1178,1178,0,0,0,0,0,0,0,0,0,0
1659941428.98535800,103560532,1184,1184,1184,1184,0,0,0,0,0,0,0,0,0,0
1659941429.08539391,103660568,1184,1184,1184,1184,0,0,0,0,0,0,0,0,0,0
1659941429.18537688,103760551,1184,1184,1184,1184,0,0,0,0,0,0,0,0,0,0
1659941429.28555799,103860732,1184,1184,1184,1184,0,0,0,0,0,0,0,0,0,0
1659941429.38538694,103960561,1184,1184,1184,1184,0,0,0,0,0,0,0,0,0,0
1659941429.48534894,104060523,1184,1184,1184,1184,0,0,0,0,0,0,0,0,0,0
1659941429.58539486,104160569,1184,1184,1184,1184,0,0,0,0,0,0,0,0,0,0
1659941429.68539786,104260572,1184,1184,1184,1184,0,0,0,0,0,0,0,0,0,0
1659941429.78533983,104360514,1184,1184,1184,1184,0,0,0,0,0,0,0,0,0,0
1659941429.88534999,104460524,1184,1184,1184,1184,0,0,0,0,0,0,0,0,0,0
1659941429.98531985,104560494,1184,1184,1184,1184,0,0,0,0,0,0,0,0,0,0
1659941430.08534098,104660515,1184,1184,1184,1184,0,0,0,0,0,0,0,0,0,0
1659941430.18540192,104760576,1184,1184,1184,1184,0,0,0,0,0,0,0,0,0,0
1659941430.28533196,104860506,1184,1184,1184,1184,0,0,0,0,0,0,0,0,0,0
1659941430.38534284,104960517,1184,1184,1184,1184,0,0,0,0,0,0,0,0,0,0
1659941430.48542285,105060597,1184,1184,1184,1184,0,0,0,0,0,0,0,0,0,0
1659941430.58538294,105160557,1184,1184,1184,1184,0,0,0,0,0,0,0,0,0,0
1659941430.68538690,105260561,1184,1184,1184,1184,0,0,0,0,0,0,0,0,0,0
1659941430.78531289,105360487,1184,1184,1184,1184,0,0,0,0,0,0,0,0,0,0
1659941430.88543582,105460610,1184,1184,1184,1184,0,0,0,0,0,0,0,0,0,0
1659941430.98537087,105560545,1184,1184,1184,1184,0,0,0,0,0,0,0,0,0,0
1659941431.08550692,105660681,1184,1184,1184,1184,0,0,0,0,0,0,0,0,0,0
1659941431.18542194,105760596,1184,1184,1184,1184,0,0,0,0,0,0,0,0,0,0
1659941431.28535700,105860531,1184,1184,1184,1184,0,0,0,0,0,0,0,0,0,0
1659941431.38542199,105960596,1184,1184,1184,1184,0,0,0,0,0,0,0,0,0,0
1659941431.48532200,106060496,1184,1184,1184,1184,0,0,0,0,0,0,0,0,0,0
1659941431.58538294,106160557,1184,1184,1184,1184,0,0,0,0,0,0,0,0,0,0
1659941431.68534684,106260521,1184,1184,1184,1184,0,0,0,0,0,0,0,0,0,0
1659941431.78533196,106360506,1184,1184,1184,1184,0,0,0,0,0,0,0,0,0,0
1659941431.88530397,106460478,1184,1184,1184,1184,0,0,0,0,0,0,0,0,0,0
1659941431.98545098,106560625,1184,1184,1184,1184,0,0,0,0,0,0,0,0,0,0
1659941432.08543992,106660614,1184,1184,1184,1184,0,0,0,0,0,0,0,0,0,0
1659941432.18537092,106760545,1184,1184,1184,1184,0,0,0,0,0,0,0,0,0,0
1659941432.28532982,106860504,1184,1184,1184,1184,0,0,0,0,0,0,0,0,0,0
1659941432.38538694,106960561,1184,1184,1184,1184,0,0,0,0,0,0,0,0,0,0
1659941432.48540497,107060579,1184,1184,1184,1184,0,0,0,0,0,0,0,0,0,0
1659941432.58536482,107160539,1184,1184,1184,1184,0,0,0,0,0,0,0,0,0,0
1659941432.68538690,107260561,1184,1184,1184,1184,0,0,0,0,0,0,0,0,0,0
1659941432.78543782,107360612,1184,1184,1184,1184,0,0,0,0,0,0,0,0,0,0
1659941432.88544488,107460619,1184,1184,1184,1184,0,0,0,0,0,0,0,0,0,0
1659941432.98535180,107560526,1184,1184,1184,1184,0,0,0,0,0,0,0,0,0,0
1659941433.08538079,107660555,1184,1184,1184,1184,0,0,0,0,0,0,0,0,0,0
1659941433.18541598,107760590,1184,1184,1184,1184,0,0,0,0,0,0,0,0,0,0
1659941433.28540897,107860583,1184,1184,1184,1184,0,0,0,0,0,0,0,0,0,0
1659941433.38538980,107960564,1184,1184,1184,1184,0,0,0,0,0,0,0,0,0,0
1659941433.48547983,108060654,1184,1184,1184,1184,0,0,0,0,0,0,0,0,0,0
1659941433.58545780,108160632,1184,1184,1184,1184,0,0,0,0,0,0,0,0,0,0
1659941433.68548203,108260656,1184,1184,1184,1184,0,0,0,0,0,0,0,0,0,0
1659941433.78554702,108360721,1184,1184,1184,1184,0,0,0,0,0,0,0,0,0,0
1659941433.88543701,108460611,1184,1184,1184,1184,0,0,0,0,0,0,0,0,0,0
1659941433.98545980,108560634,1184,1184,1184,1184,0,0,0,0,0,0,0,0,0,0
1659941434.08550787,108660682,1194,1194,1194,1194,0,0,0,0,0,0,0,0,0,0
1659941434.18539882,108760573,1220,1220,1220,1220,0,0,0,0,0,0,0,0,0,0
1659941434.28545785,108860632,1306,1246,1320,1226,0,0,0,0,0,0,0,0,0,0
1659941434.38546181,108960636,1363,1267,1390,1226,0,0,0,0,0,0,0,0,0,0
1659941434.48547888,109060653,1374,1272,1406,1226,0,0,0,0,0,0,0,0,0,0
1659941434.58542585,109160600,1368,1273,1403,1226,0,0,0,0,0,0,0,0,0,0
1659941434.68547392,109260648,1372,1276,1411,1230,0,0,0,0,0,0,0,0,0,0
1659941434.78544092,109360615,1391,1316,1432,1276,0,0,0,0,0,0,0,0,0,0
1659941434.88543391,109460608,1404,1359,1442,1333,0,0,0,0,0,0,0,0,0,0
1659941434.98541689,109560591,1411,1410,1448,1389,0,0,0,0,0,0,0,0,0,0
1659941435.08545589,109660630,1441,1436,1444,1451,0,0,0,0,0,0,0,0,0,0
1659941435.18544698,109760621,1480,1458,1464,1463,0,0,0,0,0,0,0,0,0,0
1659941435.28547883,109860653,1488,1459,1460,1474,0,0,0,0,0,0,0,0,0,0
1659941435.38547301,109960647,1466,1454,1474,1464,0,0,0,0,0,0,0,0,0,0
1659941435.48548579,110060660,1436,1457,1469,1482,0,0,0,0,0,0,0,0,0,0
1659941435.58564401,110160818,1434,1448,1478,1480,0,0,0,0,0,0,0,0,0,0
1659941435.68551993,110260694,1435,1428,1480,1488,0,0,0,0,0,0,0,0,0,0
1659941435.78539395,110360568,1428,1424,1489,1484,0,0,0,0,0,0,0,0,0,0
1659941435.88543892,110460613,1425,1422,1480,1485,0,0,0,0,0,0,0,0,0,0
1659941435.98543382,110560608,1415,1439,1469,1484,0,0,0,0,0,0,0,0,0,0
1659941436.08540797,110660582,1439,1424,1468,1473,0,0,0,0,0,0,0,0,0,0
1659941436.18538880,110760563,1428,1440,1457,1475,0,0,0,0,0,0,0,0,0,0
1659941436.28543496,110860609,1434,1434,1458,1475,0,0,0,0,0,0,0,0,0,0
1659941436.38542390,110960598,1433,1432,1465,1469,0,0,0,0,0,0,0,0,0,0
1659941436.48543501,111060609,1430,1430,1465,1471,0,0,0,0,0,0,0,0,0,0
1659941436.58543086,111160605,1430,1434,1466,1473,0,0,0,0,0,0,0,0,0,0
1659941436.68549299,111260667,1429,1437,1465,1474,0,0,0,0,0,0,0,0,0,0
1659941436.78592396,111361098,1428,1431,1464,1468,0,0,0,0,0,0,0,0,0,0
1659941436.88546395,111460638,1427,1424,1452,1468,0,0,0,0,0,0,0,0,0,0
1659941436.98549700,111560671,1421,1431,1454,1459,0,0,0,0,0,0,0,0,0,0
1659941437.08551788,111660692,1422,1430,1448,1457,0,0,0,0,0,0,0,0,0,0
1659941437.18548298,111760657,1421,1430,1445,1455,0,0,0,0,0,0,0,0,0,0
1659941437.28538799,111860562,1420,1430,1442,1456,0,0,0,0,0,0,0,0,0,0
1659941437.38542485,111960599,1419,1428,1449,1453,0,0,0,0,0,0,0,0,0,0
1659941437.48542786,112060602,1409,1427,1446,1455,0,0,0,0,0,0,0,0,0,0
1659941437.58542085,112160595,1409,1422,1447,1457,0,0,0,0,0,0,0,0,0,0
1659941437.68551588,112260690,1401,1425,1446,1457,0,0,0,0,0,0,0,0,0,0
1659941437.78543401,112360608,1405,1420,1448,1453,0,0,0,0,0,0,0,0,0,0
1659941437.88542080,112460595,1401,1424,1446,1453,0,0,0,0,0,0,0,0,0,0
1659941437.98538399,112560558,1402,1424,1444,1452,0,0,0,0,0,0,0,0,0,0
1659941438.08541989,112660594,1398,1427,1447,1450,0,0,0,0,0,0,0,0,0,0
1659941438.18541598,112760590,1400,1423,1445,1456,0,0,0,0,0,0,0,0,0,0
1659941438.28551888,112860693,1399,1421,1445,1459,0,0,0,0,0,0,0,0,0,0
1659941438.38547587,112960650,1399,1421,1447,1458,0,0,0,0,0,0,0,0,0,0
1659941438.48541284,113060587,1402,1421,1447,1457,0,0,0,0,0,0,0,0,0,0
1659941438.58551598,113160690,1405,1421,1448,1455,0,0,0,0,0,0,0,0,0,0
1659941438.68542790,113260602,1405,1429,1442,1453,0,0,0,0,0,0,0,0,0,0
1659941438.78548598,113360660,1408,1433,1439,1452,0,0,0,0,0,0,0,0,0,0
1659941438.88541698,113460591,1410,1441,1441,1445,0,0,0,0,0,0,0,0,0,0
1659941438.98541188,113560586,1408,1443,1440,1448,0,0,0,0,0,0,0,0,0,0
1659941439.08543086,113660605,1410,1436,1444,1451,0,0,0,0,0,0,0,0,0,0
1659941439.18541789,113760592,1405,1431,1444,1452,0,0,0,0,0,0,0,0,0,0
1659941439.28537488,113860549,1402,1425,1442,1451,0,0,0,0,0,0,0,0,0,0
1659941439.38541293,113960587,1399,1421,1439,1450,0,0,0,0,0,0,0,0,0,0
1659941439.48537087,114060545,1399,1414,1436,1450,0,0,0,0,0,0,0,0,0,0
1659941439.58542180,114160596,1395,1413,1436,1446,0,0,0,0,0,0,0,0,0,0
1659941439.68541193,114260586,1395,1408,1435,1446,0,0,0,0,0,0,0,0,0,0
1659941439.78552485,114360699,1389,1407,1438,1444,0,0,0,0,0,0,0,0,0,0
1659941439.88547087,114460645,1391,1403,1440,1439,0,0,0,0,0,0,0,0,0,0
1659941439.98542690,114560601,1391,1408,1429,1437,0,0,0,0,0,0,0,0,0,0
1659941440.08555698,114660731,1402,1419,1420,1424,0,0,0,0,0,0,0,0,0,0
1659941440.18544793,114760622,1402,1430,1412,1417,0,0,0,0,0,0,0,0,0,0
1659941440.28546882,114860643,1400,1425,1416,1422,0,0,0,0,0,0,0,0,0,0
1659941440.38539982,114960574,1397,1418,1418,1429,0,0,0,0,0,0,0,0,0,0
1659941440.48542094,115060595,1390,1407,1422,1437,0,0,0,0,0,0,0,0,0,0
1659941440.58544493,115160619,1383,1397,1429,1440,0,0,0,0,0,0,0,0,0,0
1659941440.68542886,115260603,1382,1391,1431,1443,0,0,0,0,0,0,0,0,0,0
1659941440.78537488,115360549,1381,1391,1430,1451,0,0,0,0,0,0,0,0,0,0
1659941440.88538098,115460555,1383,1389,1437,1446,0,0,0,0,0,0,0,0,0,0
1659941440.98545790,115560632,1384,1395,1431,1444,0,0,0,0,0,0,0,0,0,0
1659941441.08544779,115660622,1386,1407,1426,1435,0,0,0,0,0,0,0,0,0,0
1659941441.18537498,115760549,1393,1406,1423,1432,0,0,0,0,0,0,0,0,0,0
1659941441.28542089,115860595,1389,1405,1419,1437,0,0,0,0,0,0,0,0,0,0
1659941441.38543081,115960605,1389,1399,1425,1434,0,0,0,0,0,0,0,0,0,0
1659941441.48550391,116060678,1387,1398,1420,1436,0,0,0,0,0,0,0,0,0,0
1659941441.58543301,116160607,1384,1402,1425,1430,0,0,0,0,0,0,0,0,0,0
1659941441.68543196,116260606,1384,1398,1423,1434,0,0,0,0,0,0,0,0,0,0
1659941441.78551292,116360687,1382,1390,1424,1439,0,0,0,0,0,0,0,0,0,0
1659941441.88567495,116460849,1385,1383,1424,1439,0,0,0,0,0,0,0,0,0,0
1659941441.98539782,116560572,1383,1390,1420,1436,0,0,0,0,0,0,0,0,0,0
1659941442.08538890,116660563,1385,1398,1419,1425,0,0,0,0,0,0,0,0,0,0
1659941442.18544888,116760623,1384,1408,1412,1421,0,0,0,0,0,0,0,0,0,0
1659941442.28541183,116860586,1385,1404,1411,1422,0,0,0,0,0,0,0,0,0,0
1659941442.38536882,116960543,1388,1393,1413,1426,0,0,0,0,0,0,0,0,0,0
1659941442.48543882,117060613,1381,1390,1417,1428,0,0,0,0,0,0,0,0,0,0
1659941442.58544397,117160618,1379,1387,1414,1430,0,0,0,0,0,0,0,0,0,0
1659941442.68535900,117260533,1377,1393,1414,1426,0,0,0,0,0,0,0,0,0,0
1659941442.78548193,117360656,1383,1396,1413,1421,0,0,0,0,0,0,0,0,0,0
1659941442.88540697,117460581,1384,1399,1406,1420,0,0,0,0,0,0,0,0,0,0
1659941442.98543787,117560612,1383,1400,1406,1420,0,0,0,0,0,0,0,0,0,0
1659941443.08546686,117660641,1384,1393,1407,1424,0,0,0,0,0,0,0,0,0,0
1659941443.18541694,117760591,1383,1380,1416,1423,0,0,0,0,0,0,0,0,0,0
1659941443.28553081,117860705,1375,1377,1409,1431,0,0,0,0,0,0,0,0,0,0
1659941443.38553095,117960705,1368,1372,1410,1415,0,0,0,0,0,0,0,0,0,0
1659941443.48551202,118060686,1381,1381,1406,1422,0,0,0,0,0,0,0,0,0,0
1659941443.58542299,118160597,1390,1395,1408,1430,0,0,0,0,0,0,0,0,0,0
1659941443.68555284,118260727,1386,1407,1412,1433,0,0,0,0,0,0,0,0,0,0
1659941443.78542995,118360604,1390,1407,1422,1429,0,0,0,0,0,0,0,0,0,0
1659941443.88543200,118460606,1391,1407,1419,1440,0,0,0,0,0,0,0,0,0,0
1659941443.98550487,118560679,1392,1407,1421,1445,0,0,0,0,0,0,0,0,0,0
1659941444.08544993,118660624,1389,1410,1422,1447,0,0,0,0,0,0,0,0,0,0
1659941444.18544698,118760621,1395,1408,1427,1445,0,0,0,0,0,0,0,0,0,0
1659941444.28541493,118860589,1394,1414,1420,1452,0,0,0,0,0,0,0,0,0,0
1659941444.38547993,118960654,1404,1408,1429,1443,0,0,0,0,0,0,0,0,0,0
1659941444.48544502,119060619,1398,1415,1424,1450,0,0,0,0,0,0,0,0,0,0
1659941444.58551693,119160691,1393,1407,1432,1455,0,0,0,0,0,0,0,0,0,0
1659941444.68551087,119260685,1380,1385,1447,1470,0,0,0,0,0,0,0,0,0,0
1659941444.78548288,119360657,1369,1359,1461,1487,0,0,0,0,0,0,0,0,0,0
1659941444.88547087,119460645,1355,1350,1474,1498,0,0,0,0,0,0,0,0,0,0
1659941444.98549986,119560674,1347,1352,1472,1509,0,0,0,0,0,0,0,0,0,0
1659941445.08548284,119660657,1341,1358,1472,1511,0,0,0,0,0,0,0,0,0,0
1659941445.18543196,119760606,1364,1338,1483,1505,0,0,0,0,0,0,0,0,0,0
1659941445.28556490,119860739,1338,1365,1480,1515,0,0,0,0,0,0,0,0,0,0
1659941445.38546896,119960643,1359,1343,1485,1518,0,0,0,0,0,0,0,0,0,0
1659941445.48546195,120060636,1331,1361,1486,1526,0,0,0,0,0,0,0,0,0,0
1659941445.58544302,120160617,1341,1340,1492,1530,0,0,0,0,0,0,0,0,0,0
1659941445.68547797,120260652,1346,1344,1494,1528,0,0,0,0,0,0,0,0,0,0
1659941445.78539395,120360568,1364,1353,1486,1523,0,0,0,0,0,0,0,0,0,0
1659941445.88540888,120460583,1360,1384,1484,1511,0,0,0,0,0,0,0,0,0,0
1659941445.98543882,120560613,1363,1396,1472,1508,0,0,0,0,0,0,0,0,0,0
1659941446.08557796,120660752,1369,1407,1469,1496,0,0,0,0,0,0,0,0,0,0
1659941446.18548489,120760659,1393,1400,1460,1493,0,0,0,0,0,0,0,0,0,0
1659941446.28549290,120860667,1376,1457,1441,1470,0,0,0,0,0,0,0,0,0,0
1659941446.38558602,120960760,1435,1457,1415,1439,0,0,0,0,0,0,0,0,0,0
1659941446.48548388,121060658,1446,1465,1394,1419,0,0,0,0,0,0,0,0,0,0
1659941446.58548784,121160662,1443,1461,1386,1420,0,0,0,0,0,0,0,0,0,0
1659941446.68542480,121260599,1427,1455,1398,1428,0,0,0,0,0,0,0,0,0,0
1659941446.78546381,121360638,1410,1448,1399,1443,0,0,0,0,0,0,0,0,0,0
1659941446.88542986,121460604,1413,1434,1404,1440,0,0,0,0,0,0,0,0,0,0
1659941446.98538494,121560559,1404,1449,1405,1427,0,0,0,0,0,0,0,0,0,0
1659941447.08542991,121660604,1423,1444,1395,1417,0,0,0,0,0,0,0,0,0,0
1659941447.18543696,121760611,1418,1452,1385,1418,0,0,0,0,0,0,0,0,0,0
1659941447.28549290,121860667,1417,1447,1401,1407,0,0,0,0,0,0,0,0,0,0
1659941447.38544583,121960620,1387,1449,1396,1434,0,0,0,0,0,0,0,0,0,0
1659941447.48541689,122060591,1375,1433,1406,1448,0,0,0,0,0,0,0,0,0,0
1659941447.58548594,122160660,1375,1415,1418,1454,0,0,0,0,0,0,0,0,0,0
1659941447.68546081,122260635,1373,1411,1412,1465,0,0,0,0,0,0,0,0,0,0
1659941447.78549099,122360665,1370,1417,1417,1459,0,0,0,0,0,0,0,0,0,0
1659941447.88546896,122460643,1357,1431,1418,1454,0,0,0,0,0,0,0,0,0,0
1659941447.98544598,122560620,1362,1431,1420,1447,0,0,0,0,0,0,0,0,0,0
1659941448.08555102,122660725,1366,1432,1417,1445,0,0,0,0,0,0,0,0,0,0
1659941448.18562198,122760796,1365,1436,1404,1454,0,0,0,0,0,0,0,0,0,0
1659941448.28550696,122860681,1381,1425,1413,1441,0,0,0,0,0,0,0,0,0,0
1659941448.38547802,122960652,1375,1427,1412,1438,0,0,0,0,0,0,0,0,0,0
1659941448.48543501,123060609,1377,1424,1408,1442,0,0,0,0,0,0,0,0,0,0
1659941448.58552194,123160696,1363,1433,1405,1445,0,0,0,0,0,0,0,0,0,0
1659941448.68543601,123260610,1368,1426,1408,1441,0,0,0,0,0,0,0,0,0,0
1659941448.78541493,123360589,1367,1423,1414,1435,0,0,0,0,0,0,0,0,0,0
1659941448.88544488,123460619,1364,1420,1410,1435,0,0,0,0,0,0,0,0,0,0
1659941448.98538685,123560561,1364,1417,1416,1428,0,0,0,0,0,0,0,0,0,0
1659941449.08552384,123660698,1361,1421,1400,1441,0,0,0,0,0,0,0,0,0,0
1659941449.18548083,123760655,1371,1418,1403,1434,0,0,0,0,0,0,0,0,0,0
1659941449.28551483,123860689,1382,1412,1401,1432,0,0,0,0,0,0,0,0,0,0
1659941449.38549185,123960666,1380,1422,1395,1433,0,0,0,0,0,0,0,0,0,0
1659941449.48548698,124060661,1370,1434,1397,1429,0,0,0,0,0,0,0,0,0,0
1659941449.58557081,124160745,1375,1432,1394,1429,0,0,0,0,0,0,0,0,0,0
1659941449.68548799,124260662,1377,1431,1397,1424,0,0,0,0,0,0,0,0,0,0
1659941449.78541088,124360585,1385,1429,1398,1423,0,0,0,0,0,0,0,0,0,0
1659941449.88543892,124460613,1386,1432,1394,1424,0,0,0,0,0,0,0,0,0,0
1659941449.98548889,124560663,1379,1442,1392,1426,0,0,0,0,0,0,0,0,0,0
1659941450.08543301,124660607,1397,1434,1389,1425,0,0,0,0,0,0,0,0,0,0
1659941450.18542194,124760596,1412,1435,1393,1412,0,0,0,0,0,0,0,0,0,0
1659941450.28549290,124860667,1413,1451,1379,1408,0,0,0,0,0,0,0,0,0,0
1659941450.38542581,124960600,1421,1453,1391,1390,0,0,0,0,0,0,0,0,0,0
1659941450.48539495,125060569,1429,1459,1364,1408,0,0,0,0,0,0,0,0,0,0
1659941450.58545899,125160633,1425,1470,1363,1408,0,0,0,0,0,0,0,0,0,0
1659941450.68544984,125260624,1442,1459,1375,1398,0,0,0,0,0,0,0,0,0,0
1659941450.78545880,125360633,1438,1469,1380,1393,0,0,0,0,0,0,0,0,0,0
1659941450.88553286,125460707,1449,1465,1391,1381,0,0,0,0,0,0,0,0,0,0
1659941450.98550081,125560675,1445,1469,1381,1394,0,0,0,0,0,0,0,0,0,0
1659941451.08555579,125660730,1434,1462,1388,1410,0,0,0,0,0,0,0,0,0,0
1659941451.18557286,125760747,1426,1445,1396,1427,0,0,0,0,0,0,0,0,0,0
1659941451.28547597,125860650,1406,1440,1411,1430,0,0,0,0,0,0,0,0,0,0
1659941451.38538980,125960564,1404,1435,1414,1432,0,0,0,0,0,0,0,0,0,0
1659941451.48542786,126060602,1402,1433,1416,1435,0,0,0,0,0,0,0,0,0,0
1659941451.58544302,126160617,1408,1431,1417,1431,0,0,0,0,0,0,0,0,0,0
1659941451.68538880,126260563,1404,1438,1411,1429,0,0,0,0,0,0,0,0,0,0
1659941451.78546286,126360637,1411,1435,1412,1421,0,0,0,0,0,0,0,0,0,0
1659941451.88542581,126460600,1409,1439,1407,1419,0,0,0,0,0,0,0,0,0,0
1659941451.98544002,126560614,1409,1439,1406,1416,0,0,0,0,0,0,0,0,0,0
1659941452.08547997,126660654,1402,1445,1405,1416,0,0,0,0,0,0,0,0,0,0
1659941452.18543196,126760606,1406,1440,1407,1415,0,0,0,0,0,0,0,0,0,0
1659941452.28543782,126860612,1396,1445,1398,1424,0,0,0,0,0,0,0,0,0,0
1659941452.38559294,126960767,1404,1437,1405,1418,0,0,0,0,0,0,0,0,0,0
1659941452.48551702,127060691,1404,1431,1403,1426,0,0,0,0,0,0,0,0,0,0
1659941452.58549380,127160668,1383,1425,1414,1441,0,0,0,0,0,0,0,0,0,0
1659941452.68556881,127260743,1363,1416,1424,1460,0,0,0,0,0,0,0,0,0,0
1659941452.78548002,127360654,1360,1396,1441,1463,0,0,0,0,0,0,0,0,0,0
1659941452.88548088,127460655,1365,1377,1438,1478,0,0,0,0,0,0,0,0,0,0
1659941452.98543191,127560606,1357,1376,1437,1487,0,0,0,0,0,0,0,0,0,0
1659941453.08546591,127660640,1355,1372,1443,1485,0,0,0,0,0,0,0,0,0,0
1659941453.18543601,127760610,1351,1373,1447,1481,0,0,0,0,0,0,0,0,0,0
1659941453.28549886,127860673,1353,1373,1449,1480,0,0,0,0,0,0,0,0,0,0
1659941453.38542080,127960595,1358,1367,1445,1484,0,0,0,0,0,0,0,0,0,0
1659941453.48547196,128060646,1347,1376,1443,1486,0,0,0,0,0,0,0,0,0,0
1659941453.58549786,128160672,1342,1374,1445,1487,0,0,0,0,0,0,0,0,0,0
1659941453.68538284,128260557,1342,1381,1444,1485,0,0,0,0,0,0,0,0,0,0
1659941453.78544188,128360616,1373,1392,1427,1470,0,0,0,0,0,0,0,0,0,0
1659941453.88544083,128460615,1379,1426,1411,1453,0,0,0,0,0,0,0,0,0,0
1659941453.98545384,128560628,1399,1430,1410,1435,0,0,0,0,0,0,0,0,0,0
1659941454.08553696,128660711,1391,1440,1402,1436,0,0,0,0,0,0,0,0,0,0
1659941454.18543792,128760612,1402,1422,1413,1431,0,0,0,0,0,0,0,0,0,0
1659941454.28554082,128860715,1391,1418,1406,1446,0,0,0,0,0,0,0,0,0,0
1659941454.38558388,128960758,1378,1424,1412,1450,0,0,0,0,0,0,0,0,0,0
1659941454.48562193,129060796,1387,1413,1417,1447,0,0,0,0,0,0,0,0,0,0
1659941454.58545399,129160628,1380,1418,1414,1452,0,0,0,0,0,0,0,0,0,0
1659941454.68545890,129260633,1381,1417,1411,1456,0,0,0,0,0,0,0,0,0,0
1659941454.78544283,129360617,1384,1414,1415,1452,0,0,0,0,0,0,0,0,0,0
1659941454.88540697,129460581,1387,1414,1417,1450,0,0,0,0,0,0,0,0,0,0
1659941454.98543596,129560610,1375,1424,1409,1455,0,0,0,0,0,0,0,0,0,0
1659941455.08547497,129660649,1387,1415,1411,1453,0,0,0,0,0,0,0,0,0,0
1659941455.18539381,129760568,1385,1416,1415,1450,0,0,0,0,0,0,0,0,0,0
1659941455.28541899,129860593,1381,1420,1414,1453,0,0,0,0,0,0,0,0,0,0
1659941455.38553190,129960706,1381,1419,1420,1448,0,0,0,0,0,0,0,0,0,0
1659941455.48547101,130060645,1385,1414,1416,1452,0,0,0,0,0,0,0,0,0,0
1659941455.58549595,130160670,1374,1421,1412,1455,0,0,0,0,0,0,0,0,0,0
1659941455.68546700,130260641,1379,1418,1420,1450,0,0,0,0,0,0,0,0,0,0
1659941455.78551483,130360689,1386,1410,1413,1456,0,0,0,0,0,0,0,0,0,0
1659941455.88547087,130460645,1383,1414,1420,1449,0,0,0,0,0,0,0,0,0,0
1659941455.98547292,130560647,1373,1424,1416,1451,0,0,0,0,0,0,0,0,0,0
1659941456.08553982,130660714,1368,1427,1414,1453,0,0,0,0,0,0,0,0,0,0
1659941456.18546295,130760637,1382,1414,1418,1452,0,0,0,0,0,0,0,0,0,0
1659941456.28548288,130860657,1385,1410,1413,1458,0,0,0,0,0,0,0,0,0,0
1659941456.38542295,130960597,1385,1408,1414,1455,0,0,0,0,0,0,0,0,0,0
1659941456.48542094,131060595,1379,1415,1414,1454,0,0,0,0,0,0,0,0,0,0
1659941456.58557582,131160750,1371,1422,1412,1456,0,0,0,0,0,0,0,0,0,0
1659941456.68547082,131260645,1374,1419,1420,1449,0,0,0,0,0,0,0,0,0,0
1659941456.78540182,131360576,1373,1418,1417,1450,0,0,0,0,0,0,0,0,0,0
1659941456.88546991,131460644,1371,1417,1410,1455,0,0,0,0,0,0,0,0,0,0
1659941456.98598886,131561163,1368,1420,1414,1451,0,0,0,0,0,0,0,0,0,0
1659941457.08554292,131660717,1368,1419,1411,1452,0,0,0,0,0,0,0,0,0,0
1659941457.18555689,131760731,1366,1418,1407,1455,0,0,0,0,0,0,0,0,0,0
1659941457.28550196,131860676,1366,1417,1415,1448,0,0,0,0,0,0,0,0,0,0
1659941457.38552499,131960699,1370,1413,1416,1445,0,0,0,0,0,0,0,0,0,0
1659941457.48547387,132060648,1365,1416,1409,1448,0,0,0,0,0,0,0,0,0,0
1659941457.58550286,132160677,1360,1422,1405,1449,0,0,0,0,0,0,0,0,0,0
1659941457.68550086,132260675,1369,1416,1410,1443,0,0,0,0,0,0,0,0,0,0
1659941457.78545880,132360633,1376,1414,1407,1442,0,0,0,0,0,0,0,0,0,0
1659941457.88543391,132460608,1380,1414,1415,1435,0,0,0,0,0,0,0,0,0,0
1659941457.98543692,132560611,1370,1421,1410,1437,0,0,0,0,0,0,0,0,0,0
1659941458.08550382,132660678,1368,1422,1407,1443,0,0,0,0,0,0,0,0,0,0
1659941458.18541002,132760584,1374,1415,1409,1444,0,0,0,0,0,0,0,0,0,0
1659941458.28540492,132860579,1366,1420,1411,1445,0,0,0,0,0,0,0,0,0,0
1659941458.38543391,132960608,1364,1422,1411,1448,0,0,0,0,0,0,0,0,0,0
1659941458.48543000,133060604,1369,1419,1402,1453,0,0,0,0,0,0,0,0,0,0
1659941458.58546495,133160639,1375,1413,1406,1448,0,0,0,0,0,0,0,0,0,0
1659941458.68557882,133260753,1376,1416,1415,1441,0,0,0,0,0,0,0,0,0,0
1659941458.78549290,133360667,1376,1418,1406,1449,0,0,0,0,0,0,0,0,0,0
1659941458.88553596,133460710,1374,1420,1405,1451,0,0,0,0,0,0,0,0,0,0
1659941458.98563099,133560805,1368,1423,1413,1447,0,0,0,0,0,0,0,0,0,0
1659941459.08551884,133660693,1370,1419,1415,1449,0,0,0,0,0,0,0,0,0,0
1659941459.18543696,133760611,1372,1415,1410,1456,0,0,0,0,0,0,0,0,0,0
1659941459.28547382,133860648,1367,1419,1420,1449,0,0,0,0,0,0,0,0,0,0
1659941459.38546991,133960644,1372,1416,1418,1450,0,0,0,0,0,0,0,0,0,0
1659941459.48541093,134060585,1385,1407,1404,1460,0,0,0,0,0,0,0,0,0,0
1659941459.58546090,134160635,1389,1407,1404,1458,0,0,0,0,0,0,0,0,0,0
1659941459.68542790,134260602,1386,1410,1409,1454,0,0,0,0,0,0,0,0,0,0
1659941459.78544283,134360617,1383,1411,1399,1462,0,0,0,0,0,0,0,0,0,0
1659941459.88546300,134460637,1382,1411,1400,1460,0,0,0,0,0,0,0,0,0,0
1659941459.98545694,134560631,1378,1415,1410,1451,0,0,0,0,0,0,0,0,0,0
1659941460.08544779,134660622,1382,1414,1416,1447,0,0,0,0,0,0,0,0,0,0
1659941460.18549895,134760673,1388,1411,1416,1448,0,0,0,0,0,0,0,0,0,0
1659941460.28549790,134860672,1387,1413,1412,1455,0,0,0,0,0,0,0,0,0,0
1659941460.38548398,134960658,1381,1418,1404,1462,0,0,0,0,0,0,0,0,0,0
1659941460.48551297,135060687,1381,1418,1406,1460,0,0,0,0,0,0,0,0,0,0
1659941460.58556581,135160740,1373,1428,1416,1451,0,0,0,0,0,0,0,0,0,0
1659941460.68547988,135260654,1364,1435,1411,1454,0,0,0,0,0,0,0,0,0,0
1659941460.78560996,135360784,1373,1427,1417,1449,0,0,0,0,0,0,0,0,0,0
1659941460.88545489,135460629,1379,1422,1408,1457,0,0,0,0,0,0,0,0,0,0
1659941460.98542595,135560600,1384,1418,1406,1460,0,0,0,0,0,0,0,0,0,0
1659941461.08544493,135660619,1384,1418,1411,1454,0,0,0,0,0,0,0,0,0,0
1659941461.18539882,135760573,1380,1423,1412,1453,0,0,0,0,0,0,0,0,0,0
1659941461.28543687,135860611,1372,1430,1411,1452,0,0,0,0,0,0,0,0,0,0
1659941461.38544989,135960624,1367,1433,1414,1448,0,0,0,0,0,0,0,0,0,0
1659941461.48550200,136060676,1363,1434,1411,1448,0,0,0,0,0,0,0,0,0,0
1659941461.58545589,136160630,1374,1426,1400,1458,0,0,0,0,0,0,0,0,0,0
1659941461.68553782,136260712,1377,1425,1405,1452,0,0,0,0,0,0,0,0,0,0
1659941461.78549695,136360671,1376,1426,1408,1450,0,0,0,0,0,0,0,0,0,0
1659941461.88551784,136460692,1381,1422,1407,1450,0,0,0,0,0,0,0,0,0,0
1659941461.98544693,136560621,1385,1419,1403,1452,0,0,0,0,0,0,0,0,0,0
1659941462.08556890,136660743,1388,1416,1406,1449,0,0,0,0,0,0,0,0,0,0
1659941462.18559599,136760770,1379,1424,1411,1444,0,0,0,0,0,0,0,0,0,0
1659941462.28542900,136860603,1373,1428,1407,1447,0,0,0,0,0,0,0,0,0,0
1659941462.38545585,136960630,1369,1430,1396,1454,0,0,0,0,0,0,0,0,0,0
1659941462.48543501,137060609,1375,1422,1394,1453,0,0,0,0,0,0,0,0,0,0
1659941462.58549285,137160667,1373,1421,1382,1458,0,0,0,0,0,0,0,0,0,0
1659941462.68541002,137260584,1378,1416,1393,1446,0,0,0,0,0,0,0,0,0,0
1659941462.78544998,137360624,1376,1419,1403,1435,0,0,0,0,0,0,0,0,0,0
1659941462.88556194,137460736,1373,1421,1404,1431,0,0,0,0,0,0,0,0,0,0
1659941462.98545599,137560630,1371,1421,1385,1447,0,0,0,0,0,0,0,0,0,0
1659941463.08551192,137660686,1361,1430,1393,1441,0,0,0,0,0,0,0,0,0,0
1659941463.18544984,137760624,1364,1426,1403,1432,0,0,0,0,0,0,0,0,0,0
1659941463.28550792,137860682,1358,1428,1392,1440,0,0,0,0,0,0,0,0,0,0
1659941463.38548684,137960661,1361,1422,1397,1436,0,0,0,0,0,0,0,0,0,0
1659941463.48554683,138060721,1366,1412,1407,1427,0,0,0,0,0,0,0,0,0,0
1659941463.58551979,138160694,1369,1405,1396,1435,0,0,0,0,0,0,0,0,0,0
1659941463.68549180,138260666,1362,1412,1379,1446,0,0,0,0,0,0,0,0,0,0
1659941463.78547883,138360653,1353,1422,1396,1429,0,0,0,0,0,0,0,0,0,0
1659941463.88543797,138460612,1380,1401,1385,1437,0,0,0,0,0,0,0,0,0,0
1659941463.98550797,138560682,1374,1406,1403,1420,0,0,0,0,0,0,0,0,0,0
1659941464.08545589,138660630,1352,1422,1371,1444,0,0,0,0,0,0,0,0,0,0
1659941464.18543196,138760606,1364,1407,1401,1417,0,0,0,0,0,0,0,0,0,0
1659941464.28542280,138860597,1345,1421,1371,1444,0,0,0,0,0,0,0,0,0,0
1659941464.38554382,138960718,1365,1403,1408,1414,0,0,0,0,0,0,0,0,0,0
1659941464.48544002,139060614,1327,1431,1380,1441,0,0,0,0,0,0,0,0,0,0
1659941464.58546090,139160635,1379,1390,1404,1423,0,0,0,0,0,0,0,0,0,0
1659941464.68547082,139260645,1344,1423,1383,1443,0,0,0,0,0,0,0,0,0,0
1659941464.78545690,139360631,1350,1421,1398,1433,0,0,0,0,0,0,0,0,0,0
1659941464.88549995,139460674,1366,1412,1389,1447,0,0,0,0,0,0,0,0,0,0
1659941464.98558784,139560762,1348,1428,1399,1442,0,0,0,0,0,0,0,0,0,0
1659941465.08556986,139660744,1351,1428,1399,1444,0,0,0,0,0,0,0,0,0,0
1659941465.18552494,139760699,1367,1420,1391,1458,0,0,0,0,0,0,0,0,0,0
1659941465.28555202,139860726,1370,1422,1402,1454,0,0,0,0,0,0,0,0,0,0
1659941465.38541889,139960593,1376,1425,1408,1452,0,0,0,0,0,0,0,0,0,0
1659941465.48542190,140060596,1386,1425,1405,1459,0,0,0,0,0,0,0,0,0,0
1659941465.58544779,140160622,1395,1423,1408,1461,0,0,0,0,0,0,0,0,0,0
1659941465.68543696,140260611,1385,1436,1419,1459,0,0,0,0,0,0,0,0,0,0
1659941465.78545594,140360630,1393,1425,1418,1466,0,0,0,0,0,0,0,0,0,0
1659941465.88544297,140460617,1388,1426,1428,1468,0,0,0,0,0,0,0,0,0,0
1659941465.98542190,140560596,1373,1436,1425,1479,0,0,0,0,0,0,0,0,0,0
1659941466.08546901,140660643,1392,1418,1439,1470,0,0,0,0,0,0,0,0,0,0
1659941466.18547082,140760645,1391,1419,1449,1468,0,0,0,0,0,0,0,0,0,0
1659941466.28543901,140860613,1388,1416,1451,1472,0,0,0,0,0,0,0,0,0,0
1659941466.38544488,140960619,1388,1400,1453,1481,0,0,0,0,0,0,0,0,0,0
1659941466.48551583,141060690,1373,1389,1463,1489,0,0,0,0,0,0,0,0,0,0
1659941466.58551979,141160694,1352,1381,1475,1495,0,0,0,0,0,0,0,0,0,0
1659941466.68550086,141260675,1345,1368,1483,1500,0,0,0,0,0,0,0,0,0,0
1659941466.78553391,141360708,1344,1361,1491,1498,0,0,0,0,0,0,0,0,0,0
1659941466.88550282,141460677,1341,1362,1488,1504,0,0,0,0,0,0,0,0,0,0
1659941466.98543596,141560610,1345,1356,1490,1504,0,0,0,0,0,0,0,0,0,0
1659941467.08557892,141660753,1352,1355,1488,1501,0,0,0,0,0,0,0,0,0,0
1659941467.18545699,141760631,1376,1383,1469,1484,0,0,0,0,0,0,0,0,0,0
1659941467.28543282,141860607,1386,1405,1458,1468,0,0,0,0,0,0,0,0,0,0
1659941467.38543892,141960613,1386,1388,1460,1473,0,0,0,0,0,0,0,0,0,0
1659941467.48543787,142060612,1368,1366,1472,1483,0,0,0,0,0,0,0,0,0,0
1659941467.58546782,142160642,1353,1346,1481,1495,0,0,0,0,0,0,0,0,0,0
1659941467.68541384,142260588,1359,1341,1477,1495,0,0,0,0,0,0,0,0,0,0
1659941467.78542781,142360602,1362,1362,1470,1487,0,0,0,0,0,0,0,0,0,0
1659941467.88549185,142460666,1376,1369,1467,1473,0,0,0,0,0,0,0,0,0,0
1659941467.98557687,142560751,1379,1381,1457,1468,0,0,0,0,0,0,0,0,0,0
1659941468.08551788,142660692,1375,1390,1446,1469,0,0,0,0,0,0,0,0,0,0
1659941468.18548298,142760657,1374,1391,1448,1465,0,0,0,0,0,0,0,0,0,0
1659941468.28550100,142860675,1374,1388,1448,1464,0,0,0,0,0,0,0,0,0,0
1659941468.38553882,142960713,1373,1384,1442,1469,0,0,0,0,0,0,0,0,0,0
1659941468.48549795,143060672,1372,1385,1443,1467,0,0,0,0,0,0,0,0,0,0
1659941468.58542800,143160602,1370,1388,1439,1469,0,0,0,0,0,0,0,0,0,0
1659941468.68554902,143260723,1370,1389,1445,1463,0,0,0,0,0,0,0,0,0,0
1659941468.78543782,143360612,1373,1385,1443,1464,0,0,0,0,0,0,0,0,0,0
1659941468.88549781,143460672,1370,1387,1444,1462,0,0,0,0,0,0,0,0,0,0
1659941468.98544598,143560620,1378,1393,1438,1456,0,0,0,0,0,0,0,0,0,0
1659941469.08544993,143660624,1390,1415,1425,1440,0,0,0,0,0,0,0,0,0,0
1659941469.18551493,143760689,1398,1440,1406,1428,0,0,0,0,0,0,0,0,0,0
1659941469.28539181,143860566,1406,1445,1407,1414,0,0,0,0,0,0,0,0,0,0
1659941469.38543582,143960610,1412,1455,1391,1413,0,0,0,0,0,0,0,0,0,0
1659941469.48548388,144060658,1418,1452,1397,1400,0,0,0,0,0,0,0,0,0,0
1659941469.58552098,144160695,1409,1456,1382,1411,0,0,0,0,0,0,0,0,0,0
1659941469.68550682,144260681,1405,1459,1396,1400,0,0,0,0,0,0,0,0,0,0
1659941469.78556991,144360744,1416,1449,1388,1408,0,0,0,0,0,0,0,0,0,0
1659941469.88546395,144460638,1407,1458,1388,1406,0,0,0,0,0,0,0,0,0,0
1659941469.98549891,144560673,1409,1455,1397,1398,0,0,0,0,0,0,0,0,0,0
1659941470.08549094,144660665,1401,1450,1395,1415,0,0,0,0,0,0,0,0,0,0
1659941470.18544793,144760622,1397,1437,1410,1422,0,0,0,0,0,0,0,0,0,0
1659941470.28547287,144860647,1389,1437,1410,1432,0,0,0,0,0,0,0,0,0,0
1659941470.38538885,144960563,1381,1433,1419,1439,0,0,0,0,0,0,0,0,0,0
1659941470.48537993,145060554,1393,1414,1420,1447,0,0,0,0,0,0,0,0,0,0
1659941470.58545780,145160632,1379,1422,1426,1447,0,0,0,0,0,0,0,0,0,0
1659941470.68548894,145260663,1377,1423,1425,1453,0,0,0,0,0,0,0,0,0,0
1659941470.78540492,145360579,1383,1419,1428,1452,0,0,0,0,0,0,0,0,0,0
1659941470.88546395,145460638,1384,1420,1432,1451,0,0,0,0,0,0,0,0,0,0
1659941470.98542380,145560598,1374,1432,1430,1453,0,0,0,0,0,0,0,0,0,0
1659941471.08548093,145660655,1380,1428,1427,1457,0,0,0,0,0,0,0,0,0,0
1659941471.18547797,145760652,1393,1420,1427,1459,0,0,0,0,0,0,0,0,0,0
1659941471.28557992,145860754,1380,1434,1424,1463,0,0,0,0,0,0,0,0,0,0
1659941471.38549900,145960673,1380,1435,1427,1461,0,0,0,0,0,0,0,0,0,0
1659941471.48548985,146060664,1390,1429,1434,1457,0,0,0,0,0,0,0,0,0,0
1659941471.58565998,146160834,1385,1434,1433,1460,0,0,0,0,0,0,0,0,0,0
1659941471.68541479,146260589,1382,1438,1429,1464,0,0,0,0,0,0,0,0,0,0
1659941471.78543997,146360614,1393,1429,1431,1460,0,0,0,0,0,0,0,0,0,0
1659941471.88545084,146460625,1375,1446,1423,1463,0,0,0,0,0,0,0,0,0,0
1659941471.98539281,146560567,1393,1431,1422,1461,0,0,0,0,0,0,0,0,0,0
1659941472.08542180,146660596,1380,1444,1419,1464,0,0,0,0,0,0,0,0,0,0
1659941472.18543601,146760610,1379,1444,1426,1458,0,0,0,0,0,0,0,0,0,0
1659941472.28543591,146860610,1395,1431,1429,1456,0,0,0,0,0,0,0,0,0,0
1659941472.38539886,146960573,1388,1436,1417,1466,0,0,0,0,0,0,0,0,0,0
1659941472.48553586,147060710,1376,1445,1423,1461,0,0,0,0,0,0,0,0,0,0
1659941472.58550882,147160683,1385,1434,1428,1454,0,0,0,0,0,0,0,0,0,0
1659941472.68546391,147260638,1379,1435,1429,1454,0,0,0,0,0,0,0,0,0,0
1659941472.78552699,147360701,1365,1442,1419,1461,0,0,0,0,0,0,0,0,0,0
1659941472.88550782,147460682,1362,1440,1420,1459,0,0,0,0,0,0,0,0,0,0
1659941472.98551393,147560688,1369,1431,1422,1456,0,0,0,0,0,0,0,0,0,0
1659941473.08555579,147660730,1374,1424,1413,1462,0,0,0,0,0,0,0,0,0,0
1659941473.18541193,147760586,1377,1422,1423,1452,0,0,0,0,0,0,0,0,0,0
1659941473.28541589,147860590,1378,1422,1418,1452,0,0,0,0,0,0,0,0,0,0
1659941473.38569784,147960872,1389,1412,1403,1459,0,0,0,0,0,0,0,0,0,0
1659941473.48545384,148060628,1382,1418,1417,1446,0,0,0,0,0,0,0,0,0,0
1659941473.58545995,148160634,1370,1426,1406,1452,0,0,0,0,0,0,0,0,0,0
1659941473.68543792,148260612,1365,1427,1400,1454,0,0,0,0,0,0,0,0,0,0
1659941473.78543186,148360606,1369,1421,1406,1448,0,0,0,0,0,0,0,0,0,0
1659941473.88543391,148460608,1357,1430,1407,1447,0,0,0,0,0,0,0,0,0,0
1659941473.98541188,148560586,1365,1421,1406,1449,0,0,0,0,0,0,0,0,0,0
1659941474.08546090,148660635,1368,1414,1404,1451,0,0,0,0,0,0,0,0,0,0
1659941474.18546295,148760637,1365,1414,1418,1437,0,0,0,0,0,0,0,0,0,0
1659941474.28554797,148860722,1372,1407,1412,1442,0,0,0,0,0,0,0,0,0,0
1659941474.38547683,148960651,1346,1422,1402,1449,0,0,0,0,0,0,0,0,0,0
1659941474.48552489,149060699,1345,1420,1423,1432,0,0,0,0,0,0,0,0,0,0
1659941474.58557796,149160752,1372,1393,1408,1448,0,0,0,0,0,0,0,0,0,0
1659941474.68544984,149260624,1341,1414,1405,1451,0,0,0,0,0,0,0,0,0,0
1659941474.78551483,149360689,1361,1395,1415,1435,0,0,0,0,0,0,0,0,0,0
1659941474.88545990,149460634,1344,1409,1407,1441,0,0,0,0,0,0,0,0,0,0
1659941474.98544097,149560615,1337,1412,1407,1441,0,0,0,0,0,0,0,0,0,0
1659941475.08545184,149660626,1346,1404,1406,1440,0,0,0,0,0,0,0,0,0,0
1659941475.18546700,149760641,1364,1388,1408,1439,0,0,0,0,0,0,0,0,0,0
1659941475.28551698,149860691,1324,1424,1398,1448,0,0,0,0,0,0,0,0,0,0
1659941475.38543487,149960609,1340,1413,1395,1451,0,0,0,0,0,0,0,0,0,0
1659941475.48550892,150060683,1353,1401,1388,1457,0,0,0,0,0,0,0,0,0,0
1659941475.58545780,150160632,1334,1414,1397,1450,0,0,0,0,0,0,0,0,0,0
1659941475.68544602,150260620,1335,1409,1413,1436,0,0,0,0,0,0,0,0,0,0
1659941475.78546190,150360636,1360,1387,1405,1442,0,0,0,0,0,0,0,0,0,0
1659941475.88551402,150460688,1348,1397,1409,1438,0,0,0,0,0,0,0,0,0,0
1659941475.98548579,150560660,1352,1396,1393,1449,0,0,0,0,0,0,0,0,0,0
1659941476.08559990,150660774,1358,1393,1398,1442,0,0,0,0,0,0,0,0,0,0
1659941476.18557000,150760744,1362,1391,1402,1434,0,0,0,0,0,0,0,0,0,0
1659941476.28550982,150860684,1344,1406,1399,1434,0,0,0,0,0,0,0,0,0,0
1659941476.38538098,150960555,1349,1397,1387,1442,0,0,0,0,0,0,0,0,0,0
1659941476.48543596,151060610,1342,1403,1397,1432,0,0,0,0,0,0,0,0,0,0
1659941476.58545995,151160634,1324,1417,1400,1428,0,0,0,0,0,0,0,0,0,0
1659941476.68544602,151260620,1320,1420,1370,1452,0,0,0,0,0,0,0,0,0,0
1659941476.78543997,151360614,1316,1422,1396,1428,0,0,0,0,0,0,0,0,0,0
1659941476.88544488,151460619,1347,1401,1383,1437,0,0,0,0,0,0,0,0,0,0
1659941476.98549581,151560670,1336,1414,1373,1443,0,0,0,0,0,0,0,0,0,0
1659941477.08544493,151660619,1360,1398,1409,1409,0,0,0,0,0,0,0,0,0,0
1659941477.18543792,151760612,1349,1409,1375,1437,0,0,0,0,0,0,0,0,0,0
1659941477.28547001,151860644,1307,1442,1346,1459,0,0,0,0,0,0,0,0,0,0
1659941477.38553095,151960705,1309,1443,1350,1456,0,0,0,0,0,0,0,0,0,0
1659941477.48548102,152060655,1337,1427,1333,1470,0,0,0,0,0,0,0,0,0,0
1659941477.58566499,152160839,1325,1439,1336,1471,0,0,0,0,0,0,0,0,0,0
1659941477.68549800,152260672,1360,1415,1361,1456,0,0,0,0,0,0,0,0,0,0
1659941477.78550792,152360682,1367,1414,1352,1466,0,0,0,0,0,0,0,0,0,0
1659941477.88553596,152460710,1366,1423,1372,1458,0,0,0,0,0,0,0,0,0,0
1659941477.98540688,152560581,1355,1438,1398,1443,0,0,0,0,0,0,0,0,0,0
1659941478.08546495,152660639,1346,1451,1379,1461,0,0,0,0,0,0,0,0,0,0
1659941478.18542981,152760604,1360,1449,1382,1464,0,0,0,0,0,0,0,0,0,0
1659941478.28541899,152860593,1371,1440,1408,1448,0,0,0,0,0,0,0,0,0,0
1659941478.38545299,152960627,1365,1441,1415,1452,0,0,0,0,0,0,0,0,0,0
1659941478.48545384,153060628,1356,1444,1407,1466,0,0,0,0,0,0,0,0,0,0
1659941478.58546090,153160635,1375,1424,1419,1460,0,0,0,0,0,0,0,0,0,0
1659941478.68541288,153260587,1379,1419,1426,1455,0,0,0,0,0,0,0,0,0,0
1659941478.78552890,153360703,1360,1431,1420,1459,0,0,0,0,0,0,0,0,0,0
1659941478.88546181,153460636,1368,1429,1432,1445,0,0,0,0,0,0,0,0,0,0
1659941478.98549700,153560671,1378,1425,1428,1443,0,0,0,0,0,0,0,0,0,0
1659941479.08549094,153660665,1386,1422,1419,1448,0,0,0,0,0,0,0,0,0,0
1659941479.18548584,153760660,1393,1418,1417,1448,0,0,0,0,0,0,0,0,0,0
1659941479.28553700,153860711,1388,1426,1416,1450,0,0,0,0,0,0,0,0,0,0
1659941479.38551688,153960691,1380,1432,1422,1445,0,0,0,0,0,0,0,0,0,0
1659941479.48541689,154060591,1388,1425,1427,1441,0,0,0,0,0,0,0,0,0,0
1659941479.58545899,154160633,1394,1421,1421,1446,0,0,0,0,0,0,0,0,0,0
1659941479.68561196,154260786,1390,1425,1420,1447,0,0,0,0,0,0,0,0,0,0
1659941479.78544497,154360619,1377,1438,1415,1453,0,0,0,0,0,0,0,0,0,0
1659941479.88538980,154460564,1393,1424,1421,1447,0,0,0,0,0,0,0,0,0,0
1659941479.98543286,154560607,1380,1435,1414,1453,0,0,0,0,0,0,0,0,0,0
1659941480.08547401,154660648,1379,1437,1421,1448,0,0,0,0,0,0,0,0,0,0
1659941480.18539000,154760564,1386,1430,1423,1446,0,0,0,0,0,0,0,0,0,0
1659941480.28544784,154860622,1381,1436,1418,1451,0,0,0,0,0,0,0,0,0,0
1659941480.38549900,154960673,1379,1437,1415,1453,0,0,0,0,0,0,0,0,0,0
1659941480.48551393,155060688,1388,1428,1415,1451,0,0,0,0,0,0,0,0,0,0
1659941480.58559585,155160770,1380,1434,1421,1444,0,0,0,0,0,0,0,0,0,0
1659941480.68549585,155260670,1372,1440,1417,1447,0,0,0,0,0,0,0,0,0,0
1659941480.78552485,155360699,1390,1424,1421,1444,0,0,0,0,0,0,0,0,0,0
1659941480.88547492,155460649,1391,1422,1416,1447,0,0,0,0,0,0,0,0,0,0
1659941480.98541379,155560588,1387,1425,1419,1444,0,0,0,0,0,0,0,0,0,0
1659941481.08551383,155660688,1385,1428,1417,1444,0,0,0,0,0,0,0,0,0,0
1659941481.18547297,155760647,1393,1422,1412,1449,0,0,0,0,0,0,0,0,0,0
1659941481.28544402,155860618,1386,1428,1417,1445,0,0,0,0,0,0,0,0,0,0
1659941481.38543701,155960611,1378,1433,1410,1450,0,0,0,0,0,0,0,0,0,0
1659941481.48548698,156060661,1390,1420,1411,1451,0,0,0,0,0,0,0,0,0,0
1659941481.58548784,156160662,1380,1428,1418,1444,0,0,0,0,0,0,0,0,0,0
1659941481.68540001,156260574,1376,1436,1409,1446,0,0,0,0,0,0,0,0,0,0
1659941481.78553391,156360708,1392,1433,1412,1432,0,0,0,0,0,0,0,0,0,0
1659941481.88542390,156460598,1399,1433,1410,1428,0,0,0,0,0,0,0,0,0,0
1659941481.98548985,156560664,1393,1449,1401,1426,0,0,0,0,0,0,0,0,0,0
1659941482.08549881,156660673,1394,1457,1405,1416,0,0,0,0,0,0,0,0,0,0
1659941482.18551898,156760693,1408,1451,1400,1417,0,0,0,0,0,0,0,0,0,0
1659941482.28545094,156860625,1403,1461,1392,1423,0,0,0,0,0,0,0,0,0,0
1659941482.38559580,156960770,1407,1464,1386,1423,0,0,0,0,0,0,0,0,0,0
1659941482.48558283,157060757,1417,1464,1397,1406,0,0,0,0,0,0,0,0,0,0
1659941482.58550882,157160683,1419,1472,1386,1409,0,0,0,0,0,0,0,0,0,0
1659941482.68552995,157260704,1419,1484,1391,1396,0,0,0,0,0,0,0,0,0,0
1659941482.78545785,157360632,1433,1470,1369,1404,0,0,0,0,0,0,0,0,0,0
1659941482.88542485,157460599,1428,1473,1367,1404,0,0,0,0,0,0,0,0,0,0
1659941482.98543096,157560605,1440,1462,1382,1389,0,0,0,0,0,0,0,0,0,0
1659941483.08543682,157660611,1429,1475,1380,1387,0,0,0,0,0,0,0,0,0,0
1659941483.18547702,157760651,1444,1467,1379,1388,0,0,0,0,0,0,0,0,0,0
1659941483.28547692,157860651,1434,1467,1388,1397,0,0,0,0,0,0,0,0,0,0
1659941483.38542295,157960597,1431,1447,1409,1403,0,0,0,0,0,0,0,0,0,0
1659941483.48545980,158060634,1404,1453,1387,1442,0,0,0,0,0,0,0,0,0,0
1659941483.58549881,158160673,1411,1442,1410,1433,0,0,0,0,0,0,0,0,0,0
1659941483.68548799,158260662,1399,1439,1420,1439,0,0,0,0,0,0,0,0,0,0
1659941483.78550887,158360683,1394,1417,1427,1457,0,0,0,0,0,0,0,0,0,0
1659941483.88562679,158460801,1372,1407,1435,1470,0,0,0,0,0,0,0,0,0,0
1659941483.98553896,158560713,1369,1396,1443,1471,0,0,0,0,0,0,0,0,0,0
1659941484.08549094,158660665,1356,1391,1442,1486,0,0,0,0,0,0,0,0,0,0
1659941484.18554091,158760715,1355,1383,1449,1485,0,0,0,0,0,0,0,0,0,0
1659941484.28546000,158860634,1359,1377,1448,1488,0,0,0,0,0,0,0,0,0,0
1659941484.38543296,158960607,1354,1379,1445,1492,0,0,0,0,0,0,0,0,0,0
1659941484.48541188,159060586,1365,1365,1454,1484,0,0,0,0,0,0,0,0,0,0
1659941484.58544302,159160617,1354,1370,1451,1488,0,0,0,0,0,0,0,0,0,0
1659941484.68543696,159260611,1358,1362,1458,1485,0,0,0,0,0,0,0,0,0,0
1659941484.78543496,159360609,1333,1379,1449,1497,0,0,0,0,0,0,0,0,0,0
1659941484.88540483,159460579,1338,1368,1449,1499,0,0,0,0,0,0,0,0,0,0
1659941484.98544192,159560616,1334,1369,1453,1497,0,0,0,0,0,0,0,0,0,0
1659941485.08554196,159660716,1330,1385,1445,1492,0,0,0,0,0,0,0,0,0,0
1659941485.18551779,159760692,1369,1410,1422,1469,0,0,0,0,0,0,0,0,0,0
1659941485.28549600,159860670,1398,1443,1408,1428,0,0,0,0,0,0,0,0,0,0
1659941485.38554692,159960721,1415,1460,1381,1415,0,0,0,0,0,0,0,0,0,0
1659941485.48551202,160060686,1422,1456,1386,1399,0,0,0,0,0,0,0,0,0,0
1659941485.58550692,160160681,1412,1449,1396,1401,0,0,0,0,0,0,0,0,0,0
1659941485.68547392,160260648,1393,1451,1376,1436,0,0,0,0,0,0,0,0,0,0
1659941485.78550792,160360682,1401,1439,1401,1423,0,0,0,0,0,0,0,0,0,0
1659941485.88544083,160460615,1397,1445,1391,1433,0,0,0,0,0,0,0,0,0,0
1659941485.98553181,160560706,1404,1441,1399,1424,0,0,0,0,0,0,0,0,0,0
1659941486.08546686,160660641,1405,1448,1386,1430,0,0,0,0,0,0,0,0,0,0
1659941486.18543196,160760606,1408,1456,1387,1421,0,0,0,0,0,0,0,0,0,0
1659941486.28542781,160860602,1418,1458,1387,1410,0,0,0,0,0,0,0,0,0,0
1659941486.38543081,160960605,1422,1464,1380,1403,0,0,0,0,0,0,0,0,0,0
1659941486.48542500,161060599,1432,1463,1355,1413,0,0,0,0,0,0,0,0,0,0
1659941486.58546591,161160640,1436,1466,1361,1404,0,0,0,0,0,0,0,0,0,0
1659941486.68549681,161260671,1442,1466,1358,1401,0,0,0,0,0,0,0,0,0,0
1659941486.78549194,161360666,1441,1475,1358,1399,0,0,0,0,0,0,0,0,0,0
1659941486.88556099,161460735,1448,1465,1386,1383,0,0,0,0,0,0,0,0,0,0
1659941486.98548388,161560658,1428,1464,1387,1410,0,0,0,0,0,0,0,0,0,0
1659941487.08559084,161660765,1424,1457,1393,1417,0,0,0,0,0,0,0,0,0,0
1659941487.18550897,161760683,1400,1457,1398,1434,0,0,0,0,0,0,0,0,0,0
1659941487.28548598,161860660,1399,1427,1425,1444,0,0,0,0,0,0,0,0,0,0
1659941487.38546681,161960641,1378,1408,1431,1470,0,0,0,0,0,0,0,0,0,0
1659941487.48543096,162060605,1368,1385,1445,1474,0,0,0,0,0,0,0,0,0,0
1659941487.58545399,162160628,1367,1372,1458,1473,0,0,0,0,0,0,0,0,0,0
1659941487.68542385,162260598,1357,1376,1450,1484,0,0,0,0,0,0,0,0,0,0
1659941487.78550196,162360676,1351,1383,1447,1487,0,0,0,0,0,0,0,0,0,0
1659941487.88543701,162460611,1369,1371,1450,1483,0,0,0,0,0,0,0,0,0,0
1659941487.98541093,162560585,1362,1380,1446,1486,0,0,0,0,0,0,0,0,0,0
1659941488.08556890,162660743,1370,1372,1450,1483,0,0,0,0,0,0,0,0,0,0
1659941488.18543100,162760605,1363,1377,1448,1487,0,0,0,0,0,0,0,0,0,0
1659941488.28549099,162860665,1358,1375,1450,1490,0,0,0,0,0,0,0,0,0,0
1659941488.38551497,162960689,1359,1384,1442,1489,0,0,0,0,0,0,0,0,0,0
1659941488.48547983,163060654,1384,1399,1430,1469,0,0,0,0,0,0,0,0,0,0
1659941488.58552098,163160695,1387,1426,1421,1451,0,0,0,0,0,0,0,0,0,0
1659941488.68560886,163260783,1387,1437,1406,1451,0,0,0,0,0,0,0,0,0,0
1659941488.78540683,163360581,1397,1430,1411,1442,0,0,0,0,0,0,0,0,0,0
1659941488.88537383,163460548,1388,1434,1405,1449,0,0,0,0,0,0,0,0,0,0
1659941488.98556399,163560738,1389,1427,1406,1450,0,0,0,0,0,0,0,0,0,0
1659941489.08545089,163660625,1397,1413,1415,1447,0,0,0,0,0,0,0,0,0,0
1659941489.18541384,163760588,1385,1421,1408,1454,0,0,0,0,0,0,0,0,0,0
1659941489.28544092,163860615,1389,1415,1413,1452,0,0,0,0,0,0,0,0,0,0
1659941489.38543987,163960614,1391,1410,1418,1449,0,0,0,0,0,0,0,0,0,0
1659941489.48544097,164060615,1379,1417,1411,1455,0,0,0,0,0,0,0,0,0,0
1659941489.58550787,164160682,1392,1406,1418,1448,0,0,0,0,0,0,0,0,0,0
1659941489.68543696,164260611,1381,1421,1417,1447,0,0,0,0,0,0,0,0,0,0
1659941489.78544188,164360616,1390,1418,1412,1451,0,0,0,0,0,0,0,0,0,0
1659941489.88546395,164460638,1393,1415,1413,1449,0,0,0,0,0,0,0,0,0,0
1659941489.98550200,164560676,1381,1427,1414,1448,0,0,0,0,0,0,0,0,0,0
1659941490.08554792,164660722,1388,1418,1416,1447,0,0,0,0,0,0,0,0,0,0
1659941490.18564296,164760817,1382,1423,1413,1452,0,0,0,0,0,0,0,0,0,0
1659941490.28550601,164860680,1388,1418,1416,1450,0,0,0,0,0,0,0,0,0,0
1659941490.38541484,164960589,1387,1419,1415,1450,0,0,0,0,0,0,0,0,0,0
1659941490.48551583,165060690,1380,1425,1410,1453,0,0,0,0,0,0,0,0,0,0
1659941490.58544493,165160619,1393,1413,1415,1448,0,0,0,0,0,0,0,0,0,0
1659941490.68541598,165260590,1384,1423,1419,1446,0,0,0,0,0,0,0,0,0,0
1659941490.78541899,165360593,1376,1429,1413,1453,0,0,0,0,0,0,0,0,0,0
1659941490.88543487,165460609,1391,1417,1419,1450,0,0,0,0,0,0,0,0,0,0
1659941490.98547101,165560645,1384,1424,1414,1455,0,0,0,0,0,0,0,0,0,0
1659941491.08544588,165660620,1382,1428,1409,1461,0,0,0,0,0,0,0,0,0,0
1659941491.18547702,165760651,1391,1423,1424,1449,0,0,0,0,0,0,0,0,0,0
1659941491.28549480,165860669,1392,1424,1422,1452,0,0,0,0,0,0,0,0,0,0
1659941491.38555098,165960725,1379,1437,1412,1463,0,0,0,0,0,0,0,0,0,0
1659941491.48547196,166060646,1396,1423,1422,1457,0,0,0,0,0,0,0,0,0,0
1659941491.58548689,166160661,1379,1439,1415,1466,0,0,0,0,0,0,0,0,0,0
1659941491.68543482,166260609,1392,1427,1420,1465,0,0,0,0,0,0,0,0,0,0
1659941491.78548598,166360660,1383,1435,1419,1467,0,0,0,0,0,0,0,0,0,0
1659941491.88556790,166460742,1388,1433,1421,1463,0,0,0,0,0,0,0,0,0,0
1659941491.98543692,166560611,1386,1435,1417,1467,0,0,0,0,0,0,0,0,0,0
1659941492.08545089,166660625,1385,1435,1421,1465,0,0,0,0,0,0,0,0,0,0
1659941492.18544388,166760618,1386,1433,1422,1468,0,0,0,0,0,0,0,0,0,0
1659941492.28553987,166860714,1380,1438,1427,1465,0,0,0,0,0,0,0,0,0,0
1659941492.38542390,166960598,1387,1432,1429,1466,0,0,0,0,0,0,0,0,0,0
1659941492.48544598,167060620,1390,1430,1426,1471,0,0,0,0,0,0,0,0,0,0
1659941492.58544993,167160624,1377,1441,1429,1468,0,0,0,0,0,0,0,0,0,0
1659941492.68539095,167260565,1391,1431,1428,1466,0,0,0,0,0,0,0,0,0,0
1659941492.78543401,167360608,1372,1444,1415,1473,0,0,0,0,0,0,0,0,0,0
1659941492.88547301,167460647,1389,1426,1423,1461,0,0,0,0,0,0,0,0,0,0
1659941492.98549581,167560670,1377,1435,1413,1467,0,0,0,0,0,0,0,0,0,0
1659941493.08551097,167660685,1363,1444,1417,1460,0,0,0,0,0,0,0,0,0,0
1659941493.18555999,167760734,1379,1431,1410,1463,0,0,0,0,0,0,0,0,0,0
1659941493.28551698,167860691,1385,1426,1408,1460,0,0,0,0,0,0,0,0,0,0
1659941493.38547182,167960646,1381,1429,1414,1451,0,0,0,0,0,0,0,0,0,0
1659941493.48549294,168060667,1373,1434,1411,1451,0,0,0,0,0,0,0,0,0,0
1659941493.58545780,168160632,1364,1439,1406,1453,0,0,0,0,0,0,0,0,0,0
1659941493.68544197,168260616,1369,1432,1407,1450,0,0,0,0,0,0,0,0,0,0
1659941493.78542900,168360603,1370,1429,1408,1444,0,0,0,0,0,0,0,0,0,0
1659941493.88545179,168460626,1386,1415,1402,1446,0,0,0,0,0,0,0,0,0,0
1659941493.98542094,168560595,1386,1416,1394,1448,0,0,0,0,0,0,0,0,0,0
1659941494.08550286,168660677,1369,1431,1384,1450,0,0,0,0,0,0,0,0,0,0
1659941494.18539691,168760571,1379,1420,1386,1446,0,0,0,0,0,0,0,0,0,0
1659941494.28538990,168860564,1374,1420,1405,1429,0,0,0,0,0,0,0,0,0,0
1659941494.38555384,168960728,1375,1415,1400,1436,0,0,0,0,0,0,0,0,0,0
1659941494.48547292,169060647,1372,1416,1391,1444,0,0,0,0,0,0,0,0,0,0
1659941494.58549285,169160667,1357,1429,1402,1434,0,0,0,0,0,0,0,0,0,0
1659941494.68547392,169260648,1359,1430,1389,1441,0,0,0,0,0,0,0,0,0,0
1659941494.78551698,169360691,1355,1436,1387,1441,0,0,0,0,0,0,0,0,0,0
1659941494.88548279,169460657,1379,1412,1404,1425,0,0,0,0,0,0,0,0,0,0
1659941494.98555398,169560728,1372,1417,1382,1445,0,0,0,0,0,0,0,0,0,0
1659941495.08553481,169660709,1371,1417,1397,1431,0,0,0,0,0,0,0,0,0,0
1659941495.18545485,169760629,1344,1434,1375,1451,0,0,0,0,0,0,0,0,0,0
1659941495.28546095,169860635,1362,1420,1409,1422,0,0,0,0,0,0,0,0,0,0
1659941495.38545394,169960628,1376,1407,1387,1436,0,0,0,0,0,0,0,0,0,0
1659941495.48543191,170060606,1385,1400,1399,1422,0,0,0,0,0,0,0,0,0,0
1659941495.58544493,170160619,1337,1439,1369,1443,0,0,0,0,0,0,0,0,0,0
1659941495.68543291,170260607,1359,1421,1401,1413,0,0,0,0,0,0,0,0,0,0
1659941495.78540993,170360584,1384,1398,1381,1426,0,0,0,0,0,0,0,0,0,0
1659941495.88549995,170460674,1334,1437,1353,1444,0,0,0,0,0,0,0,0,0,0
1659941495.98549199,170560666,1363,1412,1390,1409,0,0,0,0,0,0,0,0,0,0
1659941496.08549380,170660668,1347,1423,1399,1401,0,0,0,0,0,0,0,0,0,0
1659941496.18551183,170760686,1379,1392,1398,1402,0,0,0,0,0,0,0,0,0,0
1659941496.28547788,170860652,1359,1409,1381,1416,0,0,0,0,0,0,0,0,0,0
1659941496.38550091,170960675,1343,1423,1364,1432,0,0,0,0,0,0,0,0,0,0
1659941496.48560286,171060777,1360,1409,1362,1435,0,0,0,0,0,0,0,0,0,0
1659941496.58548689,171160661,1316,1440,1365,1433,0,0,0,0,0,0,0,0,0,0
1659941496.68542695,171260601,1342,1423,1351,1446,0,0,0,0,0,0,0,0,0,0
1659941496.78559494,171360769,1343,1422,1347,1450,0,0,0,0,0,0,0,0,0,0
1659941496.88542986,171460604,1339,1427,1343,1459,0,0,0,0,0,0,0,0,0,0
1659941496.98543286,171560607,1345,1423,1364,1449,0,0,0,0,0,0,0,0,0,0
1659941497.08547783,171660652,1354,1415,1348,1465,0,0,0,0,0,0,0,0,0,0
1659941497.18543696,171760611,1340,1428,1382,1444,0,0,0,0,0,0,0,0,0,0
1659941497.28540182,171860576,1359,1416,1394,1439,0,0,0,0,0,0,0,0,0,0
1659941497.38540888,171960583,1356,1425,1408,1431,0,0,0,0,0,0,0,0,0,0
1659941497.48543000,172060604,1348,1437,1365,1471,0,0,0,0,0,0,0,0,0,0
1659941497.58550096,172160675,1345,1440,1371,1469,0,0,0,0,0,0,0,0,0,0
1659941497.68557191,172260746,1362,1427,1408,1448,0,0,0,0,0,0,0,0,0,0
1659941497.78551698,172360691,1354,1436,1399,1464,0,0,0,0,0,0,0,0,0,0
1659941497.88551998,172460694,1355,1443,1408,1463,0,0,0,0,0,0,0,0,0,0
1659941497.98554993,172560724,1368,1442,1407,1465,0,0,0,0,0,0,0,0,0,0
1659941498.08556080,172660735,1380,1433,1422,1450,0,0,0,0,0,0,0,0,0,0
1659941498.18538690,172760561,1374,1439,1412,1462,0,0,0,0,0,0,0,0,0,0
1659941498.28545594,172860630,1389,1434,1418,1464,0,0,0,0,0,0,0,0,0,0
1659941498.38545585,172960630,1399,1426,1424,1460,0,0,0,0,0,0,0,0,0,0
1659941498.48543191,173060606,1381,1443,1413,1470,0,0,0,0,0,0,0,0,0,0
1659941498.58553100,173160705,1398,1430,1422,1463,0,0,0,0,0,0,0,0,0,0
1659941498.68543983,173260614,1398,1430,1424,1460,0,0,0,0,0,0,0,0,0,0
1659941498.78543997,173360614,1391,1441,1424,1464,0,0,0,0,0,0,0,0,0,0
1659941498.88540697,173460581,1397,1436,1426,1464,0,0,0,0,0,0,0,0,0,0
1659941498.98542690,173560601,1402,1433,1425,1464,0,0,0,0,0,0,0,0,0,0
1659941499.08545399,173660628,1393,1437,1416,1471,0,0,0,0,0,0,0,0,0,0
1659941499.18545794,173760632,1394,1434,1422,1469,0,0,0,0,0,0,0,0,0,0
1659941499.28548789,173860662,1398,1425,1424,1469,0,0,0,0,0,0,0,0,0,0
1659941499.38549900,173960673,1400,1422,1434,1462,0,0,0,0,0,0,0,0,0,0
1659941499.48552799,174060702,1388,1430,1429,1467,0,0,0,0,0,0,0,0,0,0
1659941499.58557701,174160751,1394,1423,1432,1462,0,0,0,0,0,0,0,0,0,0
1659941499.68555379,174260728,1395,1422,1429,1464,0,0,0,0,0,0,0,0,0,0
1659941499.78542590,174360600,1397,1421,1436,1457,0,0,0,0,0,0,0,0,0,0
1659941499.88546300,174460637,1399,1418,1430,1461,0,0,0,0,0,0,0,0,0,0
1659941499.98547292,174560647,1387,1428,1429,1461,0,0,0,0,0,0,0,0,0,0
1659941500.08539701,174660571,1395,1421,1428,1460,0,0,0,0,0,0,0,0,0,0
1659941500.18540192,174760576,1395,1421,1426,1459,0,0,0,0,0,0,0,0,0,0
1659941500.28543901,174860613,1390,1426,1425,1457,0,0,0,0,0,0,0,0,0,0
1659941500.38551879,174960693,1398,1418,1429,1452,0,0,0,0,0,0,0,0,0,0
1659941500.48545790,175060632,1392,1422,1424,1454,0,0,0,0,0,0,0,0,0,0
1659941500.58548784,175160662,1392,1420,1426,1452,0,0,0,0,0,0,0,0,0,0
1659941500.68558192,175260756,1396,1416,1429,1448,0,0,0,0,0,0,0,0,0,0
1659941500.78550196,175360676,1391,1420,1422,1453,0,0,0,0,0,0,0,0,0,0
1659941500.88554001,175460714,1400,1411,1425,1447,0,0,0,0,0,0,0,0,0,0
1659941500.98553395,175560708,1389,1422,1421,1450,0,0,0,0,0,0,0,0,0,0
1659941501.08555698,175660731,1392,1421,1420,1448,0,0,0,0,0,0,0,0,0,0
1659941501.18553901,175760713,1391,1421,1420,1447,0,0,0,0,0,0,0,0,0,0
1659941501.28552794,175860702,1400,1406,1426,1447,0,0,0,0,0,0,0,0,0,0
1659941501.38543987,175960614,1382,1405,1428,1458,0,0,0,0,0,0,0,0,0,0
1659941501.48544788,176060622,1374,1392,1435,1468,0,0,0,0,0,0,0,0,0,0
1659941501.58545685,176160631,1365,1381,1450,1469,0,0,0,0,0,0,0,0,0,0
1659941501.68542886,176260603,1362,1369,1456,1476,0,0,0,0,0,0,0,0,0,0
1659941501.78542185,176360596,1359,1366,1457,1481,0,0,0,0,0,0,0,0,0,0
1659941501.88538694,176460561,1351,1364,1465,1485,0,0,0,0,0,0,0,0,0,0
1659941501.98547482,176560649,1349,1356,1470,1489,0,0,0,0,0,0,0,0,0,0
1659941502.08544493,176660619,1345,1351,1468,1499,0,0,0,0,0,0,0,0,0,0
1659941502.18547487,176760649,1335,1354,1474,1501,0,0,0,0,0,0,0,0,0,0
1659941502.28546691,176860641,1331,1350,1477,1504,0,0,0,0,0,0,0,0,0,0
1659941502.38551784,176960692,1332,1346,1482,1505,0,0,0,0,0,0,0,0,0,0
1659941502.48550200,177060676,1321,1353,1481,1511,0,0,0,0,0,0,0,0,0,0
1659941502.58557296,177160747,1329,1352,1484,1507,0,0,0,0,0,0,0,0,0,0
1659941502.68552995,177260704,1348,1364,1478,1498,0,0,0,0,0,0,0,0,0,0
1659941502.78558087,177360755,1368,1379,1468,1487,0,0,0,0,0,0,0,0,0,0
1659941502.88549900,177460673,1377,1383,1466,1480,0,0,0,0,0,0,0,0,0,0
1659941502.98539996,177560574,1379,1396,1452,1479,0,0,0,0,0,0,0,0,0,0
1659941503.08556795,177660742,1380,1404,1449,1471,0,0,0,0,0,0,0,0,0,0
1659941503.18542385,177760598,1395,1415,1431,1464,0,0,0,0,0,0,0,0,0,0
1659941503.28541279,177860587,1399,1440,1416,1445,0,0,0,0,0,0,0,0,0,0
1659941503.38543081,177960605,1419,1445,1408,1424,0,0,0,0,0,0,0,0,0,0
1659941503.48544979,178060624,1423,1444,1391,1420,0,0,0,0,0,0,0,0,0,0
1659941503.58543301,178160607,1410,1448,1387,1418,0,0,0,0,0,0,0,0,0,0
1659941503.68539500,178260569,1415,1439,1401,1406,0,0,0,0,0,0,0,0,0,0
1659941503.78549194,178360666,1403,1448,1390,1419,0,0,0,0,0,0,0,0,0,0
1659941503.88553882,178460713,1415,1436,1395,1413,0,0,0,0,0,0,0,0,0,0
1659941503.98555183,178560726,1410,1439,1383,1421,0,0,0,0,0,0,0,0,0,0
1659941504.08548284,178660657,1412,1439,1397,1403,0,0,0,0,0,0,0,0,0,0
1659941504.18551183,178760686,1403,1447,1380,1414,0,0,0,0,0,0,0,0,0,0
1659941504.28554082,178860715,1410,1443,1385,1403,0,0,0,0,0,0,0,0,0,0
1659941504.38549495,178960669,1410,1448,1381,1402,0,0,0,0,0,0,0,0,0,0
1659941504.48543787,179060612,1419,1444,1365,1406,0,0,0,0,0,0,0,0,0,0
1659941504.58545589,179160630,1418,1450,1375,1390,0,0,0,0,0,0,0,0,0,0
1659941504.68542480,179260599,1412,1446,1372,1403,0,0,0,0,0,0,0,0,0,0
1659941504.78544497,179360619,1388,1421,1401,1428,0,0,0,0,0,0,0,0,0,0
1659941504.88555694,179460731,1380,1397,1423,1434,0,0,0,0,0,0,0,0,0,0
1659941504.98544788,179560622,1339,1382,1436,1469,0,0,0,0,0,0,0,0,0,0
1659941505.08545399,179660628,1337,1349,1457,1479,0,0,0,0,0,0,0,0,0,0
1659941505.18593502,179761109,1313,1372,1446,1493,0,0,0,0,0,0,0,0,0,0
1659941505.28542781,179860602,1347,1375,1445,1479,0,0,0,0,0,0,0,0,0,0
1659941505.38544583,179960620,1350,1402,1429,1473,0,0,0,0,0,0,0,0,0,0
1659941505.48548484,180060659,1380,1395,1423,1467,0,0,0,0,0,0,0,0,0,0
1659941505.58555102,180160725,1375,1406,1420,1468,0,0,0,0,0,0,0,0,0,0
1659941505.68548799,180260662,1385,1392,1434,1463,0,0,0,0,0,0,0,0,0,0
1659941505.78558302,180360757,1380,1385,1434,1475,0,0,0,0,0,0,0,0,0,0
1659941505.88550401,180460678,1352,1396,1433,1488,0,0,0,0,0,0,0,0,0,0
1659941505.98540688,180560581,1347,1393,1444,1485,0,0,0,0,0,0,0,0,0,0
1659941506.08541489,180660589,1349,1375,1447,1496,0,0,0,0,0,0,0,0,0,0
1659941506.18544197,180760616,1331,1377,1451,1505,0,0,0,0,0,0,0,0,0,0
1659941506.28543282,180860607,1339,1358,1472,1497,0,0,0,0,0,0,0,0,0,0
1659941506.38542295,180960597,1326,1359,1463,1513,0,0,0,0,0,0,0,0,0,0
1659941506.48546600,181060640,1322,1359,1473,1511,0,0,0,0,0,0,0,0,0,0
1659941506.58544993,181160624,1326,1353,1473,1514,0,0,0,0,0,0,0,0,0,0
1659941506.68549299,181260667,1320,1355,1482,1511,0,0,0,0,0,0,0,0,0,0
1659941506.78540897,181360583,1323,1366,1483,1506,0,0,0,0,0,0,0,0,0,0
1659941506.88543081,181460605,1350,1372,1476,1495,0,0,0,0,0,0,0,0,0,0
1659941506.98556781,181560742,1368,1382,1462,1490,0,0,0,0,0,0,0,0,0,0
1659941507.08549500,181660669,1364,1394,1465,1479,0,0,0,0,0,0,0,0,0,0
1659941507.18546987,181760644,1374,1396,1454,1475,0,0,0,0,0,0,0,0,0,0
1659941507.28545189,181860626,1373,1402,1449,1472,0,0,0,0,0,0,0,0,0,0
1659941507.38601494,181961189,1370,1404,1445,1471,0,0,0,0,0,0,0,0,0,0
1659941507.48550296,182060677,1378,1404,1442,1463,0,0,0,0,0,0,0,0,0,0
1659941507.58554482,182160719,1385,1425,1422,1454,0,0,0,0,0,0,0,0,0,0
1659941507.68551588,182260690,1394,1445,1414,1430,0,0,0,0,0,0,0,0,0,0
1659941507.78557491,182360749,1407,1452,1406,1413,0,0,0,0,0,0,0,0,0,0
1659941507.88543487,182460609,1407,1449,1397,1407,0,0,0,0,0,0,0,0,0,0
1659941507.98538685,182560561,1408,1443,1399,1406,0,0,0,0,0,0,0,0,0,0
1659941508.08545589,182660630,1402,1446,1384,1421,0,0,0,0,0,0,0,0,0,0
1659941508.18545890,182760633,1416,1432,1407,1402,0,0,0,0,0,0,0,0,0,0
1659941508.28541493,182860589,1413,1436,1404,1402,0,0,0,0,0,0,0,0,0,0
1659941508.38549685,182960671,1406,1446,1393,1408,0,0,0,0,0,0,0,0,0,0
1659941508.48550701,183060681,1405,1452,1391,1408,0,0,0,0,0,0,0,0,0,0
1659941508.58552480,183160699,1419,1446,1397,1396,0,0,0,0,0,0,0,0,0,0
1659941508.68550801,183260682,1421,1450,1385,1402,0,0,0,0,0,0,0,0,0,0
1659941508.78547287,183360647,1406,1469,1385,1399,0,0,0,0,0,0,0,0,0,0
1659941508.88551593,183460690,1422,1459,1375,1406,0,0,0,0,0,0,0,0,0,0
1659941508.98549581,183560670,1426,1457,1395,1383,0,0,0,0,0,0,0,0,0,0
1659941509.08560991,183660784,1401,1456,1382,1424,0,0,0,0,0,0,0,0,0,0
1659941509.18541002,183760584,1401,1431,1407,1427,0,0,0,0,0,0,0,0,0,0
1659941509.28546000,183860634,1373,1398,1434,1453,0,0,0,0,0,0,0,0,0,0
1659941509.38549399,183960668,1328,1392,1455,1473,0,0,0,0,0,0,0,0,0,0
1659941509.48543692,184060611,1335,1365,1459,1487,0,0,0,0,0,0,0,0,0,0
1659941509.58545399,184160628,1335,1381,1460,1481,0,0,0,0,0,0,0,0,0,0
1659941509.68545985,184260634,1357,1394,1442,1477,0,0,0,0,0,0,0,0,0,0
1659941509.78543282,184360607,1383,1403,1435,1461,0,0,0,0,0,0,0,0,0,0
1659941509.88539481,184460569,1385,1425,1416,1457,0,0,0,0,0,0,0,0,0,0
1659941509.98544383,184560618,1392,1429,1416,1443,0,0,0,0,0,0,0,0,0,0
1659941510.08547282,184660647,1390,1433,1413,1442,0,0,0,0,0,0,0,0,0,0
1659941510.18549800,184760672,1385,1437,1410,1447,0,0,0,0,0,0,0,0,0,0
1659941510.28555489,184860729,1395,1424,1424,1439,0,0,0,0,0,0,0,0,0,0
1659941510.38555098,184960725,1380,1434,1418,1451,0,0,0,0,0,0,0,0,0,0
1659941510.48547387,185060648,1386,1432,1429,1445,0,0,0,0,0,0,0,0,0,0
1659941510.58550787,185160682,1388,1430,1426,1449,0,0,0,0,0,0,0,0,0,0
1659941510.68542099,185260595,1393,1428,1422,1454,0,0,0,0,0,0,0,0,0,0
1659941510.78548098,185360655,1386,1437,1422,1457,0,0,0,0,0,0,0,0,0,0
1659941510.88545394,185460628,1400,1427,1431,1451,0,0,0,0,0,0,0,0,0,0
