timestamp,TimeUS,Instance,Volt,VoltR,Curr,CurrTot,EnrgTot,Temp,Res,RemPct
1659340918.47961807,170274622,0,24.940275192260742,24.961469650268555,0.01882251724600792,1.6293143033981323,0.04071426019072533,0.0,1.1260275840759277,99
1659340918.57956004,170374564,0,24.92713737487793,24.941728591918945,0.012957530096173286,1.6296740770339966,0.040723226964473724,0.0,1.1260275840759277,99
1659340918.67958522,170474589,0,24.95538330078125,24.97922706604004,0.021175332367420197,1.6302624940872192,0.04073791205883026,0.0,1.1260275840759277,99
1659340918.77956915,170574573,0,24.974645614624023,25.00128173828125,0.02363044209778309,1.6309188604354858,0.040754303336143494,0.0,1.1271629333496094,99
1659340918.87956214,170674566,0,24.964582443237305,24.99018096923828,0.02270977571606636,1.6315497159957886,0.04077005013823509,0.0,1.1271774768829346,99
1659340918.97961020,170774614,0,24.907085418701172,24.914350509643555,0.006444665603339672,1.6317288875579834,0.04077451303601265,0.0,1.1271774768829346,99
1659340919.07950521,170874509,0,24.952795028686523,24.975969314575195,0.02056155353784561,1.632299542427063,0.04078875109553337,0.0,1.1270556449890137,99
1659340919.17958403,170974588,0,24.961036682128906,24.98801612854004,0.02393733151257038,1.632965087890625,0.04080536216497421,0.0,1.1270556449890137,99
1659340919.27953815,171074542,0,24.977807998657227,25.0072078704834,0.02608555369079113,1.6336894035339355,0.04082345589995384,0.0,1.1270556449890137,99
1659340919.37958717,171174591,0,24.92749786376953,24.93891143798828,0.01012733206152916,1.633970856666565,0.040830470621585846,0.0,1.1270556449890137,99
1659340919.47950912,171274513,0,24.908184051513672,24.91433334350586,0.005455802194774151,1.6341222524642944,0.04083424061536789,0.0,1.1270556449890137,99
1659340919.57960010,171374604,0,24.96851348876953,24.997220993041992,0.025471774861216545,1.6348305940628052,0.04085192829370499,0.0,1.1270556449890137,99
1659340919.67951703,171474521,0,24.964773178100586,24.98967742919922,0.022095996886491776,1.635443925857544,0.040867239236831665,0.0,1.1270556449890137,99
1659340919.77960420,171574608,0,24.973974227905273,25.003374099731445,0.02608555369079113,1.636169195175171,0.04088535159826279,0.0,1.1270556449890137,99
1659340919.87960005,171674604,0,24.97800064086914,25.007055282592773,0.02577866241335869,1.6368852853775024,0.0409032367169857,0.0,1.1270556449890137,99
1659340919.97960520,171774609,0,24.91072654724121,24.917644500732422,0.006137777119874954,1.63705575466156,0.04090748354792595,0.0,1.1270556449890137,99
1659340920.07959318,171874597,0,24.924240112304688,24.93427085876465,0.008899778127670288,1.6373029947280884,0.040913645178079605,0.0,1.1270556449890137,99
1659340920.17956114,171974565,0,24.957490921020508,24.98170280456543,0.02148222178220749,1.63789963722229,0.04092853516340256,0.0,1.1270556449890137,99
1659340920.27958918,172074593,0,24.977617263793945,25.008399963378906,0.02731310948729515,1.6386586427688599,0.04094749316573143,0.0,1.1270556449890137,99
1659340920.37957811,172174582,0,24.957908630371094,24.975587844848633,0.01568543165922165,1.639094352722168,0.04095836728811264,0.0,1.1270653009414673,99
1659340920.47958016,172274584,0,24.911014556884766,24.920700073242188,0.008592887781560421,1.6393330097198486,0.040964312851428986,0.0,1.1270653009414673,99
1659340920.57949400,172374498,0,24.959312438964844,24.980411529541016,0.018720220774412155,1.6398526430130005,0.04097728058695793,0.0,1.1270653009414673,99
1659340920.67957211,172474576,0,24.94637680053711,25.107128143310547,0.32652974128723145,1.6489306688308716,0.04120374470949173,0.0,0.49230146408081055,99
1659340920.77961302,172574617,0,24.83502197265625,25.055770874023438,2.673308849334717,1.7232264280319214,0.043048880994319916,0.0,0.08257488906383514,99
1659340920.87954617,172674550,0,24.83789825439453,24.963397979736328,1.5141897201538086,1.7652620077133179,0.04409295693039894,0.0,0.08288303017616272,99
1659340920.97958112,172774585,0,24.859844207763672,24.93871307373047,0.9378523826599121,1.7913246154785156,0.04474087059497833,0.0,0.08409608900547028,99
1659340921.07950401,172874508,0,24.910537719726562,24.98463249206543,0.8810779452323914,1.8157823085784912,0.045350126922130585,0.0,0.08409608900547028,99
1659340921.17956114,172974565,0,24.913984298706055,24.978866577148438,0.7715186476707458,1.8372273445129395,0.04588440805673599,0.0,0.08409608900547028,99
1659340921.27952600,173074530,0,24.93885040283203,25.002826690673828,0.7607433795928955,1.8583533763885498,0.046411268413066864,0.0,0.08409608900547028,99
1659340921.37960100,173174605,0,24.93775177001953,24.99968147277832,0.7288610935211182,1.8786163330078125,0.04691658169031143,0.0,0.08496660739183426,99
1659340921.47957516,173274579,0,24.87891387939453,24.927127838134766,0.5674375295639038,1.8943756818771362,0.04730865731835365,0.0,0.08496660739183426,99
1659340921.57958102,173374585,0,24.90085792541504,24.951860427856445,0.6002746224403381,1.911051630973816,0.04772390425205231,0.0,0.08496660739183426,99
1659340921.67960119,173474605,0,24.926347732543945,24.980558395385742,0.6346461772918701,1.9286861419677734,0.04816346988081932,0.0,0.08541888743638992,99
1659340921.77955604,173574560,0,24.93708038330078,24.994413375854492,0.6644144058227539,1.947133183479309,0.04862348735332489,0.0,0.08629144728183746,99
1659340921.87959814,173674602,0,24.92165184020996,24.976261138916016,0.6324979662895203,1.964713454246521,0.049061618745326996,0.0,0.08633776009082794,99
1659340921.97957420,173774578,0,24.8753662109375,24.921125411987305,0.5299970507621765,1.9794330596923828,0.04942777380347252,0.0,0.08633776009082794,99
1659340922.07956910,173874573,0,24.91245460510254,24.965917587280273,0.6193017363548279,1.9966366291046143,0.04985635727643967,0.0,0.08632690459489822,99
1659340922.17955208,173974556,0,24.924686431884766,24.980693817138672,0.6448075771331787,2.0145461559295654,0.05030274763703346,0.0,0.08685777336359024,99
1659340922.27960801,174074612,0,24.940433502197266,24.999982833862305,0.6855897307395935,2.033602237701416,0.05077801272273064,0.0,0.08685777336359024,99
1659340922.37953901,174174543,0,24.892807006835938,24.942546844482422,0.572654664516449,2.049499988555908,0.051173754036426544,0.0,0.08685777336359024,99
1659340922.47953820,174274542,0,24.875080108642578,24.92215347290039,0.5419657826423645,2.0645556449890137,0.05154826492071152,0.0,0.08685777336359024,99
1659340922.57958412,174374588,0,24.935163497924805,24.994152069091797,0.6791450381278992,2.0834310054779053,0.05201892554759979,0.0,0.08685777336359024,99
1659340922.67952204,174474526,0,24.925294876098633,24.982284545898438,0.6561284065246582,2.101646900177002,0.05247296392917633,0.0,0.08685777336359024,99
1659340922.77955914,174574563,0,24.936601638793945,24.995723724365234,0.6806795001029968,2.12056303024292,0.052944667637348175,0.0,0.08685777336359024,99
1659340922.87956405,174674568,0,24.94206428527832,25.002199172973633,0.6923412680625916,2.1397974491119385,0.0534244142472744,0.0,0.08685777336359024,99
1659340922.97958612,174774590,0,24.863386154174805,24.909101486206055,0.5263144373893738,2.15442156791687,0.053788017481565475,0.0,0.08685777336359024,99
1659340923.07958603,174874590,0,24.880496978759766,24.92865562438965,0.5544459223747253,2.1698241233825684,0.05417124181985855,0.0,0.08685777336359024,99
1659340923.17962217,174974626,0,24.916379928588867,24.9715576171875,0.6352599263191223,2.1874780654907227,0.05461111292243004,0.0,0.08685777336359024,99
1659340923.27960706,175074611,0,24.93171501159668,24.989957809448242,0.6705521941184998,2.2061023712158203,0.055075451731681824,0.0,0.08685777336359024,99
1659340923.37963605,175174640,0,24.906892776489258,24.959938049316406,0.6107088923454285,2.2230727672576904,0.05549813061952591,0.0,0.08685777336359024,99
1659340923.47962022,175274624,0,24.871822357177734,24.91801643371582,0.5318384170532227,2.2378454208374023,0.05586555600166321,0.0,0.08685777336359024,99
1659340923.57959008,175374594,0,24.91762924194336,24.973073959350586,0.6383287906646729,2.25557279586792,0.05630727857351303,0.0,0.08685777336359024,99
1659340923.67965508,175474659,0,24.921939849853516,24.978689193725586,0.6533663868904114,2.273735284805298,0.056759923696517944,0.0,0.08685777336359024,99
1659340923.77958202,175574586,0,24.936506271362305,24.99538803100586,0.67791748046875,2.2925541400909424,0.05722919851541519,0.0,0.08685777336359024,99
1659340923.87965703,175674661,0,24.883991241455078,24.932371139526367,0.5570033192634583,2.3080391883850098,0.0576145313680172,0.0,0.08685777336359024,99
1659340923.97958922,175774593,0,24.879539489746094,24.928022384643555,0.5581967830657959,2.323535203933716,0.05800006538629532,0.0,0.08685777336359024,99
1659340924.07961702,175874621,0,24.92059898376465,24.976789474487305,0.6469217538833618,2.3415119647979736,0.058448053896427155,0.0,0.08685777336359024,99
1659340924.17959023,175974594,0,24.921173095703125,24.9777889251709,0.6518319249153137,2.359614849090576,0.058899201452732086,0.0,0.08685777336359024,99
1659340924.27963400,176074638,0,24.934972763061523,24.99425506591797,0.6825208067893982,2.3785815238952637,0.05937213450670242,0.0,0.08685777336359024,99
1659340924.37963104,176174635,0,24.937273025512695,24.997167587280273,0.6895792484283447,2.397738218307495,0.059849850833415985,0.0,0.08685777336359024,99
1659340924.47959900,176274603,0,24.866071701049805,24.91231918334961,0.5324521660804749,2.4125258922576904,0.060217563062906265,0.0,0.08685777336359024,99
1659340924.57962918,176374633,0,24.902772903442383,24.955177307128906,0.6033435463905334,2.4292919635772705,0.06063508614897728,0.0,0.08685777336359024,99
1659340924.67960715,176474611,0,24.924335479736328,24.981298446655273,0.6558215022087097,2.4475066661834717,0.06108907610177994,0.0,0.08685777336359024,99
1659340924.77965617,176574660,0,24.93564224243164,24.994470596313477,0.6773037314414978,2.466329336166382,0.06155842915177345,0.0,0.08685777336359024,99
1659340924.87959909,176674603,0,24.91105842590332,24.9658203125,0.6304861307144165,2.4838359355926514,0.061994537711143494,0.0,0.08685777336359024,99
1659340924.97960711,176774611,0,24.866455078125,24.914567947387695,0.5539343953132629,2.499225616455078,0.06237722560763359,0.0,0.08685777336359024,99
1659340925.07958221,176874586,0,24.86281394958496,25.00737953186035,1.7013919353485107,2.546478509902954,0.06355206668376923,0.0,0.08496910333633423,99
1659340925.17969608,176974700,0,24.52875328063965,25.053054809570312,8.607312202453613,2.7858622074127197,0.0694238543510437,0.0,0.06091352179646492,99
1659340925.27966619,177074670,0,24.301448822021484,25.052654266357422,13.01638412475586,3.1473488807678223,0.07820850610733032,0.0,0.05771225690841675,99
1659340925.37960505,177174609,0,24.389802932739258,24.964458465576172,9.943199157714844,3.4234025478363037,0.08494140207767487,0.0,0.057793743908405304,99
1659340925.47967100,177274675,0,24.504989624023438,24.937068939208984,7.438679218292236,3.63018536567688,0.09000861644744873,0.0,0.0580856055021286,99
1659340925.57961702,177374621,0,24.468381881713867,25.016036987304688,9.493300437927246,3.8937668800354004,0.09645802527666092,0.0,0.057688500732183456,99
1659340925.67962503,177474629,0,24.272520065307617,25.029916763305664,13.236116409301758,4.261495590209961,0.1053837314248085,0.0,0.05722193792462349,99
1659340925.77960300,177574607,0,24.15109634399414,25.030778884887695,15.469347953796387,4.6911396980285645,0.11576010286808014,0.0,0.05686620995402336,99
1659340925.87968111,177674685,0,23.996522903442383,25.03623390197754,18.37895965576172,5.202105522155762,0.1280215084552765,0.0,0.056570760905742645,99
1659340925.97967410,177774678,0,23.72369956970215,24.978469848632812,22.1512393951416,5.8174238204956055,0.14261913299560547,0.0,0.056645601987838745,99
1659340926.07961702,177874621,0,23.682205200195312,25.01662254333496,23.60650634765625,6.472832202911377,0.1581406444311142,0.0,0.056527551263570786,99
1659340926.17972612,177974730,0,23.700986862182617,25.015609741210938,23.297161102294922,7.120739459991455,0.17349667847156525,0.0,0.05642843618988991,99
1659340926.27962613,178074630,0,23.744110107421875,25.024463653564453,22.742000579833984,7.751880645751953,0.18848255276679993,0.0,0.05629908666014671,99
1659340926.37965202,178174656,0,23.7489013671875,24.981029510498047,21.85140609741211,8.359070777893066,0.2029026448726654,0.0,0.056386638432741165,99
1659340926.47961307,178274617,0,23.715076446533203,24.942331314086914,21.665433883666992,8.960701942443848,0.2171703726053238,0.0,0.05664575845003128,99
1659340926.57965112,178374655,0,23.765480041503906,24.990930557250977,21.630889892578125,9.561836242675781,0.23145662248134613,0.0,0.05665281414985657,99
1659340926.67961001,178474614,0,23.782825469970703,24.987545013427734,21.256656646728516,10.152104377746582,0.24549485743045807,0.0,0.05667494609951973,99
1659340926.77962708,178574631,0,23.788288116455078,24.99815559387207,21.358545303344727,10.745545387268066,0.2596118152141571,0.0,0.056645605713129044,99
1659340926.87961316,178674617,0,23.693225860595703,24.953683853149414,22.180700302124023,11.36163330078125,0.2742089033126831,0.0,0.05682678893208504,99
1659340926.97964716,178774651,0,23.66936492919922,24.95015525817871,22.466718673706055,11.985977172851562,0.2889867424964905,0.0,0.05700836330652237,99
1659340927.07969904,178874703,0,23.678564071655273,24.961606979370117,22.462116241455078,12.610299110412598,0.3037697970867157,0.0,0.057120274752378464,99
1659340927.17964506,178974649,0,23.658918380737305,24.981428146362305,23.149242401123047,13.253037452697754,0.3189763128757477,0.0,0.05712970346212387,99
1659340927.27961802,179074622,0,23.64167022705078,24.99281883239746,23.669111251831055,13.910387992858887,0.3345171809196472,0.0,0.05708485469222069,99
1659340927.37963820,179174642,0,23.6080322265625,24.992319107055664,24.265703201293945,14.584624290466309,0.3504345715045929,0.0,0.05704706534743309,99
1659340927.47970819,179274712,0,23.572120666503906,24.892152786254883,22.969608306884766,15.223166465759277,0.36548638343811035,0.0,0.05746861919760704,99
1659340927.57969904,179374703,0,23.662559509277344,24.945632934570312,22.27123260498047,15.84179973602295,0.3801248371601105,0.0,0.057611264288425446,99
1659340927.67964005,179474644,0,23.74286460876465,24.949134826660156,20.97309112548828,16.424095153808594,0.3939501643180847,0.0,0.057515162974596024,99
1659340927.77962708,179574631,0,23.743728637695312,24.962684631347656,21.201725006103516,17.013002395629883,0.4079330265522003,0.0,0.05749323591589928,99
1659340927.87963915,179674643,0,23.69514274597168,24.95467758178711,21.886085510253906,17.621065139770508,0.42234113812446594,0.0,0.057549528777599335,99
1659340927.97967815,179774682,0,23.66495704650879,24.941654205322266,22.141725540161133,18.236408233642578,0.4369032084941864,0.0,0.05766020342707634,99
1659340928.07960105,179874605,0,23.614646911621094,24.88790512084961,21.95083999633789,18.845733642578125,0.4512921869754791,0.0,0.05800502747297287,99
1659340928.17966318,179974667,0,23.627870559692383,24.892709732055664,21.805681228637695,19.45186424255371,0.46561378240585327,0.0,0.05800502747297287,99
1659340928.27958822,180074592,0,23.712007522583008,24.954797744750977,21.414398193359375,20.046310424804688,0.47970929741859436,0.0,0.058035291731357574,99
1659340928.37965822,180174662,0,23.75674819946289,24.930131912231445,20.243072509765625,20.60906219482422,0.49307844042778015,0.0,0.05796470120549202,99
1659340928.47963405,180274638,0,23.759441375732422,24.88182830810547,19.443252563476562,21.149066925048828,0.5059086084365845,0.0,0.05772629380226135,99
1659340928.57965612,180374660,0,23.75407600402832,24.855003356933594,19.166128158569336,21.681575775146484,0.5185579061508179,0.0,0.05744132027029991,99
1659340928.67966819,180474672,0,23.791545867919922,24.889190673828125,19.13820457458496,22.2132625579834,0.5312075614929199,0.0,0.057353634387254715,99
1659340928.77963114,180574635,0,23.806303024291992,24.913240432739258,19.291954040527344,22.749069213867188,0.5439631342887878,0.0,0.05737823247909546,99
1659340928.87965012,180674654,0,23.799978256225586,24.910476684570312,19.351184844970703,23.286752700805664,0.5567600131034851,0.0,0.05738655477762222,99
1659340928.97960401,180774608,0,23.69600486755371,24.829608917236328,19.753822326660156,23.835262298583984,0.5697574615478516,0.0,0.05738655477762222,99
1659340929.07974601,180874750,0,23.76500129699707,24.895706176757812,19.703184127807617,24.38338851928711,0.5827836990356445,0.0,0.05738694593310356,99
1659340929.17960501,180974609,0,23.75541877746582,24.852062225341797,19.165210723876953,24.91505241394043,0.5954136252403259,0.0,0.05722055211663246,99
1659340929.27971005,181074714,0,23.810626983642578,24.894176483154297,18.925495147705078,25.441265106201172,0.607943058013916,0.0,0.05725337937474251,99
1659340929.37961507,181174619,0,23.81339454650879,24.85201644897461,18.184083938598633,25.946020126342773,0.6199629902839661,0.0,0.05711709335446358,99
1659340929.47967505,181274679,0,23.787425994873047,24.802867889404297,17.870140075683594,26.4427547454834,0.6317790746688843,0.0,0.05682333558797836,99
1659340929.57961702,181374621,0,23.821443557739258,24.849916458129883,18.11411476135254,26.945667266845703,0.6437591910362244,0.0,0.056777473539114,99
1659340929.67961121,181474615,0,23.811668395996094,24.86412239074707,18.530258178710938,27.460412979125977,0.6560161113739014,0.0,0.05679651349782944,99
1659340929.77965522,181574659,0,23.77094078063965,24.871967315673828,19.403356552124023,27.99955177307129,0.6688319444656372,0.0,0.05674416571855545,99
1659340929.87963700,181674641,0,23.71440315246582,24.804729461669922,19.129302978515625,28.53098487854004,0.6814345717430115,0.0,0.05699770525097847,99
1659340929.97964907,181774653,0,23.73184585571289,24.797142028808594,18.69014549255371,29.050155639648438,0.6937554478645325,0.0,0.05699770525097847,99
1659340930.07965708,181874661,0,23.819622039794922,24.869808197021484,18.39583969116211,29.56133460998535,0.705931544303894,0.0,0.05708824843168259,99
1659340930.17966914,181974673,0,23.83192253112793,24.84726905822754,17.79068946838379,30.05562400817871,0.7177113890647888,0.0,0.05707183852791786,99
1659340930.27962208,182074626,0,23.90146255493164,24.852176666259766,16.65639305114746,30.51812171936035,0.7287657260894775,0.0,0.05707801878452301,99
1659340930.37968302,182174687,0,23.909032821655273,24.86113739013672,16.66928482055664,30.981332778930664,0.7398406863212585,0.0,0.05711735412478447,99
1659340930.47961712,182274621,0,23.833040237426758,24.7681884765625,16.467041015625,31.438623428344727,0.7507392764091492,0.0,0.056789129972457886,99
1659340930.57962012,182374624,0,23.83457374572754,24.804306030273438,17.1105899810791,31.91397476196289,0.762069046497345,0.0,0.056674353778362274,99
1659340930.67972422,182474728,0,23.857187271118164,24.830699920654297,17.173500061035156,32.39155197143555,0.7734626531600952,0.0,0.05668686330318451,99
1659340930.77961016,182574614,0,23.86868667602539,24.837766647338867,17.084196090698242,32.86560821533203,0.784777820110321,0.0,0.05672379210591316,99
1659340930.87964821,182674652,0,23.862075805664062,24.80206871032715,16.603302001953125,33.327022552490234,0.7957881689071655,0.0,0.056614842265844345,99
1659340930.97962022,182774624,0,23.803333282470703,24.75411605834961,16.793880462646484,33.79342269897461,0.8068900108337402,0.0,0.056614842265844345,99
1659340931.07970309,182874707,0,23.875577926635742,24.82163429260254,16.69986915588379,34.25773620605469,0.8179757595062256,0.0,0.05665057525038719,99
1659340931.17960119,182974605,0,23.878557205200195,24.82364845275879,16.672351837158203,34.720420837402344,0.8290240168571472,0.0,0.05668612942099571,99
1659340931.27965212,183074656,0,23.904144287109375,24.830385208129883,16.324338912963867,35.174137115478516,0.8398697376251221,0.0,0.056739840656518936,99
1659340931.37959909,183174603,0,23.906156539916992,24.82996940612793,16.27001953125,35.625885009765625,0.850669264793396,0.0,0.056780047714710236,99
1659340931.47964001,183274644,0,23.863895416259766,24.769567489624023,15.950549125671387,36.06917190551758,0.8612478375434875,0.0,0.056780047714710236,99
1659340931.57961607,183374620,0,23.84645652770996,24.75261688232422,15.95914077758789,36.51240921020508,0.8718175292015076,0.0,0.056780047714710236,99
1659340931.67962909,183474633,0,23.900693893432617,24.81479835510254,16.08619499206543,36.95934295654297,0.8824995160102844,0.0,0.056825414299964905,99
1659340931.77970099,183574705,0,23.906827926635742,24.824216842651367,16.123634338378906,37.4075813293457,0.8932154178619385,0.0,0.056897182017564774,99
1659340931.87965012,183674654,0,23.88603401184082,24.816362380981445,16.343673706054688,37.86137771606445,0.9040548205375671,0.0,0.0569227933883667,99
1659340931.97962213,183774626,0,23.802532196044922,24.74402618408203,16.454017639160156,38.318336486816406,0.9149316549301147,0.0,0.05721969157457352,99
1659340932.07964706,183874651,0,23.872615814208984,24.791154861450195,16.06686019897461,38.76478958129883,0.9255896806716919,0.0,0.0571698322892189,99
1659340932.17968202,183974686,0,23.87529945373535,24.812963485717773,16.401369094848633,39.220577239990234,0.9364718198776245,0.0,0.0571698322892189,99
1659340932.27966809,184074672,0,23.895519256591797,24.82639503479004,16.257131576538086,39.67213439941406,0.9472619891166687,0.0,0.057259492576122284,99
1659340932.37963009,184174634,0,23.858530044555664,24.788543701171875,16.242094039916992,40.1231689453125,0.9580230116844177,0.0,0.057259492576122284,99
1659340932.47969723,184274701,0,23.833328247070312,24.75141143798828,16.033716201782227,40.568885803222656,0.9686458706855774,0.0,0.057259492576122284,99
1659340932.57962012,184374624,0,23.863033294677734,24.790517807006836,16.19790267944336,41.01852035522461,0.9793755412101746,0.0,0.057259492576122284,99
1659340932.67964411,184474648,0,23.888141632080078,24.816429138183594,16.18869400024414,41.46834945678711,0.9901211261749268,0.0,0.05734176188707352,99
1659340932.77961302,184574617,0,23.884212493896484,24.81998062133789,16.319122314453125,41.92155075073242,1.0009454488754272,0.0,0.05734176188707352,99
1659340932.87964702,184674651,0,23.912311553955078,24.816150665283203,15.748514175415039,42.35919952392578,1.0114105939865112,0.0,0.05739201605319977,99
1659340932.97975016,184774754,0,23.85383415222168,24.768951416015625,15.945025444030762,42.802608489990234,1.0219875574111938,0.0,0.05739201605319977,99
1659340933.07962203,184874626,0,23.84722328186035,24.73482894897461,15.46566390991211,43.231693267822266,1.0322201251983643,0.0,0.05739201605319977,99
1659340933.17963004,184974634,0,23.896671295166016,24.781972885131836,15.43282699584961,43.66044998168945,1.0424660444259644,0.0,0.05736478418111801,99
1659340933.27967000,185074674,0,23.9374942779541,24.80976104736328,15.18271255493164,44.082393646240234,1.0525662899017334,0.0,0.05745125189423561,99
1659340933.37971020,185174714,0,23.93193244934082,24.812894821166992,15.312833786010742,44.50794982910156,1.0627506971359253,0.0,0.0575309656560421,99
1659340933.47963810,185274642,0,23.878747940063477,24.731725692749023,14.826415061950684,44.91953659057617,1.07257878780365,0.0,0.0575309656560421,99
1659340933.57962608,185374630,0,23.909318923950195,24.776166915893555,15.077449798583984,45.33833694458008,1.0825920104980469,0.0,0.05749295651912689,99
1659340933.67961502,185474619,0,23.947235107421875,24.787385940551758,14.609615325927734,45.74414825439453,1.0923100709915161,0.0,0.057506754994392395,99
1659340933.77970099,185574705,0,23.97515296936035,24.79749870300293,14.287518501281738,46.14128875732422,1.1018315553665161,0.0,0.05755692720413208,99
1659340933.87959599,185674600,0,23.967199325561523,24.764738082885742,13.87782096862793,46.526512145996094,1.1110643148422241,0.0,0.05746860057115555,99
1659340933.97975111,185774755,0,23.92350196838379,24.734962463378906,14.165682792663574,46.92063903808594,1.1204932928085327,0.0,0.05728347972035408,99
1659340934.07961822,185874622,0,23.967966079711914,24.783586502075195,14.227368354797363,47.31535339355469,1.1299537420272827,0.0,0.0573275089263916,99
1659340934.17962003,185974624,0,23.962886810302734,24.772769927978516,14.12916374206543,47.70786666870117,1.139359474182129,0.0,0.05731997638940811,99
1659340934.27962518,186074629,0,24.0346622467041,24.790441513061523,13.17074966430664,48.07377243041992,1.1481539011001587,0.0,0.057383108884096146,99
1659340934.37962413,186174628,0,23.96614646911621,24.71351432800293,13.08144474029541,48.437171936035156,1.1568632125854492,0.0,0.05713192746043205,99
1659340934.47968006,186274684,0,23.865428924560547,24.729061126708984,15.075916290283203,48.85621643066406,1.1668639183044434,0.0,0.057285603135824203,99
1659340934.57962203,186374626,0,23.89197540283203,24.786911010742188,15.654708862304688,49.29085159301758,1.177248239517212,0.0,0.05716715008020401,99
1659340934.67964315,186474647,0,23.867910385131836,24.785688400268555,16.082340240478516,49.73771286010742,1.1879138946533203,0.0,0.05706741660833359,99
1659340934.77968907,186574693,0,23.86552619934082,24.795730590820312,16.33814811706543,50.19170379638672,1.1987487077713013,0.0,0.056934501975774765,99
1659340934.87970901,186674713,0,23.84070587158203,24.787153244018555,16.646879196166992,50.65433883666992,1.2097783088684082,0.0,0.05685429647564888,99
1659340934.97971106,186774715,0,23.778034210205078,24.726011276245117,16.615577697753906,51.11592483520508,1.2207539081573486,0.0,0.05705350637435913,99
1659340935.07965708,186874661,0,23.76356315612793,24.746902465820312,17.209712982177734,51.5937385559082,1.232108473777771,0.0,0.05713857337832451,99
1659340935.17966008,186974664,0,23.805248260498047,24.780057907104492,17.081743240356445,52.068302154541016,1.2434055805206299,0.0,0.057067323476076126,99
1659340935.27964115,187074645,0,23.823551177978516,24.792537689208984,17.015146255493164,52.540889739990234,1.2546643018722534,0.0,0.056948497891426086,99
1659340935.37974000,187174744,0,23.7845516204834,24.742021560668945,16.778228759765625,53.00745391845703,1.265761375427246,0.0,0.05706619843840599,99
1659340935.47962713,187274631,0,23.800168991088867,24.746623992919922,16.560644149780273,53.46698760986328,1.276698350906372,0.0,0.057150859385728836,99
1659340935.57971811,187374722,0,23.814672470092773,24.76780891418457,16.68282127380371,53.93081283569336,1.287744164466858,0.0,0.057132788002491,99
1659340935.67963409,187474638,0,23.770750045776367,24.751840591430664,17.155702590942383,54.407047271728516,1.2990645170211792,0.0,0.05718742683529854,99
1659340935.77968621,187574690,0,23.775352478027344,24.782426834106445,17.636903762817383,54.897212982177734,1.310718297958374,0.0,0.05710044130682945,99
1659340935.87963510,187674639,0,23.780046463012695,24.775327682495117,17.444482803344727,55.38161849975586,1.322237491607666,0.0,0.05705422908067703,99
1659340935.97971821,187774722,0,23.75628089904785,24.728179931640625,16.984764099121094,55.85384750366211,1.3334559202194214,0.0,0.05722186341881752,99
1659340936.07968712,187874691,0,23.732131958007812,24.71022605895996,17.024660110473633,56.32664489746094,1.3446764945983887,0.0,0.057451583445072174,99
1659340936.17964411,187974648,0,23.783496856689453,24.77401351928711,17.264034271240234,56.8060302734375,1.3560779094696045,0.0,0.057374536991119385,99
1659340936.27969813,188074702,0,23.78033447265625,24.7910099029541,17.65991973876953,57.29689407348633,1.3677507638931274,0.0,0.05722986161708832,99
1659340936.37966919,188174673,0,23.73922348022461,24.77178955078125,18.056421279907227,57.79835510253906,1.379655122756958,0.0,0.057185567915439606,99
1659340936.47970414,188274708,0,23.678489685058594,24.706256866455078,17.893667221069336,58.295616149902344,1.3914295434951782,0.0,0.05743745341897011,99
1659340936.57962418,188374628,0,23.706735610961914,24.753938674926758,18.227664947509766,58.801570892333984,1.4034240245819092,0.0,0.05745132267475128,99
1659340936.67966008,188474664,0,23.738073348999023,24.758773803710938,17.76917266845703,59.295379638671875,1.4151461124420166,0.0,0.05744225159287453,99
1659340936.77966404,188574668,0,23.7627010345459,24.785728454589844,17.809680938720703,59.79015350341797,1.426903247833252,0.0,0.05744225159287453,99
1659340936.87967920,188674683,0,23.713443756103516,24.7364444732666,17.774389266967773,60.284000396728516,1.438614010810852,0.0,0.05755474790930748,99
1659340936.97968221,188774686,0,23.66716194152832,24.708532333374023,18.022968292236328,60.78468704223633,1.450463891029358,0.0,0.0577801950275898,99
1659340937.07963705,188874641,0,23.724563598632812,24.756155014038086,17.85663604736328,61.28052520751953,1.462227463722229,0.0,0.057770803570747375,99
1659340937.17980504,188974809,0,23.745548248291016,24.76276969909668,17.597929000854492,61.77021789550781,1.4738554954528809,0.0,0.05780351534485817,99
1659340937.27964306,189074647,0,23.76059341430664,24.78260612487793,17.64979362487793,62.259735107421875,1.4854867458343506,0.0,0.05790511518716812,99
1659340937.37971711,189174721,0,23.72129249572754,24.775489807128906,18.224424362182617,62.76638412475586,1.4975050687789917,0.0,0.057845305651426315,99
1659340937.47964215,189274646,0,23.680959701538086,24.777729034423828,18.98138427734375,63.29328536987305,1.5099825859069824,0.0,0.057781342417001724,99
1659340937.57967019,189374674,0,23.638891220092773,24.73211097717285,18.87213134765625,63.81770706176758,1.5223792791366577,0.0,0.0579276867210865,99
1659340937.67970705,189474711,0,23.636974334716797,24.70644760131836,18.384178161621094,64.32860565185547,1.534455418586731,0.0,0.05817357823252678,99
1659340937.77963018,189574634,0,23.6865177154541,24.776262283325195,18.76165008544922,64.84940338134766,1.5467913150787354,0.0,0.058083608746528625,99
1659340937.87971711,189674721,0,23.672143936157227,24.76925277709961,18.904661178588867,65.37493133544922,1.5592317581176758,0.0,0.05803382024168968,99
1659340937.97965503,189774659,0,23.670515060424805,24.77520179748535,19.058717727661133,65.9041519165039,1.57175874710083,0.0,0.05796230956912041,99
1659340938.07972407,189874728,0,23.59107208251953,24.70636558532715,19.16122055053711,66.43681335449219,1.584324836730957,0.0,0.05820579081773758,99
1659340938.17964816,189974652,0,23.573396682739258,24.69963264465332,19.266483306884766,66.97163391113281,1.5969324111938477,0.0,0.058455727994441986,99
1659340938.27971816,190074722,0,23.648378372192383,24.782085418701172,19.44202423095703,67.5121078491211,1.6097137928009033,0.0,0.05831214785575867,99
1659340938.37966013,190174664,0,23.603145599365234,24.773324966430664,20.098766326904297,68.07012176513672,1.6228846311569214,0.0,0.058221444487571716,99
1659340938.47972918,190274733,0,23.59385108947754,24.74391746520996,19.736331939697266,68.61878204345703,1.6358295679092407,0.0,0.05827152356505394,99
1659340938.57962608,190374630,0,23.536161422729492,24.69880485534668,19.867677688598633,69.17013549804688,1.6488062143325806,0.0,0.05851934105157852,99
1659340938.67963314,190474637,0,23.60333824157715,24.752853393554688,19.649478912353516,69.7160415649414,1.661691427230835,0.0,0.05850104242563248,99
1659340938.77970099,190574705,0,23.605445861816406,24.757904052734375,19.71300506591797,70.2640380859375,1.6746271848678589,0.0,0.05846181511878967,99
1659340938.87967300,190674677,0,23.635440826416016,24.775501251220703,19.500946044921875,70.80551147460938,1.6874252557754517,0.0,0.05846181511878967,99
1659340938.97962904,190774633,0,23.624134063720703,24.749570846557617,19.256662368774414,71.34032440185547,1.7000597715377808,0.0,0.05844399333000183,99
1659340939.07963920,190874643,0,23.566158294677734,24.704675674438477,19.408334732055664,71.87950134277344,1.712766170501709,0.0,0.05866122990846634,99
1659340939.17966413,190974668,0,23.560503005981445,24.69255256652832,19.298091888427734,72.415771484375,1.7254010438919067,0.0,0.05866122990846634,99
1659340939.27966499,191074669,0,23.564815521240234,24.7547664642334,20.309289932250977,72.97997283935547,1.7386963367462158,0.0,0.058591488748788834,99
1659340939.37965417,191174658,0,23.565486907958984,24.760473251342773,20.42621612548828,73.54734802246094,1.752066731452942,0.0,0.058502595871686935,99
1659340939.47965717,191274661,0,23.590497970581055,24.745922088623047,19.755050659179688,74.0961685180664,1.765013575553894,0.0,0.05848753824830055,99
1659340939.57971215,191374716,0,23.559450149536133,24.68025016784668,19.163061141967773,74.62881469726562,1.7775623798370361,0.0,0.05848753824830055,99
1659340939.67971301,191474717,0,23.589250564575195,24.704511642456055,19.10321807861328,75.15950775146484,1.7900810241699219,0.0,0.05838083475828171,99
1659340939.77963805,191574642,0,23.667831420898438,24.746212005615234,18.44708824157715,75.67157745361328,1.8022006750106812,0.0,0.058458078652620316,99
1659340939.87967801,191674682,0,23.680959701538086,24.67831802368164,17.12010383605957,76.1473617553711,1.8134677410125732,0.0,0.05825657770037651,99
1659340939.97965217,191774656,0,23.717140197753906,24.64358139038086,15.982431411743164,76.59123992919922,1.8239952325820923,0.0,0.057966165244579315,99
1659340940.07972717,191874731,0,23.80927276611328,24.69486427307129,15.284600257873535,77.01616668701172,1.834112524986267,0.0,0.05794011801481247,99
1659340940.17962503,191974629,0,23.811094284057617,24.709806442260742,15.500955581665039,77.44634246826172,1.8443554639816284,0.0,0.057977862656116486,99
1659340940.27973223,192074736,0,23.852874755859375,24.719680786132812,14.933212280273438,77.86155700683594,1.8542596101760864,0.0,0.05804552137851715,99
1659340940.37964106,192174645,0,23.86495018005371,24.69717788696289,14.346135139465332,78.25980377197266,1.863763689994812,0.0,0.05801063030958176,99
1659340940.47968507,192274689,0,23.805152893066406,24.630748748779297,14.302248001098633,78.65728759765625,1.8732259273529053,0.0,0.0577249601483345,99
1659340940.57972121,192374725,0,23.834766387939453,24.6253662109375,13.754144668579102,79.03948974609375,1.8823356628417969,0.0,0.05748084560036659,99
1659340940.67962718,192474631,0,23.89580726623535,24.688440322875977,13.776241302490234,79.42184448242188,1.8914722204208374,0.0,0.0575362965464592,99
1659340940.77970719,192574711,0,23.90596580505371,24.698274612426758,13.751075744628906,79.8041763305664,1.900612235069275,0.0,0.05761801078915596,99
1659340940.87965107,192674655,0,23.86599349975586,24.681169509887695,14.148600578308105,80.1969985961914,1.9099873304367065,0.0,0.05761527642607689,98
1659340940.97967601,192774680,0,23.832752227783203,24.619709014892578,13.716397285461426,80.57813262939453,1.919070839881897,0.0,0.05737338960170746,98
1659340941.07966709,192874671,0,23.89925765991211,24.65113639831543,13.1204195022583,80.94258880615234,1.927781105041504,0.0,0.057306062430143356,98
1659340941.17973399,192974738,0,23.882488250732422,24.67714500427246,13.85511302947998,81.32774353027344,1.9369795322418213,0.0,0.05735474079847336,98
1659340941.27962518,193074629,0,23.91851806640625,24.700651168823242,13.605917930603027,81.70530700683594,1.9460102319717407,0.0,0.05748477578163147,98
1659340941.37963414,193174638,0,23.937110900878906,24.69388771057129,13.14742660522461,82.07057189941406,1.9547537565231323,0.0,0.05756077915430069,98
1659340941.47972822,193274732,0,23.917272567749023,24.664165496826172,12.988456726074219,82.43172454833984,1.9633915424346924,0.0,0.057504355907440186,98
1659340941.57965612,193374660,0,23.855846405029297,24.627304077148438,13.415647506713867,82.80414581298828,1.972275972366333,0.0,0.057504355907440186,98
1659340941.67977905,193474783,0,23.924650192260742,24.681976318359375,13.156940460205078,83.17008972167969,1.981031060218811,0.0,0.0575609914958477,98
1659340941.77960801,193574612,0,23.95309066772461,24.70258903503418,12.99265193939209,83.53041076660156,1.9896619319915771,0.0,0.05768628790974617,98
1659340941.87969208,193674696,0,23.978986740112305,24.706676483154297,12.58950138092041,83.88043975830078,1.998055338859558,0.0,0.0578012689948082,98
1659340941.97964311,193774647,0,23.98176383972168,24.687841415405273,12.212029457092285,84.21952056884766,2.0061872005462646,0.0,0.0578182190656662,98
1659340942.07972717,193874731,0,23.961929321289062,24.6324462890625,11.63814640045166,84.54309844970703,2.0139408111572266,0.0,0.0576137937605381,98
1659340942.17962217,193974626,0,23.92445945739746,24.618051528930664,12.038637161254883,84.87718200683594,2.0219335556030273,0.0,0.0576137937605381,98
1659340942.27962518,194074629,0,23.990774154663086,24.693580627441406,12.174281120300293,85.21539306640625,2.0300474166870117,0.0,0.05772881209850311,98
1659340942.37965202,194174656,0,23.972469329833984,24.675111770629883,12.167530059814453,85.55349731445312,2.0381526947021484,0.0,0.057747360318899155,98
1659340942.47964311,194274647,0,23.957042694091797,24.620738983154297,11.532883644104004,85.87384796142578,2.0458273887634277,0.0,0.05754817649722099,98
1659340942.57968116,194374685,0,24.007831573486328,24.66879653930664,11.479177474975586,86.19286346435547,2.0534861087799072,0.0,0.05757949501276016,98
1659340942.67968702,194474691,0,24.003454208374023,24.689899444580078,11.899445533752441,86.52345275878906,2.0614213943481445,0.0,0.057687170803546906,98
1659340942.77973008,194574734,0,23.99106216430664,24.70750617980957,12.419485092163086,86.8685531616211,2.0697007179260254,0.0,0.057687170803546906,98
1659340942.87965107,194674655,0,23.882104873657227,24.664615631103516,13.554361343383789,87.24485778808594,2.0786876678466797,0.0,0.057731274515390396,98
1659340942.97972012,194774724,0,23.794898986816406,24.65214729309082,14.824881553649902,87.65675354003906,2.088488817214966,0.0,0.057824939489364624,98
1659340943.07968116,194874685,0,23.82843780517578,24.714252471923828,15.369608879089355,88.08373260498047,2.098663091659546,0.0,0.05763421580195427,98
1659340943.17970014,194974704,0,23.84137725830078,24.713054656982422,15.167062759399414,88.50520324707031,2.1087114810943604,0.0,0.057471707463264465,98
1659340943.27971721,195074721,0,23.842910766601562,24.720102310180664,15.30945873260498,88.9305648803711,2.1188533306121826,0.0,0.057297296822071075,98
1659340943.37962222,195174626,0,23.85019302368164,24.722858428955078,15.274779319763184,89.35449981689453,2.1289641857147217,0.0,0.057131167501211166,98
1659340943.47971916,195274723,0,23.768035888671875,24.63227653503418,15.061081886291504,89.77330017089844,2.138918399810791,0.0,0.05738241225481033,98
1659340943.57962108,195374625,0,23.790586471557617,24.658296585083008,15.09310245513916,90.19216918945312,2.148883581161499,0.0,0.05749046429991722,98
1659340943.67964721,195474651,0,23.81205177307129,24.693647384643555,15.350581169128418,90.61871337890625,2.1590404510498047,0.0,0.05743074417114258,98
1659340943.77964807,195574652,0,23.793655395507812,24.71490478515625,16.082204818725586,91.06542205810547,2.1696691513061523,0.0,0.057283829897642136,98
1659340943.87971807,195674722,0,23.76576805114746,24.68597412109375,16.06471061706543,91.5120849609375,2.1802845001220703,0.0,0.05728122591972351,98
1659340943.97966814,195774672,0,23.709707260131836,24.65291404724121,16.424999237060547,91.9681396484375,2.1910974979400635,0.0,0.05742505192756653,98
1659340944.07964420,195874648,0,23.718429565429688,24.657718658447266,16.326488494873047,92.42157745361328,2.201852321624756,0.0,0.057531584054231644,98
1659340944.17967105,195974675,0,23.753406524658203,24.68500328063965,16.200048446655273,92.87173461914062,2.212545156478882,0.0,0.05750581622123718,98
1659340944.27962208,196074626,0,23.72092056274414,24.696067810058594,16.978626251220703,93.34317016601562,2.2237279415130615,0.0,0.057433776557445526,98
1659340944.37974405,196174748,0,23.68115234375,24.63481903076172,16.545061111450195,93.80326843261719,2.234623670578003,0.0,0.05764060467481613,98
1659340944.47962809,196274632,0,23.67616844177246,24.6278018951416,16.448322296142578,94.2597427368164,2.245431423187256,0.0,0.05785594880580902,98
1659340944.57968116,196374685,0,23.721879959106445,24.686948776245117,16.700584411621094,94.72393798828125,2.2564430236816406,0.0,0.0577864907681942,98
1659340944.67966819,196474672,0,23.72657585144043,24.68501091003418,16.601152420043945,95.18505859375,2.2673838138580322,0.0,0.05773309990763664,98
1659340944.77973413,196574738,0,23.72504234313965,24.68782615661621,16.69383430480957,95.64910125732422,2.278393268585205,0.0,0.05767296627163887,98
1659340944.87970400,196674708,0,23.75388526916504,24.700756072998047,16.417940139770508,96.10498809814453,2.289222478866577,0.0,0.05767296627163887,98
1659340944.97966719,196774671,0,23.70932388305664,24.627769470214844,15.925078392028809,96.54730224609375,2.2997095584869385,0.0,0.05767296627163887,98
1659340945.07968307,196874687,0,23.706832885742188,24.641510009765625,16.206493377685547,96.99751281738281,2.310382604598999,0.0,0.05767296627163887,98
1659340945.17962909,196974633,0,23.73040771484375,24.684925079345703,16.550518035888672,97.45712280273438,2.321289300918579,0.0,0.05767296627163887,98
1659340945.27968001,197074684,0,23.747379302978516,24.699260711669922,16.504825592041016,97.91585540771484,2.3321831226348877,0.0,0.05767296627163887,98
1659340945.37961721,197174621,0,23.720251083374023,24.670549392700195,16.472566604614258,98.37316131591797,2.3430304527282715,0.0,0.05768972262740135,98
1659340945.47969723,197274701,0,23.65345573425293,24.630626678466797,16.882265090942383,98.84253692626953,2.354132890701294,0.0,0.05788154900074005,98
1659340945.57963204,197374636,0,23.728107452392578,24.68854522705078,16.59317398071289,99.30319213867188,2.365063428878784,0.0,0.05788154900074005,98
1659340945.67967606,197474680,0,23.720441818237305,24.691804885864258,16.781909942626953,99.76959991455078,2.376127004623413,0.0,0.05788154900074005,98
1659340945.77964520,197574649,0,23.711719512939453,24.68830680847168,16.88840103149414,100.23861694335938,2.3872480392456055,0.0,0.05782591924071312,98
1659340945.87964010,197674644,0,23.64923858642578,24.64045524597168,17.093402862548828,100.71344757080078,2.39847731590271,0.0,0.05798827111721039,98
1659340945.97974205,197774746,0,23.64617347717285,24.625282287597656,16.823034286499023,101.18126678466797,2.4095394611358643,0.0,0.058200523257255554,98
1659340946.07961416,197874618,0,23.691404342651367,24.699234008789062,17.357633590698242,101.66284942626953,2.4209487438201904,0.0,0.05806266516447067,98
1659340946.17968321,197974687,0,23.685197830200195,24.683937072753906,17.21748924255371,102.14142608642578,2.432283878326416,0.0,0.05800721049308777,98
1659340946.27974820,198074752,0,23.712486267089844,24.68990135192871,16.830705642700195,102.60933685302734,2.4433791637420654,0.0,0.058073341846466064,98
1659340946.37971807,198174722,0,23.701753616333008,24.69635009765625,17.12654685974121,103.08497619628906,2.4546525478363037,0.0,0.058073341846466064,98
1659340946.47962403,198274628,0,23.655467987060547,24.613636016845703,16.499265670776367,103.54289245605469,2.465484857559204,0.0,0.058073341846466064,98
1659340946.57968903,198374693,0,23.708845138549805,24.64873695373535,16.206186294555664,103.99339294433594,2.476165771484375,0.0,0.05799582228064537,98
1659340946.67962122,198474625,0,23.730119705200195,24.665849685668945,16.132841110229492,104.4412612915039,2.4867937564849854,0.0,0.05800153315067291,98
1659340946.77962112,198574625,0,23.751201629638672,24.686262130737305,16.098163604736328,104.88846588134766,2.497415542602539,0.0,0.058084867894649506,98
1659340946.87967205,198674676,0,23.732131958007812,24.654640197753906,15.897762298583984,105.33032989501953,2.507901906967163,0.0,0.05802760273218155,98
1659340946.97960901,198774613,0,23.70539665222168,24.61853790283203,15.736340522766113,105.7672119140625,2.5182583332061768,0.0,0.05802760273218155,98
1659340947.07967401,198874678,0,23.701595306396484,24.657928466796875,16.480274200439453,106.22532653808594,2.52911639213562,0.0,0.058029014617204666,98
1659340947.17960906,198974613,0,23.704532623291016,24.66985511779785,16.64995002746582,106.68756866455078,2.5400736331939697,0.0,0.05797750875353813,98
1659340947.27969122,199074695,0,23.70184898376465,24.68590545654297,17.00747299194336,107.1604232788086,2.551281213760376,0.0,0.05786028131842613,98
1659340947.37965417,199174658,0,23.642724990844727,24.621631622314453,16.865997314453125,107.6287841796875,2.562354564666748,0.0,0.05804022401571274,98
1659340947.47972322,199274727,0,23.639177322387695,24.612071990966797,16.703962326049805,108.09314727783203,2.573331594467163,0.0,0.05824332684278488,98
1659340947.57960701,199374611,0,23.70041275024414,24.685550689697266,16.9141788482666,108.5624771118164,2.5844547748565674,0.0,0.05824332684278488,98
1659340947.67965508,199474659,0,23.689008712768555,24.677257537841797,16.991823196411133,109.03474426269531,2.595642328262329,0.0,0.05816030874848366,98
1659340947.77967000,199574674,0,23.702232360839844,24.686573028564453,16.92461395263672,109.50497436523438,2.606787919998169,0.0,0.05816030874848366,98
1659340947.87968612,199674690,0,23.710952758789062,24.688350677490234,16.805233001708984,109.9719009399414,2.617859363555908,0.0,0.05816030874848366,98
1659340947.97962809,199774632,0,23.608108520507812,24.604372024536133,17.045970916748047,110.44515991210938,2.6290321350097656,0.0,0.058445703238248825,98
1659340948.07962108,199874625,0,23.617809295654297,24.65813636779785,17.79464340209961,110.93946075439453,2.6407065391540527,0.0,0.05846294388175011,98
1659340948.17968011,199974684,0,23.58053207397461,24.68090057373047,18.84942054748535,111.46340942382812,2.6530613899230957,0.0,0.058376748114824295,98
1659340948.27962422,200074628,0,23.58513069152832,24.695234298706055,19.062400817871094,111.99266815185547,2.665544033050537,0.0,0.0582352876663208,98
1659340948.37970710,200174711,0,23.535396575927734,24.666643142700195,19.42514419555664,112.53274536132812,2.678255081176758,0.0,0.058236174285411835,98
1659340948.47960711,200274611,0,23.455284118652344,24.626298904418945,20.045366287231445,113.08905029296875,2.691303253173828,0.0,0.058418214321136475,98
1659340948.57968116,200374685,0,23.509235382080078,24.67433738708496,19.96189308166504,113.64400482177734,2.7043497562408447,0.0,0.0583663247525692,98
1659340948.67962813,200474632,0,23.54018783569336,24.67967414855957,19.546672821044922,114.18672180175781,2.717125415802002,0.0,0.058295704424381256,98
1659340948.77964807,200574652,0,23.56146240234375,24.67952537536621,19.199888229370117,114.72019958496094,2.7296950817108154,0.0,0.05823273956775665,98
1659340948.87971306,200674717,0,23.4744815826416,24.623531341552734,19.666461944580078,115.26689147949219,2.7425284385681152,0.0,0.0584268644452095,98
1659340948.97965622,200774660,0,23.457103729248047,24.617755889892578,19.796785354614258,115.81653594970703,2.7554214000701904,0.0,0.05862828716635704,98
1659340949.07967114,200874675,0,23.519201278686523,24.685285568237305,19.93058967590332,116.37029266357422,2.7684452533721924,0.0,0.05850730836391449,98
1659340949.17960906,200974613,0,23.53434181213379,24.671510696411133,19.452150344848633,116.91033935546875,2.7811548709869385,0.0,0.0584598071873188,98
1659340949.27966499,201074669,0,23.54852294921875,24.689441680908203,19.51629066467285,117.45280456542969,2.793929100036621,0.0,0.0584598071873188,98
1659340949.37965918,201174663,0,23.530317306518555,24.687210083007812,19.82103157043457,118.0033950805664,2.806884765625,0.0,0.058366890996694565,98
1659340949.47967410,201274678,0,23.49898338317871,24.58311653137207,18.57444953918457,118.5193862915039,2.819010019302368,0.0,0.058366890996694565,98
1659340949.57972217,201374726,0,23.590497970581055,24.64179801940918,18.02665138244629,119.02050018310547,2.830831527709961,0.0,0.05831917002797127,98
1659340949.67962313,201474627,0,23.622695922851562,24.644615173339844,17.530719757080078,119.50701904296875,2.8423244953155518,0.0,0.05829310044646263,98
1659340949.77970099,201574705,0,23.646121978759766,24.65727424621582,17.337514877319336,119.98902893066406,2.853722095489502,0.0,0.05832163617014885,98
1659340949.87961817,201674622,0,23.618383407592773,24.646686553955078,17.637210845947266,120.47858428955078,2.8652846813201904,0.0,0.058302994817495346,98
1659340949.97963500,201774639,0,23.579763412475586,24.608585357666016,17.694904327392578,120.97023010253906,2.876877546310425,0.0,0.058142222464084625,98
1659340950.07960010,201874604,0,23.533287048339844,24.61115837097168,18.496191024780273,121.48387145996094,2.888965368270874,0.0,0.05827534943819046,98
1659340950.17970014,201974704,0,23.5456485748291,24.6568603515625,19.095853805541992,122.01478576660156,2.901466131210327,0.0,0.058191243559122086,98
1659340950.27960610,202074610,0,23.612443923950195,24.665842056274414,18.07145881652832,122.51642608642578,2.913311243057251,0.0,0.058290719985961914,98
1659340950.37963915,202174643,0,23.600175857543945,24.669710159301758,18.31942367553711,123.02549743652344,2.925325393676758,0.0,0.058382488787174225,98
1659340950.47971916,202274723,0,23.53501319885254,24.612852096557617,18.407808303833008,123.53728485107422,2.9373703002929688,0.0,0.0585533082485199,98
1659340950.57963014,202374634,0,23.529634475708008,24.595417022705078,18.201921463012695,124.04248046875,2.9492573738098145,0.0,0.0585533082485199,98
1659340950.67966604,202474670,0,23.575164794921875,24.64950180053711,18.33507537841797,124.55200958251953,2.9612696170806885,0.0,0.058594584465026855,98
1659340950.77965617,202574660,0,23.56740379333496,24.658031463623047,18.613117218017578,125.06903076171875,2.973454475402832,0.0,0.058594584465026855,98
1659340950.87973404,202674738,0,23.586185455322266,24.665969848632812,18.428062438964844,125.58123016357422,2.9855353832244873,0.0,0.058594584465026855,98
1659340950.97961712,202774621,0,23.54909896850586,24.573877334594727,17.489288330078125,126.06664276123047,2.9969663619995117,0.0,0.058594584465026855,98
1659340951.07973313,202874737,0,23.575164794921875,24.61348533630371,17.745849609375,126.56019592285156,3.0086019039154053,0.0,0.05851065367460251,98
1659340951.17961717,202974621,0,23.609281539916992,24.637561798095703,17.566011428833008,127.04761505126953,3.0201094150543213,0.0,0.05853808671236038,98
1659340951.27964520,203074649,0,23.65642547607422,24.649869918823242,16.951005935668945,127.51864624023438,3.031252384185791,0.0,0.05860680714249611,98
1659340951.37964606,203174650,0,23.633237838745117,24.596052169799805,16.471750259399414,127.97623443603516,3.042066812515259,0.0,0.05845249816775322,98
1659340951.47960615,203274610,0,23.597396850585938,24.575754165649414,16.794492721557617,128.44259643554688,3.0530717372894287,0.0,0.05825468897819519,98
1659340951.57965207,203374656,0,23.673294067382812,24.616830825805664,16.195446014404297,128.89271545410156,3.063727378845215,0.0,0.05825939029455185,98
1659340951.67962408,203474628,0,23.74449348449707,24.62076759338379,15.036020278930664,129.310302734375,3.0736427307128906,0.0,0.05827832967042923,98
1659340951.77968907,203574693,0,23.730215072631836,24.62822914123535,15.39753532409668,129.7383270263672,3.0837996006011963,0.0,0.05832194536924362,98
1659340951.87964606,203674650,0,23.628446578979492,24.58692169189453,16.434206008911133,130.19467163085938,3.0945825576782227,0.0,0.05832194536924362,98
1659340951.97967005,203774674,0,23.62106704711914,24.572580337524414,16.31482696533203,130.64801025390625,3.1052908897399902,0.0,0.05832194536924362,98
1659340952.07966805,203874672,0,23.723892211914062,24.636974334716797,15.62493896484375,131.08206176757812,3.1155881881713867,0.0,0.05843748524785042,98
1659340952.17967105,203974675,0,23.69466209411621,24.623939514160156,15.89132022857666,131.52352905273438,3.1260488033294678,0.0,0.05847708135843277,98
1659340952.27964211,204074646,0,23.681472778320312,24.637474060058594,16.348310470581055,131.97755432128906,3.136800765991211,0.0,0.05847708135843277,98
1659340952.37963820,204174642,0,23.6593017578125,24.630502700805664,16.622020721435547,132.43930053710938,3.1477253437042236,0.0,0.058428578078746796,98
1659340952.47974801,204274752,0,23.7056827545166,24.53313446044922,14.244860649108887,132.83544921875,3.157116413116455,0.0,0.05808769538998604,98
1659340952.57969618,204374700,0,23.790491104125977,24.5762882232666,13.550677299499512,133.21168518066406,3.166067361831665,0.0,0.057989444583654404,98
1659340952.67964411,204474648,0,23.807165145874023,24.60685920715332,13.780230522155762,133.59429931640625,3.1751763820648193,0.0,0.058031972497701645,98
1659340952.77961802,204574622,0,23.777076721191406,24.62567710876465,14.596248626708984,133.9996795654297,3.1848151683807373,0.0,0.058138299733400345,98
1659340952.87967610,204674680,0,23.62997817993164,24.605485916137695,16.780683517456055,134.4661102294922,3.1958370208740234,0.0,0.05813278630375862,98
1659340952.97969103,204774695,0,23.59519386291504,24.570249557495117,16.729433059692383,134.93092346191406,3.2068042755126953,0.0,0.05828384682536125,98
1659340953.07963920,204874643,0,23.66581916809082,24.60211753845215,16.066246032714844,135.3769989013672,3.2173609733581543,0.0,0.05827731266617775,98
1659340953.17965102,204974655,0,23.692012786865234,24.634553909301758,16.173385620117188,135.8263397216797,3.228006601333618,0.0,0.05827731266617775,98
1659340953.27963805,205074642,0,23.70635414123535,24.63993263244629,16.01959991455078,136.27133178710938,3.238555908203125,0.0,0.05827731266617775,98
1659340953.37966204,205174666,0,23.696292877197266,24.634700775146484,16.102458953857422,136.71876525878906,3.2491583824157715,0.0,0.05827731266617775,98
1659340953.47961617,205274620,0,23.641286849975586,24.589336395263672,16.235340118408203,137.16957092285156,3.2598159313201904,0.0,0.05839415639638901,98
1659340953.57968712,205374691,0,23.633237838745117,24.576997756958008,16.11811065673828,137.61766052246094,3.2704055309295654,0.0,0.05855277180671692,98
1659340953.67967010,205474674,0,23.657194137573242,24.630447387695312,16.64872169494629,138.0800018310547,3.281343460083008,0.0,0.058458101004362106,98
1659340953.77971911,205574723,0,23.669174194335938,24.62958335876465,16.451698303222656,138.53732299804688,3.292167901992798,0.0,0.05837753042578697,98
1659340953.87962413,205674628,0,23.67827606201172,24.631269454956055,16.32464599609375,138.9904022216797,3.3028957843780518,0.0,0.05837753042578697,98
1659340953.97963405,205774638,0,23.608001708984375,24.560638427734375,16.250106811523438,139.44186401367188,3.313554048538208,0.0,0.05862341821193695,98
1659340954.07968712,205874691,0,23.615413665771484,24.592634201049805,16.647186279296875,139.90457153320312,3.3244810104370117,0.0,0.05870179086923599,98
1659340954.17961407,205974618,0,23.646268844604492,24.624183654785156,16.678796768188477,140.36756896972656,3.3354291915893555,0.0,0.058632176369428635,98
1659340954.27968216,206074686,0,23.659975051879883,24.63558578491211,16.639514923095703,140.83006286621094,3.346371650695801,0.0,0.058632176369428635,98
1659340954.37963700,206174641,0,23.63007354736328,24.601213455200195,16.546833038330078,141.2895965576172,3.3572306632995605,0.0,0.058690376579761505,98
1659340954.47965217,206274656,0,23.606595993041992,24.557329177856445,16.199127197265625,141.7396697998047,3.3678553104400635,0.0,0.058690376579761505,98
1659340954.57961822,206374622,0,23.679330825805664,24.623167037963867,16.06102752685547,142.18569946289062,3.3784167766571045,0.0,0.058765608817338943,98
1659340954.67968202,206474686,0,23.70328712463379,24.630882263183594,15.760891914367676,142.62379455566406,3.388801097869873,0.0,0.05885425582528114,98
1659340954.77960920,206574613,0,23.676456451416016,24.63751983642578,16.32955551147461,143.07713317871094,3.3995344638824463,0.0,0.05885425582528114,98
1659340954.87965322,206674657,0,23.587560653686523,24.572187423706055,16.673614501953125,143.54052734375,3.4104647636413574,0.0,0.05905294418334961,98
1659340954.97966123,206774665,0,23.60774803161621,24.55994987487793,16.124555587768555,143.98851013183594,3.4210405349731445,0.0,0.05905294418334961,98
1659340955.07963610,206874640,0,23.639753341674805,24.628421783447266,16.773319244384766,144.454345703125,3.4320528507232666,0.0,0.058942925184965134,98
1659340955.17969203,206974696,0,23.652019500732422,24.620500564575195,16.430830001831055,144.9110565185547,3.4428551197052,0.0,0.058942925184965134,98
1659340955.27966499,207074669,0,23.677223205566406,24.63461685180664,16.215087890625,145.36138916015625,3.4535176753997803,0.0,0.05904342234134674,98
1659340955.37966919,207174673,0,23.682109832763672,24.626737594604492,15.985840797424316,145.8054962158203,3.4640350341796875,0.0,0.0590914711356163,98
1659340955.47963810,207274642,0,23.629499435424805,24.556209564208984,15.682635307312012,146.24102783203125,3.4743263721466064,0.0,0.0590914711356163,98
1659340955.57974005,207374744,0,23.667736053466797,24.622455596923828,16.14020538330078,146.6898651123047,3.4849491119384766,0.0,0.059151578694581985,98
1659340955.67969012,207474694,0,23.64540672302246,24.609039306640625,16.28935432434082,147.14215087890625,3.4956436157226562,0.0,0.05915716663002968,98
1659340955.77963400,207574638,0,23.677104949951172,24.64085578918457,16.291366577148438,147.594482421875,3.5063533782958984,0.0,0.05915716663002968,98
1659340955.87968802,207674692,0,23.62911605834961,24.5930233001709,16.266952514648438,148.04661560058594,3.5170369148254395,0.0,0.05925549566745758,98
1659340955.97962022,207774624,0,23.612346649169922,24.572925567626953,16.210790634155273,148.49664306640625,3.527663230895996,0.0,0.05925549566745758,98
1659340956.07974100,207874745,0,23.609086990356445,24.608434677124023,16.867839813232422,148.96580505371094,3.5387396812438965,0.0,0.05924577638506889,98
1659340956.17964506,207974649,0,23.639944076538086,24.623382568359375,16.59931182861328,149.42648315429688,3.5496301651000977,0.0,0.05924577638506889,98
1659340956.27969313,208074697,0,23.665149688720703,24.64238929748535,16.49466323852539,149.8849334716797,3.5604794025421143,0.0,0.05924577638506889,98
1659340956.37964606,208174650,0,23.67013168334961,24.632051467895508,16.217849731445312,150.3352508544922,3.571138620376587,0.0,0.0593123696744442,98
1659340956.47964001,208274644,0,23.626720428466797,24.578428268432617,16.045682907104492,150.78097534179688,3.581669569015503,0.0,0.0593123696744442,98
1659340956.57965803,208374662,0,23.628158569335938,24.572786331176758,15.926304817199707,151.22348022460938,3.592125415802002,0.0,0.0593123696744442,98
1659340956.67969799,208474702,0,23.665435791015625,24.611591339111328,15.945637702941895,151.6666259765625,3.6026127338409424,0.0,0.059336379170417786,98
1659340956.77969408,208574698,0,23.653148651123047,24.63444709777832,16.537899017333984,152.1259765625,3.6134777069091797,0.0,0.059336379170417786,98
1659340956.87963510,208674639,0,23.6298828125,24.631086349487305,16.898221969604492,152.59518432617188,3.6245651245117188,0.0,0.05924900993704796,98
1659340956.97963309,208774637,0,23.59528923034668,24.55414390563965,16.1834774017334,153.0447540283203,3.6351728439331055,0.0,0.05924900993704796,98
1659340957.07963920,208874643,0,23.64512062072754,24.582538604736328,15.84344482421875,153.4849090576172,3.645580530166626,0.0,0.059167612344026566,98
1659340957.17970920,208974713,0,23.633525848388672,24.609893798828125,16.51522445678711,153.94403076171875,3.656430959701538,0.0,0.059119291603565216,98
1659340957.27961302,209074617,0,23.629308700561523,24.62980842590332,16.96113395690918,154.4147491455078,3.6675539016723633,0.0,0.0589878149330616,98
1659340957.37972522,209174729,0,23.63496208190918,24.58151626586914,16.04660415649414,154.86102294921875,3.6781017780303955,0.0,0.0589878149330616,98
