timestamp,TimeUS,C1,C2,C3,C4,C5,C6,C7,C8,C9,C10,C11,C12,C13,C14
1660547588.34580827,84825678,1100,1100,1100,1100,0,0,0,0,0,0,0,0,0,0
1660547588.44544625,84925316,1100,1100,1100,1100,0,0,0,0,0,0,0,0,0,0
1660547588.54508924,85024959,1100,1100,1100,1100,0,0,0,0,0,0,0,0,0,0
1660547588.64534521,85125215,1100,1100,1100,1100,0,0,0,0,0,0,0,0,0,0
1660547588.74507022,85224940,1100,1100,1100,1100,0,0,0,0,0,0,0,0,0,0
1660547588.84544015,85325310,1100,1100,1100,1100,0,0,0,0,0,0,0,0,0,0
1660547588.94508410,85424954,1100,1100,1100,1100,0,0,0,0,0,0,0,0,0,0
1660547589.04539227,85525262,1100,1100,1100,1100,0,0,0,0,0,0,0,0,0,0
1660547589.14570522,85625575,1100,1100,1100,1100,0,0,0,0,0,0,0,0,0,0
1660547589.24550104,85725371,1100,1100,1100,1100,0,0,0,0,0,0,0,0,0,0
1660547589.34552217,85825392,1100,1100,1100,1100,0,0,0,0,0,0,0,0,0,0
1660547589.44553018,85925400,1100,1100,1100,1100,0,0,0,0,0,0,0,0,0,0
1660547589.54513407,86025004,1100,1100,1100,1100,0,0,0,0,0,0,0,0,0,0
1660547589.64552712,86125397,1100,1100,1100,1100,0,0,0,0,0,0,0,0,0,0
1660547589.74558711,86225457,1100,1100,1100,1100,0,0,0,0,0,0,0,0,0,0
1660547589.84544611,86325316,1100,1100,1100,1100,0,0,0,0,0,0,0,0,0,0
1660547589.94514108,86425011,1100,1100,1100,1100,0,0,0,0,0,0,0,0,0,0
1660547590.04546118,86525331,1100,1100,1100,1100,0,0,0,0,0,0,0,0,0,0
1660547590.14520311,86625073,1100,1100,1100,1100,0,0,0,0,0,0,0,0,0,0
1660547590.24508810,86724958,1100,1100,1100,1100,0,0,0,0,0,0,0,0,0,0
1660547590.34508419,86824954,1100,1100,1100,1100,0,0,0,0,0,0,0,0,0,0
1660547590.44548106,86925351,1116,1116,1116,1116,0,0,0,0,0,0,0,0,0,0
1660547590.54507422,87024944,1136,1136,1136,1136,0,0,0,0,0,0,0,0,0,0
1660547590.64538527,87125255,1155,1155,1155,1155,0,0,0,0,0,0,0,0,0,0
1660547590.74508905,87224959,1174,1174,1174,1174,0,0,0,0,0,0,0,0,0,0
1660547590.84536123,87325231,1184,1184,1184,1184,0,0,0,0,0,0,0,0,0,0
1660547590.94552922,87425399,1184,1184,1184,1184,0,0,0,0,0,0,0,0,0,0
1660547591.04549527,87525365,1184,1184,1184,1184,0,0,0,0,0,0,0,0,0,0
1660547591.14562511,87625495,1184,1184,1184,1184,0,0,0,0,0,0,0,0,0,0
1660547591.24578714,87725657,1184,1184,1184,1184,0,0,0,0,0,0,0,0,0,0
1660547591.34512925,87824999,1184,1184,1184,1184,0,0,0,0,0,0,0,0,0,0
1660547591.44559121,87925461,1184,1184,1184,1184,0,0,0,0,0,0,0,0,0,0
1660547591.54508615,88024956,1184,1184,1184,1184,0,0,0,0,0,0,0,0,0,0
1660547591.64547324,88125343,1184,1184,1184,1184,0,0,0,0,0,0,0,0,0,0
1660547591.74508309,88224953,1184,1184,1184,1184,0,0,0,0,0,0,0,0,0,0
1660547591.84551024,88325380,1184,1184,1184,1184,0,0,0,0,0,0,0,0,0,0
1660547591.94513416,88425004,1184,1184,1184,1184,0,0,0,0,0,0,0,0,0,0
1660547592.04544926,88525319,1184,1184,1184,1184,0,0,0,0,0,0,0,0,0,0
1660547592.14508605,88624956,1184,1184,1184,1184,0,0,0,0,0,0,0,0,0,0
1660547592.24539518,88725265,1184,1184,1184,1184,0,0,0,0,0,0,0,0,0,0
1660547592.34512210,88824992,1184,1184,1184,1184,0,0,0,0,0,0,0,0,0,0
1660547592.44539523,88925265,1184,1184,1184,1184,0,0,0,0,0,0,0,0,0,0
1660547592.54550409,89025374,1184,1184,1184,1184,0,0,0,0,0,0,0,0,0,0
1660547592.64544320,89125313,1184,1184,1184,1184,0,0,0,0,0,0,0,0,0,0
1660547592.74555922,89225429,1184,1184,1184,1184,0,0,0,0,0,0,0,0,0,0
1660547592.84563208,89325502,1184,1184,1184,1184,0,0,0,0,0,0,0,0,0,0
1660547592.94511604,89424986,1184,1184,1184,1184,0,0,0,0,0,0,0,0,0,0
1660547593.04557920,89525449,1184,1184,1184,1184,0,0,0,0,0,0,0,0,0,0
1660547593.14507914,89624949,1184,1184,1184,1184,0,0,0,0,0,0,0,0,0,0
1660547593.24544311,89725313,1184,1184,1184,1184,0,0,0,0,0,0,0,0,0,0
1660547593.34521008,89825080,1184,1184,1184,1184,0,0,0,0,0,0,0,0,0,0
1660547593.44553113,89925401,1184,1184,1184,1184,0,0,0,0,0,0,0,0,0,0
1660547593.54504514,90024915,1184,1184,1184,1184,0,0,0,0,0,0,0,0,0,0
1660547593.64537621,90125246,1184,1184,1184,1184,0,0,0,0,0,0,0,0,0,0
1660547593.74514508,90225015,1184,1184,1184,1184,0,0,0,0,0,0,0,0,0,0
1660547593.84533310,90325203,1184,1184,1184,1184,0,0,0,0,0,0,0,0,0,0
1660547593.94529819,90425168,1184,1184,1184,1184,0,0,0,0,0,0,0,0,0,0
1660547594.04536510,90525235,1184,1184,1184,1184,0,0,0,0,0,0,0,0,0,0
1660547594.14558411,90625454,1184,1184,1184,1184,0,0,0,0,0,0,0,0,0,0
1660547594.24558425,90725454,1184,1184,1184,1184,0,0,0,0,0,0,0,0,0,0
1660547594.34517717,90825047,1184,1184,1184,1184,0,0,0,0,0,0,0,0,0,0
1660547594.44559717,90925467,1184,1184,1184,1184,0,0,0,0,0,0,0,0,0,0
1660547594.54511905,91024989,1184,1184,1184,1184,0,0,0,0,0,0,0,0,0,0
1660547594.64552617,91125396,1184,1184,1184,1184,0,0,0,0,0,0,0,0,0,0
1660547594.74506307,91224933,1184,1184,1184,1184,0,0,0,0,0,0,0,0,0,0
1660547594.84545708,91325327,1184,1184,1184,1184,0,0,0,0,0,0,0,0,0,0
1660547594.94508123,91424951,1184,1184,1184,1184,0,0,0,0,0,0,0,0,0,0
1660547595.04545712,91525327,1184,1184,1184,1184,0,0,0,0,0,0,0,0,0,0
1660547595.14507008,91624940,1184,1184,1184,1184,0,0,0,0,0,0,0,0,0,0
1660547595.24536824,91725238,1184,1184,1184,1184,0,0,0,0,0,0,0,0,0,0
1660547595.34557223,91825442,1184,1184,1184,1184,0,0,0,0,0,0,0,0,0,0
1660547595.44558120,91925451,1184,1184,1184,1184,0,0,0,0,0,0,0,0,0,0
1660547595.54516006,92025030,1184,1184,1184,1184,0,0,0,0,0,0,0,0,0,0
1660547595.64548516,92125355,1184,1184,1184,1184,0,0,0,0,0,0,0,0,0,0
1660547595.74557424,92225444,1184,1184,1184,1184,0,0,0,0,0,0,0,0,0,0
1660547595.84547806,92325348,1184,1184,1184,1184,0,0,0,0,0,0,0,0,0,0
1660547595.94561005,92425480,1184,1184,1184,1184,0,0,0,0,0,0,0,0,0,0
1660547596.04555821,92525428,1184,1184,1184,1184,0,0,0,0,0,0,0,0,0,0
1660547596.14512205,92624992,1184,1184,1184,1184,0,0,0,0,0,0,0,0,0,0
1660547596.24556613,92725436,1184,1184,1184,1184,0,0,0,0,0,0,0,0,0,0
1660547596.34508705,92824957,1184,1184,1184,1184,0,0,0,0,0,0,0,0,0,0
1660547596.44551206,92925382,1184,1184,1184,1184,0,0,0,0,0,0,0,0,0,0
1660547596.54506922,93024939,1184,1184,1184,1184,0,0,0,0,0,0,0,0,0,0
1660547596.64542627,93125296,1184,1184,1184,1184,0,0,0,0,0,0,0,0,0,0
1660547596.74508023,93224950,1184,1184,1184,1184,0,0,0,0,0,0,0,0,0,0
1660547596.84539008,93325260,1184,1184,1184,1184,0,0,0,0,0,0,0,0,0,0
1660547596.94558024,93425450,1184,1184,1184,1184,0,0,0,0,0,0,0,0,0,0
1660547597.04541612,93525286,1184,1184,1184,1184,0,0,0,0,0,0,0,0,0,0
1660547597.14552617,93625396,1184,1184,1184,1184,0,0,0,0,0,0,0,0,0,0
1660547597.24552321,93725393,1184,1184,1184,1184,0,0,0,0,0,0,0,0,0,0
1660547597.34581017,93825680,1184,1184,1184,1184,0,0,0,0,0,0,0,0,0,0
1660547597.44559813,93925468,1184,1184,1184,1184,0,0,0,0,0,0,0,0,0,0
1660547597.54525614,94025126,1184,1184,1184,1184,0,0,0,0,0,0,0,0,0,0
1660547597.64553714,94125407,1184,1184,1184,1184,0,0,0,0,0,0,0,0,0,0
1660547597.74511409,94224984,1184,1184,1184,1184,0,0,0,0,0,0,0,0,0,0
1660547597.84544706,94325317,1184,1184,1184,1184,0,0,0,0,0,0,0,0,0,0
1660547597.94510913,94424979,1184,1184,1184,1184,0,0,0,0,0,0,0,0,0,0
1660547598.04546905,94525339,1184,1184,1184,1184,0,0,0,0,0,0,0,0,0,0
1660547598.14557314,94625443,1184,1184,1184,1184,0,0,0,0,0,0,0,0,0,0
1660547598.24560905,94725479,1184,1184,1184,1184,0,0,0,0,0,0,0,0,0,0
1660547598.34511614,94824986,1100,1100,1100,1100,0,0,0,0,0,0,0,0,0,0
1660547598.44555926,94925429,1100,1100,1100,1100,0,0,0,0,0,0,0,0,0,0
1660547598.54517221,95025042,1100,1100,1100,1100,0,0,0,0,0,0,0,0,0,0
1660547598.64547014,95125340,1100,1100,1100,1100,0,0,0,0,0,0,0,0,0,0
1660547598.74561310,95225483,1100,1100,1100,1100,0,0,0,0,0,0,0,0,0,0
1660547598.84550405,95325374,1100,1100,1100,1100,0,0,0,0,0,0,0,0,0,0
1660547598.94520712,95425077,1100,1100,1100,1100,0,0,0,0,0,0,0,0,0,0
1660547599.04563117,95525501,1100,1100,1100,1100,0,0,0,0,0,0,0,0,0,0
1660547599.14527726,95625147,1100,1100,1100,1100,0,0,0,0,0,0,0,0,0,0
1660547599.24553227,95725402,1100,1100,1100,1100,0,0,0,0,0,0,0,0,0,0
1660547599.34518909,95825059,1100,1100,1100,1100,0,0,0,0,0,0,0,0,0,0
1660547599.44554520,95925415,1100,1100,1100,1100,0,0,0,0,0,0,0,0,0,0
1660547599.54566121,96025531,1100,1100,1100,1100,0,0,0,0,0,0,0,0,0,0
1660547599.64565611,96125526,1100,1100,1100,1100,0,0,0,0,0,0,0,0,0,0
1660547599.74513125,96225001,1100,1100,1100,1100,0,0,0,0,0,0,0,0,0,0
1660547599.84562826,96325498,1100,1100,1100,1100,0,0,0,0,0,0,0,0,0,0
1660547599.94566917,96425539,1100,1100,1100,1100,0,0,0,0,0,0,0,0,0,0
1660547600.04553723,96525407,1100,1100,1100,1100,0,0,0,0,0,0,0,0,0,0
1660547600.14519906,96625069,1100,1100,1100,1100,0,0,0,0,0,0,0,0,0,0
1660547600.24553823,96725408,1100,1100,1100,1100,0,0,0,0,0,0,0,0,0,0
1660547600.34514427,96825014,1100,1100,1100,1100,0,0,0,0,0,0,0,0,0,0
1660547600.44552517,96925395,1100,1100,1100,1100,0,0,0,0,0,0,0,0,0,0
1660547600.54520226,97025072,1100,1100,1100,1100,0,0,0,0,0,0,0,0,0,0
1660547600.64552212,97125392,1100,1100,1100,1100,0,0,0,0,0,0,0,0,0,0
1660547600.74517608,97225046,1100,1100,1100,1100,0,0,0,0,0,0,0,0,0,0
1660547600.84557223,97325442,1100,1100,1100,1100,0,0,0,0,0,0,0,0,0,0
1660547600.94528222,97425152,1100,1100,1100,1100,0,0,0,0,0,0,0,0,0,0
1660547601.04553604,97525406,1100,1100,1100,1100,0,0,0,0,0,0,0,0,0,0
1660547601.14513516,97625005,1100,1100,1100,1100,0,0,0,0,0,0,0,0,0,0
1660547601.24545813,97725328,1100,1100,1100,1100,0,0,0,0,0,0,0,0,0,0
1660547601.34513617,97825006,1100,1100,1100,1100,0,0,0,0,0,0,0,0,0,0
1660547601.44548917,97925359,1100,1100,1100,1100,0,0,0,0,0,0,0,0,0,0
1660547601.54565024,98025520,1100,1100,1100,1100,0,0,0,0,0,0,0,0,0,0
1660547601.64543605,98125306,1100,1100,1100,1100,0,0,0,0,0,0,0,0,0,0
1660547601.74577522,98225645,1100,1100,1100,1100,0,0,0,0,0,0,0,0,0,0
1660547601.84567714,98325547,1100,1100,1100,1100,0,0,0,0,0,0,0,0,0,0
1660547601.94565225,98425522,1100,1100,1100,1100,0,0,0,0,0,0,0,0,0,0
1660547602.04569507,98525565,1100,1100,1100,1100,0,0,0,0,0,0,0,0,0,0
1660547602.14525509,98625125,1100,1100,1100,1100,0,0,0,0,0,0,0,0,0,0
1660547602.24564409,98725514,1100,1100,1100,1100,0,0,0,0,0,0,0,0,0,0
1660547602.34524608,98825116,1100,1100,1100,1100,0,0,0,0,0,0,0,0,0,0
1660547602.44557214,98925442,1100,1100,1100,1100,0,0,0,0,0,0,0,0,0,0
1660547602.54517913,99025049,1100,1100,1100,1100,0,0,0,0,0,0,0,0,0,0
1660547602.64549208,99125362,1100,1100,1100,1100,0,0,0,0,0,0,0,0,0,0
1660547602.74523211,99225102,1100,1100,1100,1100,0,0,0,0,0,0,0,0,0,0
1660547602.84556818,99325438,1100,1100,1100,1100,0,0,0,0,0,0,0,0,0,0
1660547602.94516206,99425032,1100,1100,1100,1100,0,0,0,0,0,0,0,0,0,0
1660547603.04550815,99525378,1100,1100,1100,1100,0,0,0,0,0,0,0,0,0,0
1660547603.14513326,99625003,1100,1100,1100,1100,0,0,0,0,0,0,0,0,0,0
1660547603.24544621,99725316,1100,1100,1100,1100,0,0,0,0,0,0,0,0,0,0
1660547603.34516811,99825038,1100,1100,1100,1100,0,0,0,0,0,0,0,0,0,0
1660547603.44547224,99925342,1100,1100,1100,1100,0,0,0,0,0,0,0,0,0,0
1660547603.54573512,100025605,1100,1100,1100,1100,0,0,0,0,0,0,0,0,0,0
1660547603.64565825,100125528,1100,1100,1100,1100,0,0,0,0,0,0,0,0,0,0
1660547603.74571419,100225584,1100,1100,1100,1100,0,0,0,0,0,0,0,0,0,0
1660547603.84580326,100325673,1100,1100,1100,1100,0,0,0,0,0,0,0,0,0,0
1660547603.94524312,100425113,1100,1100,1100,1100,0,0,0,0,0,0,0,0,0,0
1660547604.04570007,100525570,1100,1100,1100,1100,0,0,0,0,0,0,0,0,0,0
1660547604.14518905,100625059,1100,1100,1100,1100,0,0,0,0,0,0,0,0,0,0
1660547604.24554205,100725412,1100,1100,1100,1100,0,0,0,0,0,0,0,0,0,0
1660547604.34517527,100825045,1100,1100,1100,1100,0,0,0,0,0,0,0,0,0,0
1660547604.44556022,100925430,1100,1100,1100,1100,0,0,0,0,0,0,0,0,0,0
1660547604.54521418,101025084,1100,1100,1100,1100,0,0,0,0,0,0,0,0,0,0
1660547604.64543009,101125300,1100,1100,1100,1100,0,0,0,0,0,0,0,0,0,0
1660547604.74559021,101225460,1100,1100,1100,1100,0,0,0,0,0,0,0,0,0,0
1660547604.84547019,101325340,1100,1100,1100,1100,0,0,0,0,0,0,0,0,0,0
1660547604.94560909,101425479,1100,1100,1100,1100,0,0,0,0,0,0,0,0,0,0
1660547605.04553413,101525404,1100,1100,1100,1100,0,0,0,0,0,0,0,0,0,0
1660547605.14512420,101624994,1100,1100,1100,1100,0,0,0,0,0,0,0,0,0,0
1660547605.24535322,101725223,1100,1100,1100,1100,0,0,0,0,0,0,0,0,0,0
1660547605.34560323,101825473,1100,1100,1100,1100,0,0,0,0,0,0,0,0,0,0
1660547605.44553518,101925405,1100,1100,1100,1100,0,0,0,0,0,0,0,0,0,0
1660547605.54511404,102024984,1100,1100,1100,1100,0,0,0,0,0,0,0,0,0,0
1660547605.64556408,102125434,1100,1100,1100,1100,0,0,0,0,0,0,0,0,0,0
1660547605.74504924,102224919,1100,1100,1100,1100,0,0,0,0,0,0,0,0,0,0
1660547605.84550214,102325372,1100,1100,1100,1100,0,0,0,0,0,0,0,0,0,0
1660547605.94526625,102425136,1100,1100,1100,1100,0,0,0,0,0,0,0,0,0,0
1660547606.04541421,102525284,1100,1100,1100,1100,0,0,0,0,0,0,0,0,0,0
1660547606.14506626,102624936,1100,1100,1100,1100,0,0,0,0,0,0,0,0,0,0
1660547606.24537516,102725245,1100,1100,1100,1100,0,0,0,0,0,0,0,0,0,0
1660547606.34514713,102825017,1100,1100,1100,1100,0,0,0,0,0,0,0,0,0,0
1660547606.44537520,102925245,1100,1100,1100,1100,0,0,0,0,0,0,0,0,0,0
1660547606.54549623,103025366,1100,1100,1100,1100,0,0,0,0,0,0,0,0,0,0
1660547606.64549327,103125363,1100,1100,1100,1100,0,0,0,0,0,0,0,0,0,0
1660547606.74561810,103225488,1100,1100,1100,1100,0,0,0,0,0,0,0,0,0,0
1660547606.84553027,103325400,1100,1100,1100,1100,0,0,0,0,0,0,0,0,0,0
1660547606.94517517,103425045,1100,1100,1100,1100,0,0,0,0,0,0,0,0,0,0
1660547607.04555225,103525422,1100,1100,1100,1100,0,0,0,0,0,0,0,0,0,0
1660547607.14514112,103625011,1110,1110,1110,1110,0,0,0,0,0,0,0,0,0,0
1660547607.24548626,103725356,1130,1130,1130,1130,0,0,0,0,0,0,0,0,0,0
1660547607.34507418,103824944,1149,1149,1149,1149,0,0,0,0,0,0,0,0,0,0
1660547607.44550824,103925378,1168,1168,1168,1168,0,0,0,0,0,0,0,0,0,0
1660547607.54503012,104024900,1184,1184,1184,1184,0,0,0,0,0,0,0,0,0,0
1660547607.64538622,104125256,1184,1184,1184,1184,0,0,0,0,0,0,0,0,0,0
1660547607.74552417,104225394,1184,1184,1184,1184,0,0,0,0,0,0,0,0,0,0
1660547607.84539723,104325267,1184,1184,1184,1184,0,0,0,0,0,0,0,0,0,0
1660547607.94557524,104425445,1184,1184,1184,1184,0,0,0,0,0,0,0,0,0,0
1660547608.04564023,104525510,1184,1184,1184,1184,0,0,0,0,0,0,0,0,0,0
1660547608.14555025,104625420,1184,1184,1184,1184,0,0,0,0,0,0,0,0,0,0
1660547608.24550605,104725376,1184,1184,1184,1184,0,0,0,0,0,0,0,0,0,0
1660547608.34514713,104825017,1184,1184,1184,1184,0,0,0,0,0,0,0,0,0,0
1660547608.44557619,104925446,1184,1184,1184,1184,0,0,0,0,0,0,0,0,0,0
1660547608.54512405,105024994,1184,1184,1184,1184,0,0,0,0,0,0,0,0,0,0
1660547608.64551425,105125384,1184,1184,1184,1184,0,0,0,0,0,0,0,0,0,0
1660547608.74512315,105224993,1184,1184,1184,1184,0,0,0,0,0,0,0,0,0,0
1660547608.84551716,105325387,1184,1184,1184,1184,0,0,0,0,0,0,0,0,0,0
1660547608.94508815,105424958,1184,1184,1184,1184,0,0,0,0,0,0,0,0,0,0
1660547609.04549623,105525366,1184,1184,1184,1184,0,0,0,0,0,0,0,0,0,0
1660547609.14503121,105624901,1184,1184,1184,1184,0,0,0,0,0,0,0,0,0,0
1660547609.24537015,105725240,1184,1184,1184,1184,0,0,0,0,0,0,0,0,0,0
1660547609.34509826,105824968,1184,1184,1184,1184,0,0,0,0,0,0,0,0,0,0
1660547609.44539404,105925264,1184,1184,1184,1184,0,0,0,0,0,0,0,0,0,0
1660547609.54556417,106025434,1184,1184,1184,1184,0,0,0,0,0,0,0,0,0,0
1660547609.64536119,106125231,1184,1184,1184,1184,0,0,0,0,0,0,0,0,0,0
1660547609.74510121,106224971,1184,1184,1184,1184,0,0,0,0,0,0,0,0,0,0
1660547609.84564710,106325517,1184,1184,1184,1184,0,0,0,0,0,0,0,0,0,0
1660547609.94567513,106425545,1184,1184,1184,1184,0,0,0,0,0,0,0,0,0,0
1660547610.04544020,106525310,1184,1184,1184,1184,0,0,0,0,0,0,0,0,0,0
1660547610.14525604,106625126,1184,1184,1184,1184,0,0,0,0,0,0,0,0,0,0
1660547610.24545717,106725327,1184,1184,1184,1184,0,0,0,0,0,0,0,0,0,0
1660547610.34509015,106824960,1184,1184,1184,1184,0,0,0,0,0,0,0,0,0,0
1660547610.44544625,106925316,1184,1184,1184,1184,0,0,0,0,0,0,0,0,0,0
1660547610.54508924,107024959,1184,1184,1184,1184,0,0,0,0,0,0,0,0,0,0
1660547610.64543414,107125304,1184,1184,1184,1184,0,0,0,0,0,0,0,0,0,0
1660547610.74506521,107224935,1184,1184,1184,1184,0,0,0,0,0,0,0,0,0,0
1660547610.84550405,107325374,1184,1184,1184,1184,0,0,0,0,0,0,0,0,0,0
1660547610.94512415,107424994,1184,1184,1184,1184,0,0,0,0,0,0,0,0,0,0
1660547611.04546523,107525335,1184,1184,1184,1184,0,0,0,0,0,0,0,0,0,0
1660547611.14559221,107625462,1184,1184,1184,1184,0,0,0,0,0,0,0,0,0,0
1660547611.24538827,107725258,1184,1184,1184,1184,0,0,0,0,0,0,0,0,0,0
1660547611.34552026,107825390,1184,1184,1184,1184,0,0,0,0,0,0,0,0,0,0
1660547611.44563508,107925505,1184,1184,1184,1184,0,0,0,0,0,0,0,0,0,0
1660547611.54518604,108025056,1184,1184,1184,1184,0,0,0,0,0,0,0,0,0,0
1660547611.64544225,108125312,1184,1184,1184,1184,0,0,0,0,0,0,0,0,0,0
1660547611.74527907,108225149,1184,1184,1184,1184,0,0,0,0,0,0,0,0,0,0
1660547611.84554124,108325411,1184,1184,1184,1184,0,0,0,0,0,0,0,0,0,0
1660547611.94517922,108425049,1184,1184,1184,1184,0,0,0,0,0,0,0,0,0,0
1660547612.04551816,108525388,1184,1184,1184,1184,0,0,0,0,0,0,0,0,0,0
1660547612.14559913,108625469,1184,1184,1184,1184,0,0,0,0,0,0,0,0,0,0
1660547612.24560213,108725472,1184,1184,1184,1184,0,0,0,0,0,0,0,0,0,0
1660547612.34511423,108824984,1184,1184,1184,1184,0,0,0,0,0,0,0,0,0,0
1660547612.44563723,108925507,1184,1184,1184,1184,0,0,0,0,0,0,0,0,0,0
1660547612.54557824,109025448,1184,1184,1184,1184,0,0,0,0,0,0,0,0,0,0
1660547612.64553523,109125405,1184,1184,1184,1184,0,0,0,0,0,0,0,0,0,0
1660547612.74562216,109225492,1184,1184,1184,1184,0,0,0,0,0,0,0,0,0,0
1660547612.84561610,109325486,1286,1219,1298,1192,0,0,0,0,0,0,0,0,0,0
1660547612.94517517,109425045,1355,1249,1377,1192,0,0,0,0,0,0,0,0,0,0
1660547613.04562926,109525499,1381,1247,1402,1192,0,0,0,0,0,0,0,0,0,0
1660547613.14520812,109625078,1385,1268,1420,1192,0,0,0,0,0,0,0,0,0,0
1660547613.24550605,109725376,1401,1270,1431,1192,0,0,0,0,0,0,0,0,0,0
1660547613.34525323,109825123,1407,1269,1434,1192,0,0,0,0,0,0,0,0,0,0
1660547613.44557524,109925445,1413,1304,1442,1231,0,0,0,0,0,0,0,0,0,0
1660547613.54524517,110025115,1420,1359,1449,1304,0,0,0,0,0,0,0,0,0,0
1660547613.64547420,110125344,1422,1420,1455,1373,0,0,0,0,0,0,0,0,0,0
1660547613.74514723,110225017,1441,1463,1453,1438,0,0,0,0,0,0,0,0,0,0
1660547613.84554315,110325413,1486,1494,1442,1482,0,0,0,0,0,0,0,0,0,0
1660547613.94564605,110425516,1511,1511,1453,1480,0,0,0,0,0,0,0,0,0,0
1660547614.04552126,110525391,1523,1502,1473,1487,0,0,0,0,0,0,0,0,0,0
1660547614.14561009,110625480,1502,1499,1479,1510,0,0,0,0,0,0,0,0,0,0
1660547614.24558425,110725454,1484,1490,1495,1529,0,0,0,0,0,0,0,0,0,0
1660547614.34578419,110825654,1474,1483,1521,1531,0,0,0,0,0,0,0,0,0,0
1660547614.44568205,110925552,1476,1476,1526,1537,0,0,0,0,0,0,0,0,0,0
1660547614.54566026,111025530,1474,1470,1537,1541,0,0,0,0,0,0,0,0,0,0
1660547614.64565516,111125525,1468,1473,1531,1552,0,0,0,0,0,0,0,0,0,0
1660547614.74523020,111225100,1468,1466,1529,1548,0,0,0,0,0,0,0,0,0,0
1660547614.84566116,111325531,1469,1464,1529,1541,0,0,0,0,0,0,0,0,0,0
1660547614.94521618,111425086,1468,1468,1524,1541,0,0,0,0,0,0,0,0,0,0
1660547615.04548907,111525359,1471,1468,1523,1537,0,0,0,0,0,0,0,0,0,0
1660547615.14521623,111625086,1472,1469,1519,1534,0,0,0,0,0,0,0,0,0,0
1660547615.24557710,111725447,1473,1470,1520,1527,0,0,0,0,0,0,0,0,0,0
1660547615.34529209,111825162,1467,1468,1514,1523,0,0,0,0,0,0,0,0,0,0
1660547615.44561219,111925482,1463,1467,1511,1520,0,0,0,0,0,0,0,0,0,0
1660547615.54564309,112025513,1459,1464,1508,1515,0,0,0,0,0,0,0,0,0,0
1660547615.64557910,112125449,1464,1467,1500,1507,0,0,0,0,0,0,0,0,0,0
1660547615.74534726,112225217,1468,1472,1488,1499,0,0,0,0,0,0,0,0,0,0
1660547615.84802413,112327894,1464,1469,1489,1498,0,0,0,0,0,0,0,0,0,0
1660547615.94763422,112427504,1456,1458,1497,1502,0,0,0,0,0,0,0,0,0,0
1660547616.04797506,112527845,1448,1453,1499,1509,0,0,0,0,0,0,0,0,0,0
1660547616.14761424,112627484,1449,1451,1501,1509,0,0,0,0,0,0,0,0,0,0
1660547616.24798918,112727859,1455,1454,1498,1505,0,0,0,0,0,0,0,0,0,0
1660547616.34761810,112827488,1454,1459,1496,1506,0,0,0,0,0,0,0,0,0,0
1660547616.44808412,112927954,1450,1453,1501,1509,0,0,0,0,0,0,0,0,0,0
1660547616.54766822,113027538,1447,1451,1504,1512,0,0,0,0,0,0,0,0,0,0
1660547616.64788222,113127752,1441,1447,1509,1518,0,0,0,0,0,0,0,0,0,0
1660547616.74763227,113227502,1439,1445,1510,1525,0,0,0,0,0,0,0,0,0,0
1660547616.84801126,113327881,1441,1445,1511,1523,0,0,0,0,0,0,0,0,0,0
1660547616.94768715,113427557,1447,1447,1511,1518,0,0,0,0,0,0,0,0,0,0
1660547617.04795122,113527821,1450,1449,1506,1517,0,0,0,0,0,0,0,0,0,0
1660547617.14765310,113627523,1449,1455,1504,1516,0,0,0,0,0,0,0,0,0,0
1660547617.24801612,113727886,1455,1455,1503,1510,0,0,0,0,0,0,0,0,0,0
1660547617.34773421,113827604,1457,1459,1495,1509,0,0,0,0,0,0,0,0,0,0
1660547617.44796109,113927831,1463,1461,1494,1502,0,0,0,0,0,0,0,0,0,0
1660547617.54777622,114027646,1463,1465,1492,1500,0,0,0,0,0,0,0,0,0,0
1660547617.64796615,114127836,1464,1464,1492,1499,0,0,0,0,0,0,0,0,0,0
1660547617.74757814,114227448,1457,1462,1490,1498,0,0,0,0,0,0,0,0,0,0
1660547617.84793425,114327804,1453,1453,1489,1497,0,0,0,0,0,0,0,0,0,0
1660547617.94763708,114427507,1451,1448,1488,1495,0,0,0,0,0,0,0,0,0,0
1660547618.04786205,114527732,1449,1446,1486,1492,0,0,0,0,0,0,0,0,0,0
1660547618.14760327,114627473,1445,1446,1482,1492,0,0,0,0,0,0,0,0,0,0
1660547618.24800515,114727875,1442,1443,1483,1491,0,0,0,0,0,0,0,0,0,0
1660547618.34767413,114827544,1441,1439,1480,1494,0,0,0,0,0,0,0,0,0,0
1660547618.44805217,114927922,1433,1441,1478,1494,0,0,0,0,0,0,0,0,0,0
1660547618.54768610,115027556,1436,1428,1485,1492,0,0,0,0,0,0,0,0,0,0
1660547618.64795017,115127820,1429,1429,1484,1496,0,0,0,0,0,0,0,0,0,0
1660547618.74774718,115227617,1430,1425,1486,1495,0,0,0,0,0,0,0,0,0,0
1660547618.84800220,115327872,1432,1428,1481,1491,0,0,0,0,0,0,0,0,0,0
1660547618.94768620,115427556,1435,1433,1476,1487,0,0,0,0,0,0,0,0,0,0
1660547619.04796815,115527838,1436,1435,1476,1484,0,0,0,0,0,0,0,0,0,0
1660547619.14769506,115627565,1436,1434,1474,1482,0,0,0,0,0,0,0,0,0,0
1660547619.24794221,115727812,1435,1434,1471,1482,0,0,0,0,0,0,0,0,0,0
1660547619.34760213,115827472,1435,1430,1475,1480,0,0,0,0,0,0,0,0,0,0
1660547619.44793415,115927804,1429,1426,1477,1484,0,0,0,0,0,0,0,0,0,0
1660547619.54762411,116027494,1425,1422,1479,1486,0,0,0,0,0,0,0,0,0,0
1660547619.64810610,116127976,1423,1423,1476,1489,0,0,0,0,0,0,0,0,0,0
1660547619.74760413,116227474,1424,1423,1477,1486,0,0,0,0,0,0,0,0,0,0
1660547619.84791923,116327789,1426,1424,1474,1483,0,0,0,0,0,0,0,0,0,0
1660547619.94773507,116427605,1428,1424,1471,1479,0,0,0,0,0,0,0,0,0,0
1660547620.04806709,116527937,1427,1425,1466,1477,0,0,0,0,0,0,0,0,0,0
1660547620.14769125,116627561,1425,1424,1463,1476,0,0,0,0,0,0,0,0,0,0
1660547620.24795914,116727829,1423,1421,1463,1477,0,0,0,0,0,0,0,0,0,0
1660547620.34767318,116827543,1420,1420,1464,1478,0,0,0,0,0,0,0,0,0,0
1660547620.44803524,116927905,1419,1418,1462,1479,0,0,0,0,0,0,0,0,0,0
1660547620.54762626,117027496,1420,1412,1469,1474,0,0,0,0,0,0,0,0,0,0
1660547620.64797425,117127844,1417,1411,1463,1480,0,0,0,0,0,0,0,0,0,0
1660547620.74764419,117227514,1418,1409,1464,1480,0,0,0,0,0,0,0,0,0,0
1660547620.84795022,117327820,1411,1410,1467,1478,0,0,0,0,0,0,0,0,0,0
1660547620.94770527,117427575,1408,1410,1467,1479,0,0,0,0,0,0,0,0,0,0
1660547621.04791427,117527784,1409,1409,1466,1477,0,0,0,0,0,0,0,0,0,0
1660547621.14765024,117627520,1407,1412,1463,1475,0,0,0,0,0,0,0,0,0,0
1660547621.24794507,117727815,1410,1411,1462,1473,0,0,0,0,0,0,0,0,0,0
1660547621.34764314,117827513,1409,1413,1459,1474,0,0,0,0,0,0,0,0,0,0
1660547621.44792509,117927795,1411,1412,1458,1472,0,0,0,0,0,0,0,0,0,0
1660547621.54766917,118027539,1411,1412,1458,1470,0,0,0,0,0,0,0,0,0,0
1660547621.64800215,118127872,1412,1410,1456,1470,0,0,0,0,0,0,0,0,0,0
1660547621.74780726,118227677,1408,1410,1455,1471,0,0,0,0,0,0,0,0,0,0
1660547621.84844828,118328318,1409,1407,1456,1469,0,0,0,0,0,0,0,0,0,0
1660547621.94769716,118427567,1397,1404,1450,1463,0,0,0,0,0,0,0,0,0,0
1660547622.04797721,118527847,1406,1402,1451,1464,0,0,0,0,0,0,0,0,0,0
1660547622.14765525,118627525,1412,1414,1452,1474,0,0,0,0,0,0,0,0,0,0
1660547622.24797010,118727840,1418,1416,1460,1475,0,0,0,0,0,0,0,0,0,0
1660547622.34767318,118827543,1420,1417,1466,1478,0,0,0,0,0,0,0,0,0,0
1660547622.44803619,118927906,1420,1418,1467,1486,0,0,0,0,0,0,0,0,0,0
1660547622.54765415,119027524,1420,1419,1472,1487,0,0,0,0,0,0,0,0,0,0
1660547622.64795208,119127822,1421,1421,1473,1489,0,0,0,0,0,0,0,0,0,0
1660547622.74771309,119227583,1421,1423,1471,1495,0,0,0,0,0,0,0,0,0,0
1660547622.84798121,119327851,1424,1421,1474,1495,0,0,0,0,0,0,0,0,0,0
1660547622.94765306,119427523,1424,1423,1477,1495,0,0,0,0,0,0,0,0,0,0
1660547623.04797411,119527844,1428,1424,1476,1498,0,0,0,0,0,0,0,0,0,0
1660547623.14770508,119627575,1428,1425,1477,1500,0,0,0,0,0,0,0,0,0,0
1660547623.24800611,119727876,1417,1414,1488,1512,0,0,0,0,0,0,0,0,0,0
1660547623.34777021,119827640,1397,1396,1504,1531,0,0,0,0,0,0,0,0,0,0
1660547623.44801116,119927881,1373,1383,1522,1545,0,0,0,0,0,0,0,0,0,0
1660547623.54768920,120027559,1375,1357,1536,1554,0,0,0,0,0,0,0,0,0,0
1660547623.64808726,120127957,1354,1366,1538,1566,0,0,0,0,0,0,0,0,0,0
1660547623.74764919,120227519,1349,1367,1545,1568,0,0,0,0,0,0,0,0,0,0
1660547623.84808826,120327958,1351,1367,1546,1572,0,0,0,0,0,0,0,0,0,0
1660547623.94768906,120427559,1354,1366,1551,1570,0,0,0,0,0,0,0,0,0,0
1660547624.04791307,120527783,1352,1372,1550,1576,0,0,0,0,0,0,0,0,0,0
1660547624.14762115,120627491,1374,1388,1542,1565,0,0,0,0,0,0,0,0,0,0
1660547624.24798226,120727852,1406,1415,1516,1550,0,0,0,0,0,0,0,0,0,0
1660547624.34767914,120827549,1421,1448,1499,1519,0,0,0,0,0,0,0,0,0,0
1660547624.44800305,120927873,1447,1462,1467,1505,0,0,0,0,0,0,0,0,0,0
1660547624.54777813,121027648,1470,1485,1441,1481,0,0,0,0,0,0,0,0,0,0
1660547624.64804316,121127913,1487,1511,1421,1450,0,0,0,0,0,0,0,0,0,0
1660547624.74768424,121227554,1496,1527,1406,1430,0,0,0,0,0,0,0,0,0,0
1660547624.84794617,121327816,1509,1518,1394,1434,0,0,0,0,0,0,0,0,0,0
1660547624.94770813,121427578,1508,1514,1396,1440,0,0,0,0,0,0,0,0,0,0
1660547625.04803705,121527907,1490,1505,1417,1451,0,0,0,0,0,0,0,0,0,0
1660547625.14765906,121627529,1471,1485,1438,1472,0,0,0,0,0,0,0,0,0,0
1660547625.24795508,121727825,1444,1465,1456,1494,0,0,0,0,0,0,0,0,0,0
1660547625.34765220,121827522,1419,1450,1475,1504,0,0,0,0,0,0,0,0,0,0
1660547625.44802618,121927896,1405,1439,1484,1512,0,0,0,0,0,0,0,0,0,0
1660547625.54764009,122027510,1407,1428,1481,1518,0,0,0,0,0,0,0,0,0,0
1660547625.64792705,122127797,1407,1428,1481,1516,0,0,0,0,0,0,0,0,0,0
1660547625.74762416,122227494,1403,1434,1487,1506,0,0,0,0,0,0,0,0,0,0
1660547625.84796619,122327836,1402,1440,1472,1514,0,0,0,0,0,0,0,0,0,0
1660547625.94776320,122427633,1415,1435,1469,1510,0,0,0,0,0,0,0,0,0,0
1660547626.04790115,122527771,1409,1443,1469,1506,0,0,0,0,0,0,0,0,0,0
1660547626.14769506,122627565,1413,1443,1468,1499,0,0,0,0,0,0,0,0,0,0
1660547626.24806118,122727931,1423,1435,1464,1499,0,0,0,0,0,0,0,0,0,0
1660547626.34777522,122827645,1416,1443,1464,1496,0,0,0,0,0,0,0,0,0,0
1660547626.44802117,122927891,1418,1440,1461,1500,0,0,0,0,0,0,0,0,0,0
1660547626.54773808,123027608,1422,1434,1460,1500,0,0,0,0,0,0,0,0,0,0
1660547626.64797115,123127841,1415,1438,1461,1498,0,0,0,0,0,0,0,0,0,0
1660547626.74768019,123227550,1413,1438,1462,1495,0,0,0,0,0,0,0,0,0,0
1660547626.84797907,123327849,1409,1439,1456,1501,0,0,0,0,0,0,0,0,0,0
1660547626.94763207,123427502,1414,1430,1459,1498,0,0,0,0,0,0,0,0,0,0
1660547627.04803205,123527902,1412,1432,1460,1496,0,0,0,0,0,0,0,0,0,0
1660547627.14763618,123627506,1411,1434,1457,1493,0,0,0,0,0,0,0,0,0,0
1660547627.24805617,123727926,1416,1434,1453,1489,0,0,0,0,0,0,0,0,0,0
1660547627.34764409,123827514,1420,1434,1445,1488,0,0,0,0,0,0,0,0,0,0
1660547627.44797826,123927848,1416,1441,1443,1482,0,0,0,0,0,0,0,0,0,0
1660547627.54764104,124027511,1421,1439,1440,1479,0,0,0,0,0,0,0,0,0,0
1660547627.64793515,124127805,1423,1441,1430,1481,0,0,0,0,0,0,0,0,0,0
1660547627.74768305,124227553,1425,1446,1432,1471,0,0,0,0,0,0,0,0,0,0
1660547627.84799814,124327868,1423,1455,1428,1465,0,0,0,0,0,0,0,0,0,0
1660547627.94773316,124427603,1439,1452,1420,1463,0,0,0,0,0,0,0,0,0,0
1660547628.04814219,124528012,1440,1470,1420,1447,0,0,0,0,0,0,0,0,0,0
1660547628.14776826,124627638,1452,1470,1405,1452,0,0,0,0,0,0,0,0,0,0
1660547628.24801707,124727887,1466,1477,1401,1439,0,0,0,0,0,0,0,0,0,0
1660547628.34768105,124827551,1473,1486,1395,1429,0,0,0,0,0,0,0,0,0,0
1660547628.44800019,124927870,1479,1494,1389,1428,0,0,0,0,0,0,0,0,0,0
1660547628.54765105,125027521,1487,1496,1393,1421,0,0,0,0,0,0,0,0,0,0
1660547628.64796805,125127838,1491,1500,1388,1425,0,0,0,0,0,0,0,0,0,0
1660547628.74763918,125227509,1495,1502,1396,1418,0,0,0,0,0,0,0,0,0,0
1660547628.84793115,125327801,1488,1500,1403,1429,0,0,0,0,0,0,0,0,0,0
1660547628.94766617,125427536,1483,1481,1420,1443,0,0,0,0,0,0,0,0,0,0
1660547629.04812908,125527999,1462,1474,1431,1459,0,0,0,0,0,0,0,0,0,0
1660547629.14768410,125627554,1457,1466,1441,1463,0,0,0,0,0,0,0,0,0,0
1660547629.24795222,125727822,1442,1456,1461,1466,0,0,0,0,0,0,0,0,0,0
1660547629.34773922,125827609,1430,1448,1464,1481,0,0,0,0,0,0,0,0,0,0
1660547629.44802117,125927891,1426,1440,1471,1482,0,0,0,0,0,0,0,0,0,0
1660547629.54768825,126027558,1425,1441,1470,1483,0,0,0,0,0,0,0,0,0,0
1660547629.64802313,126127893,1423,1446,1463,1485,0,0,0,0,0,0,0,0,0,0
1660547629.74767017,126227540,1429,1448,1460,1480,0,0,0,0,0,0,0,0,0,0
1660547629.84797215,126327842,1424,1458,1458,1474,0,0,0,0,0,0,0,0,0,0
1660547629.94775105,126427621,1432,1455,1452,1470,0,0,0,0,0,0,0,0,0,0
1660547630.04800606,126527876,1434,1456,1437,1475,0,0,0,0,0,0,0,0,0,0
1660547630.14781427,126627684,1428,1459,1445,1468,0,0,0,0,0,0,0,0,0,0
1660547630.24796009,126727830,1422,1455,1452,1469,0,0,0,0,0,0,0,0,0,0
1660547630.34765005,126827520,1406,1436,1454,1494,0,0,0,0,0,0,0,0,0,0
1660547630.44803023,126927900,1377,1423,1475,1504,0,0,0,0,0,0,0,0,0,0
1660547630.54766822,127027538,1357,1406,1481,1520,0,0,0,0,0,0,0,0,0,0
1660547630.64789319,127127763,1354,1385,1482,1532,0,0,0,0,0,0,0,0,0,0
1660547630.74763322,127227503,1350,1378,1488,1536,0,0,0,0,0,0,0,0,0,0
1660547630.84809327,127327963,1352,1377,1491,1539,0,0,0,0,0,0,0,0,0,0
1660547630.94770908,127427579,1364,1372,1494,1541,0,0,0,0,0,0,0,0,0,0
1660547631.04802418,127527894,1366,1374,1497,1541,0,0,0,0,0,0,0,0,0,0
1660547631.14772415,127627594,1359,1383,1496,1542,0,0,0,0,0,0,0,0,0,0
1660547631.24796724,127727837,1366,1377,1489,1550,0,0,0,0,0,0,0,0,0,0
1660547631.34770608,127827576,1347,1390,1497,1544,0,0,0,0,0,0,0,0,0,0
1660547631.44800019,127927870,1356,1379,1494,1550,0,0,0,0,0,0,0,0,0,0
1660547631.54764104,128027511,1350,1407,1494,1535,0,0,0,0,0,0,0,0,0,0
1660547631.64797020,128127840,1398,1417,1467,1518,0,0,0,0,0,0,0,0,0,0
1660547631.74770117,128227571,1423,1436,1436,1503,0,0,0,0,0,0,0,0,0,0
1660547631.84798408,128327854,1423,1457,1438,1470,0,0,0,0,0,0,0,0,0,0
1660547631.94764423,128427514,1422,1464,1424,1470,0,0,0,0,0,0,0,0,0,0
1660547632.04797006,128527840,1428,1454,1427,1469,0,0,0,0,0,0,0,0,0,0
1660547632.14767313,128627543,1422,1449,1425,1480,0,0,0,0,0,0,0,0,0,0
1660547632.24804306,128727913,1417,1441,1431,1482,0,0,0,0,0,0,0,0,0,0
1660547632.34771013,128827580,1411,1440,1436,1482,0,0,0,0,0,0,0,0,0,0
1660547632.44805121,128927921,1410,1434,1440,1486,0,0,0,0,0,0,0,0,0,0
1660547632.54769611,129027566,1405,1433,1440,1492,0,0,0,0,0,0,0,0,0,0
1660547632.64804125,129127911,1406,1428,1445,1490,0,0,0,0,0,0,0,0,0,0
1660547632.74775219,129227622,1403,1431,1447,1491,0,0,0,0,0,0,0,0,0,0
1660547632.84804511,129327915,1405,1430,1443,1496,0,0,0,0,0,0,0,0,0,0
1660547632.94769621,129427566,1407,1429,1445,1495,0,0,0,0,0,0,0,0,0,0
1660547633.04804611,129527916,1408,1431,1454,1489,0,0,0,0,0,0,0,0,0,0
1660547633.14762306,129627493,1415,1426,1444,1498,0,0,0,0,0,0,0,0,0,0
1660547633.24803209,129727902,1406,1435,1459,1485,0,0,0,0,0,0,0,0,0,0
1660547633.34765816,129827528,1410,1432,1454,1491,0,0,0,0,0,0,0,0,0,0
1660547633.44798517,129927855,1405,1437,1460,1490,0,0,0,0,0,0,0,0,0,0
1660547633.54768705,130027557,1404,1436,1456,1498,0,0,0,0,0,0,0,0,0,0
1660547633.64797211,130127842,1400,1436,1457,1500,0,0,0,0,0,0,0,0,0,0
1660547633.74765825,130227528,1396,1438,1460,1500,0,0,0,0,0,0,0,0,0,0
1660547633.84793115,130327801,1402,1432,1465,1497,0,0,0,0,0,0,0,0,0,0
1660547633.94772506,130427595,1402,1432,1462,1500,0,0,0,0,0,0,0,0,0,0
1660547634.04803419,130527904,1394,1437,1455,1505,0,0,0,0,0,0,0,0,0,0
1660547634.14773107,130627601,1400,1434,1452,1505,0,0,0,0,0,0,0,0,0,0
1660547634.24801826,130727888,1403,1432,1461,1493,0,0,0,0,0,0,0,0,0,0
1660547634.34783506,130827705,1405,1432,1458,1494,0,0,0,0,0,0,0,0,0,0
1660547634.44808817,130927958,1401,1434,1452,1499,0,0,0,0,0,0,0,0,0,0
1660547634.54767919,131027549,1408,1428,1461,1493,0,0,0,0,0,0,0,0,0,0
1660547634.64802527,131127895,1402,1429,1457,1497,0,0,0,0,0,0,0,0,0,0
1660547634.74762821,131227498,1394,1433,1459,1495,0,0,0,0,0,0,0,0,0,0
1660547634.84795713,131327827,1385,1439,1460,1492,0,0,0,0,0,0,0,0,0,0
1660547634.94770718,131427577,1384,1438,1449,1499,0,0,0,0,0,0,0,0,0,0
1660547635.04793119,131527801,1387,1434,1448,1496,0,0,0,0,0,0,0,0,0,0
1660547635.14763427,131627504,1379,1440,1447,1493,0,0,0,0,0,0,0,0,0,0
1660547635.24795222,131727822,1389,1430,1437,1496,0,0,0,0,0,0,0,0,0,0
1660547635.34773326,131827603,1376,1442,1448,1484,0,0,0,0,0,0,0,0,0,0
1660547635.44801712,131927887,1388,1432,1446,1484,0,0,0,0,0,0,0,0,0,0
1660547635.54768610,132027556,1395,1426,1440,1488,0,0,0,0,0,0,0,0,0,0
1660547635.64800715,132127877,1389,1433,1438,1490,0,0,0,0,0,0,0,0,0,0
1660547635.74768019,132227550,1399,1425,1440,1489,0,0,0,0,0,0,0,0,0,0
1660547635.84802008,132327890,1390,1432,1440,1489,0,0,0,0,0,0,0,0,0,0
1660547635.94777417,132427644,1390,1430,1444,1486,0,0,0,0,0,0,0,0,0,0
1660547636.04796910,132527839,1398,1422,1438,1493,0,0,0,0,0,0,0,0,0,0
1660547636.14768910,132627559,1390,1427,1451,1484,0,0,0,0,0,0,0,0,0,0
1660547636.24806809,132727938,1396,1419,1438,1499,0,0,0,0,0,0,0,0,0,0
1660547636.34762812,132827498,1386,1427,1447,1490,0,0,0,0,0,0,0,0,0,0
1660547636.44810009,132927970,1386,1426,1443,1491,0,0,0,0,0,0,0,0,0,0
1660547636.54763627,133027506,1393,1419,1439,1494,0,0,0,0,0,0,0,0,0,0
1660547636.64794707,133127817,1388,1425,1457,1480,0,0,0,0,0,0,0,0,0,0
1660547636.74765015,133227520,1395,1418,1442,1495,0,0,0,0,0,0,0,0,0,0
1660547636.84796524,133327835,1394,1421,1445,1493,0,0,0,0,0,0,0,0,0,0
1660547636.94765520,133427525,1396,1419,1436,1503,0,0,0,0,0,0,0,0,0,0
1660547637.04795218,133527822,1389,1425,1443,1498,0,0,0,0,0,0,0,0,0,0
1660547637.14778614,133627656,1389,1425,1436,1506,0,0,0,0,0,0,0,0,0,0
1660547637.24802017,133727890,1382,1431,1448,1497,0,0,0,0,0,0,0,0,0,0
1660547637.34769917,133827569,1389,1425,1440,1504,0,0,0,0,0,0,0,0,0,0
1660547637.44802713,133927897,1384,1430,1452,1493,0,0,0,0,0,0,0,0,0,0
1660547637.54768014,134027550,1391,1424,1441,1502,0,0,0,0,0,0,0,0,0,0
1660547637.64797425,134127844,1381,1433,1451,1493,0,0,0,0,0,0,0,0,0,0
1660547637.74764514,134227515,1382,1432,1439,1505,0,0,0,0,0,0,0,0,0,0
1660547637.84804511,134327915,1366,1444,1452,1494,0,0,0,0,0,0,0,0,0,0
1660547637.94764209,134427512,1387,1426,1445,1502,0,0,0,0,0,0,0,0,0,0
1660547638.04804611,134527916,1382,1433,1465,1487,0,0,0,0,0,0,0,0,0,0
1660547638.14764023,134627510,1391,1427,1461,1491,0,0,0,0,0,0,0,0,0,0
1660547638.24795222,134727822,1399,1425,1449,1501,0,0,0,0,0,0,0,0,0,0
1660547638.34765720,134827527,1389,1437,1456,1494,0,0,0,0,0,0,0,0,0,0
1660547638.44797826,134927848,1397,1434,1454,1494,0,0,0,0,0,0,0,0,0,0
1660547638.54775524,135027625,1411,1425,1448,1499,0,0,0,0,0,0,0,0,0,0
1660547638.64797425,135127844,1390,1445,1442,1503,0,0,0,0,0,0,0,0,0,0
1660547638.74768925,135227559,1398,1441,1446,1499,0,0,0,0,0,0,0,0,0,0
1660547638.84802628,135327896,1404,1436,1445,1498,0,0,0,0,0,0,0,0,0,0
1660547638.94778013,135427650,1408,1435,1445,1497,0,0,0,0,0,0,0,0,0,0
1660547639.04804015,135527910,1403,1441,1456,1487,0,0,0,0,0,0,0,0,0,0
1660547639.14770126,135627571,1400,1442,1442,1501,0,0,0,0,0,0,0,0,0,0
1660547639.24803114,135727901,1390,1449,1448,1496,0,0,0,0,0,0,0,0,0,0
1660547639.34763312,135827503,1401,1442,1436,1504,0,0,0,0,0,0,0,0,0,0
1660547639.44805622,135927926,1407,1438,1445,1493,0,0,0,0,0,0,0,0,0,0
1660547639.54767323,136027543,1403,1443,1455,1479,0,0,0,0,0,0,0,0,0,0
1660547639.64799309,136127863,1408,1441,1431,1498,0,0,0,0,0,0,0,0,0,0
1660547639.74766111,136227531,1404,1444,1443,1484,0,0,0,0,0,0,0,0,0,0
1660547639.84805107,136327921,1405,1441,1442,1483,0,0,0,0,0,0,0,0,0,0
1660547639.94767308,136427543,1395,1450,1429,1494,0,0,0,0,0,0,0,0,0,0
1660547640.04791307,136527783,1409,1436,1426,1496,0,0,0,0,0,0,0,0,0,0
1660547640.14765716,136627527,1402,1441,1448,1478,0,0,0,0,0,0,0,0,0,0
1660547640.24803305,136727903,1397,1442,1448,1479,0,0,0,0,0,0,0,0,0,0
1660547640.34770823,136827578,1391,1442,1430,1493,0,0,0,0,0,0,0,0,0,0
1660547640.44801426,136927884,1393,1435,1424,1495,0,0,0,0,0,0,0,0,0,0
1660547640.54770923,137027579,1381,1439,1434,1486,0,0,0,0,0,0,0,0,0,0
1660547640.64810920,137127979,1380,1435,1439,1480,0,0,0,0,0,0,0,0,0,0
1660547640.74773526,137227605,1377,1435,1434,1484,0,0,0,0,0,0,0,0,0,0
1660547640.84803605,137327906,1384,1425,1436,1480,0,0,0,0,0,0,0,0,0,0
1660547640.94767022,137427540,1390,1419,1430,1483,0,0,0,0,0,0,0,0,0,0
1660547641.04798818,137527858,1385,1425,1432,1480,0,0,0,0,0,0,0,0,0,0
1660547641.14762807,137627498,1380,1430,1434,1478,0,0,0,0,0,0,0,0,0,0
1660547641.24800014,137727870,1389,1421,1428,1482,0,0,0,0,0,0,0,0,0,0
1660547641.34766221,137827532,1391,1417,1424,1481,0,0,0,0,0,0,0,0,0,0
1660547641.44806504,137927935,1373,1433,1421,1482,0,0,0,0,0,0,0,0,0,0
1660547641.54766726,138027537,1380,1427,1438,1465,0,0,0,0,0,0,0,0,0,0
1660547641.64807510,138127945,1382,1425,1423,1478,0,0,0,0,0,0,0,0,0,0
1660547641.74774718,138227617,1380,1426,1430,1472,0,0,0,0,0,0,0,0,0,0
1660547641.84804106,138327911,1373,1428,1415,1486,0,0,0,0,0,0,0,0,0,0
1660547641.94772625,138427596,1366,1431,1415,1488,0,0,0,0,0,0,0,0,0,0
1660547642.04802918,138527899,1366,1429,1415,1490,0,0,0,0,0,0,0,0,0,0
1660547642.14770412,138627574,1368,1424,1422,1487,0,0,0,0,0,0,0,0,0,0
1660547642.24801016,138727880,1341,1444,1426,1487,0,0,0,0,0,0,0,0,0,0
1660547642.34770513,138827575,1356,1431,1429,1489,0,0,0,0,0,0,0,0,0,0
1660547642.44802713,138927897,1365,1425,1426,1493,0,0,0,0,0,0,0,0,0,0
1660547642.54770923,139027579,1357,1432,1417,1503,0,0,0,0,0,0,0,0,0,0
1660547642.64795423,139127824,1361,1429,1419,1504,0,0,0,0,0,0,0,0,0,0
1660547642.74775219,139227622,1361,1430,1417,1511,0,0,0,0,0,0,0,0,0,0
1660547642.84799027,139327860,1351,1439,1428,1505,0,0,0,0,0,0,0,0,0,0
1660547642.94765019,139427520,1353,1437,1431,1512,0,0,0,0,0,0,0,0,0,0
1660547643.04796815,139527838,1339,1446,1440,1514,0,0,0,0,0,0,0,0,0,0
1660547643.14767718,139627547,1350,1438,1437,1527,0,0,0,0,0,0,0,0,0,0
1660547643.24791813,139727788,1363,1432,1439,1534,0,0,0,0,0,0,0,0,0,0
1660547643.34772706,139827597,1373,1432,1454,1528,0,0,0,0,0,0,0,0,0,0
1660547643.44812608,139927996,1382,1431,1451,1535,0,0,0,0,0,0,0,0,0,0
1660547643.54768610,140027556,1369,1447,1452,1538,0,0,0,0,0,0,0,0,0,0
1660547643.64804816,140127918,1398,1427,1455,1541,0,0,0,0,0,0,0,0,0,0
1660547643.74776125,140227631,1399,1423,1473,1531,0,0,0,0,0,0,0,0,0,0
1660547643.84797621,140327846,1392,1428,1475,1530,0,0,0,0,0,0,0,0,0,0
1660547643.94769812,140427568,1386,1430,1490,1518,0,0,0,0,0,0,0,0,0,0
1660547644.04799008,140527860,1385,1430,1482,1530,0,0,0,0,0,0,0,0,0,0
1660547644.14763618,140627506,1385,1429,1489,1529,0,0,0,0,0,0,0,0,0,0
1660547644.24796915,140727839,1382,1422,1502,1529,0,0,0,0,0,0,0,0,0,0
1660547644.34774327,140827613,1387,1399,1500,1549,0,0,0,0,0,0,0,0,0,0
1660547644.44808507,140927955,1374,1389,1517,1553,0,0,0,0,0,0,0,0,0,0
1660547644.54767823,141027548,1359,1381,1528,1557,0,0,0,0,0,0,0,0,0,0
1660547644.64800715,141127877,1347,1379,1536,1564,0,0,0,0,0,0,0,0,0,0
1660547644.74763513,141227505,1341,1375,1546,1566,0,0,0,0,0,0,0,0,0,0
1660547644.84819913,141328069,1345,1365,1548,1569,0,0,0,0,0,0,0,0,0,0
1660547644.94773507,141427605,1348,1367,1545,1570,0,0,0,0,0,0,0,0,0,0
1660547645.04796624,141527836,1375,1396,1535,1549,0,0,0,0,0,0,0,0,0,0
1660547645.14765525,141627525,1395,1408,1523,1538,0,0,0,0,0,0,0,0,0,0
1660547645.24805117,141727921,1393,1399,1521,1539,0,0,0,0,0,0,0,0,0,0
1660547645.34768724,141827557,1385,1381,1531,1540,0,0,0,0,0,0,0,0,0,0
1660547645.44797611,141927846,1375,1373,1536,1546,0,0,0,0,0,0,0,0,0,0
1660547645.54769015,142027560,1384,1375,1531,1543,0,0,0,0,0,0,0,0,0,0
1660547645.64803720,142127907,1395,1389,1524,1533,0,0,0,0,0,0,0,0,0,0
1660547645.74761510,142227485,1400,1401,1511,1526,0,0,0,0,0,0,0,0,0,0
1660547645.84804010,142327910,1407,1406,1502,1515,0,0,0,0,0,0,0,0,0,0
1660547645.94765806,142427528,1411,1408,1497,1513,0,0,0,0,0,0,0,0,0,0
1660547646.04796124,142527831,1413,1412,1490,1507,0,0,0,0,0,0,0,0,0,0
1660547646.14771008,142627580,1418,1409,1481,1509,0,0,0,0,0,0,0,0,0,0
1660547646.24798107,142727851,1416,1409,1479,1507,0,0,0,0,0,0,0,0,0,0
1660547646.34764910,142827519,1412,1411,1481,1506,0,0,0,0,0,0,0,0,0,0
1660547646.44804215,142927912,1412,1407,1484,1504,0,0,0,0,0,0,0,0,0,0
1660547646.54770613,143027576,1404,1412,1484,1508,0,0,0,0,0,0,0,0,0,0
1660547646.64801216,143127882,1403,1408,1485,1509,0,0,0,0,0,0,0,0,0,0
1660547646.74768710,143227557,1405,1403,1491,1504,0,0,0,0,0,0,0,0,0,0
1660547646.84804225,143327912,1408,1412,1481,1501,0,0,0,0,0,0,0,0,0,0
1660547646.94786119,143427731,1423,1431,1463,1488,0,0,0,0,0,0,0,0,0,0
1660547647.04802418,143527894,1432,1439,1458,1475,0,0,0,0,0,0,0,0,0,0
1660547647.14767623,143627546,1444,1457,1440,1461,0,0,0,0,0,0,0,0,0,0
1660547647.24797511,143727845,1459,1466,1422,1453,0,0,0,0,0,0,0,0,0,0
1660547647.34765911,143827529,1465,1475,1420,1439,0,0,0,0,0,0,0,0,0,0
1660547647.44797516,143927845,1471,1476,1412,1440,0,0,0,0,0,0,0,0,0,0
1660547647.54766512,144027535,1469,1480,1415,1434,0,0,0,0,0,0,0,0,0,0
1660547647.64793611,144127806,1464,1486,1413,1438,0,0,0,0,0,0,0,0,0,0
1660547647.74766922,144227539,1469,1482,1413,1438,0,0,0,0,0,0,0,0,0,0
1660547647.84800124,144327871,1470,1478,1417,1437,0,0,0,0,0,0,0,0,0,0
1660547647.94775510,144427625,1460,1474,1426,1446,0,0,0,0,0,0,0,0,0,0
1660547648.04803514,144527905,1451,1473,1435,1450,0,0,0,0,0,0,0,0,0,0
1660547648.14768815,144627558,1442,1460,1441,1469,0,0,0,0,0,0,0,0,0,0
1660547648.24799705,144727867,1431,1449,1460,1474,0,0,0,0,0,0,0,0,0,0
1660547648.34770513,144827575,1425,1435,1467,1488,0,0,0,0,0,0,0,0,0,0
1660547648.44803715,144927907,1417,1428,1473,1496,0,0,0,0,0,0,0,0,0,0
1660547648.54768419,145027554,1408,1429,1475,1504,0,0,0,0,0,0,0,0,0,0
1660547648.64797211,145127842,1410,1427,1480,1504,0,0,0,0,0,0,0,0,0,0
1660547648.74765110,145227521,1410,1432,1486,1499,0,0,0,0,0,0,0,0,0,0
1660547648.84809208,145327962,1412,1435,1479,1503,0,0,0,0,0,0,0,0,0,0
1660547648.94765520,145427525,1419,1435,1481,1499,0,0,0,0,0,0,0,0,0,0
1660547649.04810524,145527975,1420,1440,1474,1507,0,0,0,0,0,0,0,0,0,0
1660547649.14763808,145627508,1409,1453,1482,1500,0,0,0,0,0,0,0,0,0,0
1660547649.24795127,145727821,1421,1445,1482,1502,0,0,0,0,0,0,0,0,0,0
1660547649.34768915,145827559,1424,1443,1478,1506,0,0,0,0,0,0,0,0,0,0
1660547649.44803619,145927906,1423,1445,1477,1507,0,0,0,0,0,0,0,0,0,0
1660547649.54765606,146027526,1422,1445,1473,1509,0,0,0,0,0,0,0,0,0,0
1660547649.64800310,146127873,1418,1447,1466,1513,0,0,0,0,0,0,0,0,0,0
1660547649.74778724,146227657,1410,1457,1471,1507,0,0,0,0,0,0,0,0,0,0
1660547649.84803224,146327902,1420,1449,1470,1507,0,0,0,0,0,0,0,0,0,0
1660547649.94773722,146427607,1414,1454,1471,1507,0,0,0,0,0,0,0,0,0,0
1660547650.04797006,146527840,1421,1448,1469,1509,0,0,0,0,0,0,0,0,0,0
1660547650.14767623,146627546,1415,1453,1472,1506,0,0,0,0,0,0,0,0,0,0
1660547650.24795508,146727825,1410,1457,1475,1503,0,0,0,0,0,0,0,0,0,0
1660547650.34766626,146827536,1417,1448,1468,1508,0,0,0,0,0,0,0,0,0,0
1660547650.44809723,146927967,1399,1460,1469,1504,0,0,0,0,0,0,0,0,0,0
1660547650.54763126,147027501,1408,1448,1466,1503,0,0,0,0,0,0,0,0,0,0
1660547650.64800811,147127878,1405,1446,1470,1497,0,0,0,0,0,0,0,0,0,0
1660547650.74765420,147227524,1405,1442,1455,1507,0,0,0,0,0,0,0,0,0,0
1660547650.84799409,147327864,1410,1430,1457,1501,0,0,0,0,0,0,0,0,0,0
1660547650.94768524,147427555,1405,1431,1464,1491,0,0,0,0,0,0,0,0,0,0
1660547651.04794621,147527816,1401,1433,1454,1499,0,0,0,0,0,0,0,0,0,0
1660547651.14779210,147627662,1394,1436,1452,1500,0,0,0,0,0,0,0,0,0,0
1660547651.24798608,147727856,1387,1441,1445,1504,0,0,0,0,0,0,0,0,0,0
1660547651.34770012,147827570,1384,1440,1461,1487,0,0,0,0,0,0,0,0,0,0
1660547651.44805026,147927920,1384,1438,1447,1496,0,0,0,0,0,0,0,0,0,0
1660547651.54778910,148027659,1401,1423,1447,1492,0,0,0,0,0,0,0,0,0,0
1660547651.64796925,148127839,1402,1420,1439,1496,0,0,0,0,0,0,0,0,0,0
1660547651.74769211,148227562,1380,1438,1443,1488,0,0,0,0,0,0,0,0,0,0
1660547651.84798622,148327856,1381,1434,1441,1486,0,0,0,0,0,0,0,0,0,0
1660547651.94763327,148427503,1392,1417,1428,1496,0,0,0,0,0,0,0,0,0,0
1660547652.04796004,148527830,1374,1427,1432,1491,0,0,0,0,0,0,0,0,0,0
1660547652.14821124,148628081,1376,1420,1445,1482,0,0,0,0,0,0,0,0,0,0
1660547652.24798822,148727858,1362,1430,1440,1486,0,0,0,0,0,0,0,0,0,0
1660547652.34768319,148827553,1365,1423,1428,1498,0,0,0,0,0,0,0,0,0,0
1660547652.44801807,148927888,1386,1404,1437,1491,0,0,0,0,0,0,0,0,0,0
1660547652.54768205,149027552,1368,1420,1439,1488,0,0,0,0,0,0,0,0,0,0
1660547652.64801407,149127884,1344,1438,1438,1487,0,0,0,0,0,0,0,0,0,0
1660547652.74771309,149227583,1344,1433,1435,1489,0,0,0,0,0,0,0,0,0,0
1660547652.84801507,149327885,1347,1427,1438,1488,0,0,0,0,0,0,0,0,0,0
1660547652.94770217,149427572,1355,1420,1431,1496,0,0,0,0,0,0,0,0,0,0
1660547653.04802227,149527892,1371,1409,1432,1495,0,0,0,0,0,0,0,0,0,0
1660547653.14769006,149627560,1358,1422,1433,1494,0,0,0,0,0,0,0,0,0,0
1660547653.24810719,149727977,1364,1415,1452,1475,0,0,0,0,0,0,0,0,0,0
1660547653.34782219,149827692,1374,1405,1444,1480,0,0,0,0,0,0,0,0,0,0
1660547653.44803214,149927902,1370,1407,1426,1493,0,0,0,0,0,0,0,0,0,0
1660547653.54764819,150027518,1367,1409,1428,1490,0,0,0,0,0,0,0,0,0,0
1660547653.64800215,150127872,1364,1409,1417,1495,0,0,0,0,0,0,0,0,0,0
1660547653.74764419,150227514,1357,1412,1417,1493,0,0,0,0,0,0,0,0,0,0
1660547653.84794116,150327811,1350,1415,1417,1491,0,0,0,0,0,0,0,0,0,0
1660547653.94768310,150427553,1333,1425,1418,1490,0,0,0,0,0,0,0,0,0,0
1660547654.04797506,150527845,1346,1411,1419,1490,0,0,0,0,0,0,0,0,0,0
1660547654.14768505,150627555,1347,1409,1423,1484,0,0,0,0,0,0,0,0,0,0
1660547654.24807620,150727946,1331,1422,1420,1487,0,0,0,0,0,0,0,0,0,0
1660547654.34774113,150827611,1340,1416,1433,1476,0,0,0,0,0,0,0,0,0,0
1660547654.44801521,150927885,1331,1424,1422,1486,0,0,0,0,0,0,0,0,0,0
1660547654.54774714,151027617,1338,1418,1403,1500,0,0,0,0,0,0,0,0,0,0
1660547654.64800406,151127874,1349,1409,1413,1492,0,0,0,0,0,0,0,0,0,0
1660547654.74768806,151227558,1316,1436,1414,1491,0,0,0,0,0,0,0,0,0,0
1660547654.84803319,151327903,1361,1408,1403,1499,0,0,0,0,0,0,0,0,0,0
1660547654.94768715,151427557,1339,1431,1409,1494,0,0,0,0,0,0,0,0,0,0
1660547655.04802608,151527896,1355,1424,1420,1486,0,0,0,0,0,0,0,0,0,0
1660547655.14770818,151627578,1371,1417,1407,1497,0,0,0,0,0,0,0,0,0,0
1660547655.24799919,151727869,1374,1422,1413,1495,0,0,0,0,0,0,0,0,0,0
1660547655.34777308,151827643,1373,1429,1412,1503,0,0,0,0,0,0,0,0,0,0
1660547655.44796515,151927835,1372,1430,1417,1504,0,0,0,0,0,0,0,0,0,0
1660547655.54767227,152027542,1370,1430,1418,1515,0,0,0,0,0,0,0,0,0,0
1660547655.64800024,152127870,1377,1421,1423,1524,0,0,0,0,0,0,0,0,0,0
1660547655.74763727,152227507,1379,1416,1424,1537,0,0,0,0,0,0,0,0,0,0
1660547655.84804511,152327915,1367,1425,1453,1527,0,0,0,0,0,0,0,0,0,0
1660547655.94769621,152427566,1359,1424,1456,1534,0,0,0,0,0,0,0,0,0,0
1660547656.04804611,152527916,1374,1407,1462,1537,0,0,0,0,0,0,0,0,0,0
1660547656.14768720,152627557,1371,1410,1471,1537,0,0,0,0,0,0,0,0,0,0
1660547656.24805427,152727924,1378,1401,1484,1526,0,0,0,0,0,0,0,0,0,0
1660547656.34770608,152827576,1366,1415,1480,1530,0,0,0,0,0,0,0,0,0,0
1660547656.44798422,152927854,1364,1417,1490,1520,0,0,0,0,0,0,0,0,0,0
1660547656.54771924,153027589,1352,1431,1489,1518,0,0,0,0,0,0,0,0,0,0
1660547656.64799905,153127869,1373,1424,1487,1516,0,0,0,0,0,0,0,0,0,0
1660547656.74766612,153227536,1381,1428,1491,1510,0,0,0,0,0,0,0,0,0,0
1660547656.84799814,153327868,1392,1426,1477,1516,0,0,0,0,0,0,0,0,0,0
1660547656.94774318,153427613,1395,1429,1474,1514,0,0,0,0,0,0,0,0,0,0
1660547657.04795527,153527825,1405,1426,1479,1505,0,0,0,0,0,0,0,0,0,0
1660547657.14766216,153627532,1405,1434,1470,1509,0,0,0,0,0,0,0,0,0,0
1660547657.24793005,153727800,1413,1433,1469,1505,0,0,0,0,0,0,0,0,0,0
1660547657.34771609,153827586,1412,1438,1461,1509,0,0,0,0,0,0,0,0,0,0
1660547657.44821024,153928080,1411,1438,1465,1504,0,0,0,0,0,0,0,0,0,0
1660547657.54772711,154027597,1411,1438,1465,1504,0,0,0,0,0,0,0,0,0,0
1660547657.64800715,154127877,1412,1437,1471,1497,0,0,0,0,0,0,0,0,0,0
1660547657.74765825,154227528,1412,1436,1462,1503,0,0,0,0,0,0,0,0,0,0
1660547657.84807110,154327941,1410,1440,1462,1501,0,0,0,0,0,0,0,0,0,0
1660547657.94767308,154427543,1413,1437,1454,1506,0,0,0,0,0,0,0,0,0,0
1660547658.04797721,154527847,1409,1440,1463,1497,0,0,0,0,0,0,0,0,0,0
1660547658.14766216,154627532,1404,1444,1464,1495,0,0,0,0,0,0,0,0,0,0
1660547658.24799109,154727861,1409,1437,1464,1493,0,0,0,0,0,0,0,0,0,0
1660547658.34764218,154827512,1412,1432,1457,1499,0,0,0,0,0,0,0,0,0,0
1660547658.44806814,154927938,1409,1435,1455,1500,0,0,0,0,0,0,0,0,0,0
1660547658.54765916,155027529,1408,1435,1462,1493,0,0,0,0,0,0,0,0,0,0
1660547658.64796019,155127830,1406,1438,1458,1496,0,0,0,0,0,0,0,0,0,0
1660547658.74773526,155227605,1409,1435,1462,1493,0,0,0,0,0,0,0,0,0,0
1660547658.84800506,155327875,1406,1439,1459,1495,0,0,0,0,0,0,0,0,0,0
1660547658.94766712,155427537,1406,1440,1462,1492,0,0,0,0,0,0,0,0,0,0
1660547659.04800916,155527879,1410,1438,1455,1500,0,0,0,0,0,0,0,0,0,0
1660547659.14774704,155627617,1419,1431,1461,1495,0,0,0,0,0,0,0,0,0,0
1660547659.24804425,155727914,1417,1436,1455,1497,0,0,0,0,0,0,0,0,0,0
1660547659.34775615,155827626,1414,1446,1459,1482,0,0,0,0,0,0,0,0,0,0
1660547659.44805026,155927920,1422,1450,1443,1485,0,0,0,0,0,0,0,0,0,0
1660547659.54775405,156027624,1429,1458,1444,1472,0,0,0,0,0,0,0,0,0,0
1660547659.64809227,156127962,1430,1463,1438,1471,0,0,0,0,0,0,0,0,0,0
1660547659.74765205,156227522,1437,1468,1429,1469,0,0,0,0,0,0,0,0,0,0
1660547659.84798908,156327859,1445,1470,1426,1465,0,0,0,0,0,0,0,0,0,0
1660547659.94764304,156427513,1447,1476,1420,1465,0,0,0,0,0,0,0,0,0,0
1660547660.04791427,156527784,1449,1480,1421,1458,0,0,0,0,0,0,0,0,0,0
1660547660.14765406,156627524,1459,1480,1414,1456,0,0,0,0,0,0,0,0,0,0
1660547660.24797416,156727844,1455,1493,1417,1442,0,0,0,0,0,0,0,0,0,0
1660547660.34764504,156827515,1468,1494,1398,1447,0,0,0,0,0,0,0,0,0,0
1660547660.44802523,156927895,1475,1499,1395,1440,0,0,0,0,0,0,0,0,0,0
1660547660.54777718,157027647,1482,1502,1395,1433,0,0,0,0,0,0,0,0,0,0
1660547660.64800811,157127878,1479,1510,1392,1434,0,0,0,0,0,0,0,0,0,0
1660547660.74768710,157227557,1486,1512,1386,1436,0,0,0,0,0,0,0,0,0,0
1660547660.84805012,157327920,1485,1515,1396,1432,0,0,0,0,0,0,0,0,0,0
1660547660.94770527,157427575,1484,1502,1403,1450,0,0,0,0,0,0,0,0,0,0
1660547661.04798627,157527856,1475,1491,1422,1460,0,0,0,0,0,0,0,0,0,0
1660547661.14765906,157627529,1465,1481,1429,1475,0,0,0,0,0,0,0,0,0,0
1660547661.24796224,157727832,1453,1469,1438,1485,0,0,0,0,0,0,0,0,0,0
1660547661.34767318,157827543,1426,1455,1468,1490,0,0,0,0,0,0,0,0,0,0
1660547661.44806314,157927933,1399,1429,1481,1516,0,0,0,0,0,0,0,0,0,0
1660547661.54762411,158027494,1365,1411,1500,1528,0,0,0,0,0,0,0,0,0,0
1660547661.64808726,158127957,1356,1385,1508,1542,0,0,0,0,0,0,0,0,0,0
1660547661.74766421,158227534,1345,1383,1510,1546,0,0,0,0,0,0,0,0,0,0
1660547661.84796906,158327839,1339,1380,1517,1543,0,0,0,0,0,0,0,0,0,0
1660547661.94768214,158427552,1336,1386,1514,1544,0,0,0,0,0,0,0,0,0,0
1660547662.04805017,158527920,1347,1385,1512,1543,0,0,0,0,0,0,0,0,0,0
1660547662.14770007,158627570,1360,1379,1510,1542,0,0,0,0,0,0,0,0,0,0
1660547662.24800205,158727872,1369,1368,1502,1549,0,0,0,0,0,0,0,0,0,0
1660547662.34779716,158827667,1356,1374,1504,1547,0,0,0,0,0,0,0,0,0,0
1660547662.44807410,158927944,1350,1371,1516,1540,0,0,0,0,0,0,0,0,0,0
1660547662.54766726,159027537,1336,1373,1513,1547,0,0,0,0,0,0,0,0,0,0
1660547662.64801717,159127887,1313,1393,1510,1547,0,0,0,0,0,0,0,0,0,0
1660547662.74770117,159227571,1333,1399,1508,1534,0,0,0,0,0,0,0,0,0,0
1660547662.84802818,159327898,1399,1407,1476,1514,0,0,0,0,0,0,0,0,0,0
1660547662.94766808,159427538,1420,1450,1445,1484,0,0,0,0,0,0,0,0,0,0
1660547663.04800415,159527874,1435,1472,1417,1460,0,0,0,0,0,0,0,0,0,0
1660547663.14763713,159627507,1449,1479,1397,1450,0,0,0,0,0,0,0,0,0,0
1660547663.24806213,159727932,1458,1477,1401,1441,0,0,0,0,0,0,0,0,0,0
1660547663.34769225,159827562,1459,1474,1401,1449,0,0,0,0,0,0,0,0,0,0
1660547663.44791317,159927783,1445,1478,1417,1440,0,0,0,0,0,0,0,0,0,0
1660547663.54764509,160027515,1445,1474,1409,1451,0,0,0,0,0,0,0,0,0,0
1660547663.64802623,160127896,1444,1475,1419,1444,0,0,0,0,0,0,0,0,0,0
1660547663.74779725,160227667,1445,1479,1415,1446,0,0,0,0,0,0,0,0,0,0
1660547663.84801221,160327882,1450,1478,1405,1453,0,0,0,0,0,0,0,0,0,0
1660547663.94773817,160427608,1452,1486,1410,1442,0,0,0,0,0,0,0,0,0,0
1660547664.04802513,160527895,1464,1488,1407,1436,0,0,0,0,0,0,0,0,0,0
1660547664.14776111,160627631,1471,1493,1397,1436,0,0,0,0,0,0,0,0,0,0
1660547664.24797606,160727846,1479,1498,1385,1437,0,0,0,0,0,0,0,0,0,0
1660547664.34766626,160827536,1484,1506,1386,1429,0,0,0,0,0,0,0,0,0,0
1660547664.44801807,160927888,1487,1512,1388,1426,0,0,0,0,0,0,0,0,0,0
1660547664.54762506,161027495,1486,1504,1404,1432,0,0,0,0,0,0,0,0,0,0
1660547664.64799404,161127864,1472,1500,1411,1455,0,0,0,0,0,0,0,0,0,0
1660547664.74765420,161227524,1465,1487,1430,1463,0,0,0,0,0,0,0,0,0,0
1660547664.84798026,161327850,1458,1477,1429,1481,0,0,0,0,0,0,0,0,0,0
1660547664.94771624,161427586,1426,1458,1460,1496,0,0,0,0,0,0,0,0,0,0
1660547665.04804826,161527918,1394,1427,1486,1516,0,0,0,0,0,0,0,0,0,0
1660547665.14766812,161627538,1369,1391,1498,1539,0,0,0,0,0,0,0,0,0,0
1660547665.24804521,161727915,1353,1361,1505,1556,0,0,0,0,0,0,0,0,0,0
1660547665.34772921,161827599,1333,1359,1523,1548,0,0,0,0,0,0,0,0,0,0
1660547665.44801807,161927888,1334,1361,1514,1559,0,0,0,0,0,0,0,0,0,0
1660547665.54772019,162027590,1340,1369,1513,1557,0,0,0,0,0,0,0,0,0,0
1660547665.64801621,162127886,1357,1367,1513,1555,0,0,0,0,0,0,0,0,0,0
1660547665.74759507,162227465,1349,1382,1510,1555,0,0,0,0,0,0,0,0,0,0
1660547665.84810805,162327978,1334,1396,1513,1551,0,0,0,0,0,0,0,0,0,0
1660547665.94775105,162427621,1336,1392,1517,1545,0,0,0,0,0,0,0,0,0,0
1660547666.04803824,162527908,1368,1364,1503,1554,0,0,0,0,0,0,0,0,0,0
1660547666.14762712,162627497,1378,1391,1483,1546,0,0,0,0,0,0,0,0,0,0
1660547666.24800110,162727871,1399,1417,1468,1525,0,0,0,0,0,0,0,0,0,0
1660547666.34763217,162827502,1419,1431,1454,1500,0,0,0,0,0,0,0,0,0,0
1660547666.44796705,162927837,1419,1452,1426,1491,0,0,0,0,0,0,0,0,0,0
1660547666.54762912,163027499,1424,1459,1429,1465,0,0,0,0,0,0,0,0,0,0
1660547666.64791012,163127780,1425,1461,1433,1451,0,0,0,0,0,0,0,0,0,0
1660547666.74768519,163227555,1421,1459,1419,1467,0,0,0,0,0,0,0,0,0,0
1660547666.84812021,163327990,1418,1449,1424,1473,0,0,0,0,0,0,0,0,0,0
1660547666.94770312,163427573,1422,1440,1424,1480,0,0,0,0,0,0,0,0,0,0
1660547667.04795527,163527825,1413,1439,1434,1484,0,0,0,0,0,0,0,0,0,0
1660547667.14771414,163627584,1403,1441,1442,1488,0,0,0,0,0,0,0,0,0,0
1660547667.24805021,163727920,1404,1438,1450,1491,0,0,0,0,0,0,0,0,0,0
1660547667.34770012,163827570,1409,1434,1448,1499,0,0,0,0,0,0,0,0,0,0
1660547667.44804120,163927911,1406,1437,1459,1494,0,0,0,0,0,0,0,0,0,0
1660547667.54763722,164027507,1408,1435,1451,1504,0,0,0,0,0,0,0,0,0,0
1660547667.64796519,164127835,1409,1435,1461,1501,0,0,0,0,0,0,0,0,0,0
1660547667.74771619,164227586,1402,1440,1469,1497,0,0,0,0,0,0,0,0,0,0
1660547667.84803820,164327908,1401,1439,1463,1505,0,0,0,0,0,0,0,0,0,0
1660547667.94779110,164427661,1412,1432,1464,1503,0,0,0,0,0,0,0,0,0,0
1660547668.04794812,164527818,1408,1437,1461,1506,0,0,0,0,0,0,0,0,0,0
1660547668.14767909,164627549,1405,1441,1464,1503,0,0,0,0,0,0,0,0,0,0
1660547668.24804306,164727913,1409,1438,1452,1512,0,0,0,0,0,0,0,0,0,0
1660547668.34773421,164827604,1415,1432,1465,1502,0,0,0,0,0,0,0,0,0,0
1660547668.44801307,164927883,1401,1445,1465,1504,0,0,0,0,0,0,0,0,0,0
1660547668.54772305,165027593,1412,1435,1464,1506,0,0,0,0,0,0,0,0,0,0
1660547668.64806819,165127938,1413,1436,1461,1508,0,0,0,0,0,0,0,0,0,0
1660547668.74768424,165227554,1418,1434,1454,1515,0,0,0,0,0,0,0,0,0,0
1660547668.84797907,165327849,1408,1446,1469,1503,0,0,0,0,0,0,0,0,0,0
1660547668.94770908,165427579,1409,1447,1469,1505,0,0,0,0,0,0,0,0,0,0
1660547669.04798627,165527856,1414,1443,1458,1516,0,0,0,0,0,0,0,0,0,0
1660547669.14762425,165627494,1415,1445,1470,1509,0,0,0,0,0,0,0,0,0,0
1660547669.24798107,165727851,1417,1445,1473,1508,0,0,0,0,0,0,0,0,0,0
1660547669.34763122,165827501,1415,1449,1473,1510,0,0,0,0,0,0,0,0,0,0
1660547669.44793224,165927802,1411,1453,1473,1513,0,0,0,0,0,0,0,0,0,0
1660547669.54769707,166027567,1414,1450,1468,1521,0,0,0,0,0,0,0,0,0,0
1660547669.64797521,166127845,1410,1450,1482,1511,0,0,0,0,0,0,0,0,0,0
1660547669.74764323,166227513,1405,1455,1474,1524,0,0,0,0,0,0,0,0,0,0
1660547669.84806013,166327930,1426,1438,1477,1527,0,0,0,0,0,0,0,0,0,0
1660547669.94769907,166427569,1419,1449,1491,1518,0,0,0,0,0,0,0,0,0,0
1660547670.04814625,166528016,1409,1458,1492,1518,0,0,0,0,0,0,0,0,0,0
1660547670.14771318,166627583,1417,1450,1487,1524,0,0,0,0,0,0,0,0,0,0
1660547670.24802113,166727891,1406,1458,1487,1522,0,0,0,0,0,0,0,0,0,0
1660547670.34769917,166827569,1408,1451,1478,1527,0,0,0,0,0,0,0,0,0,0
1660547670.44806123,166927931,1405,1449,1478,1524,0,0,0,0,0,0,0,0,0,0
1660547670.54761124,167027481,1409,1443,1468,1526,0,0,0,0,0,0,0,0,0,0
1660547670.64797211,167127842,1401,1449,1479,1508,0,0,0,0,0,0,0,0,0,0
1660547670.74766111,167227531,1401,1450,1469,1511,0,0,0,0,0,0,0,0,0,0
1660547670.84802413,167327894,1404,1446,1470,1503,0,0,0,0,0,0,0,0,0,0
1660547670.94767213,167427542,1409,1439,1443,1520,0,0,0,0,0,0,0,0,0,0
1660547671.04805708,167527927,1408,1441,1442,1512,0,0,0,0,0,0,0,0,0,0
1660547671.14768314,167627553,1400,1450,1451,1501,0,0,0,0,0,0,0,0,0,0
1660547671.24791121,167727781,1404,1447,1443,1497,0,0,0,0,0,0,0,0,0,0
1660547671.34773612,167827606,1415,1434,1430,1497,0,0,0,0,0,0,0,0,0,0
1660547671.44803524,167927905,1399,1449,1432,1484,0,0,0,0,0,0,0,0,0,0
1660547671.54769015,168027560,1405,1444,1421,1485,0,0,0,0,0,0,0,0,0,0
1660547671.64801025,168127880,1393,1451,1416,1488,0,0,0,0,0,0,0,0,0,0
1660547671.74770308,168227573,1396,1444,1419,1486,0,0,0,0,0,0,0,0,0,0
1660547671.84804225,168327912,1390,1444,1425,1483,0,0,0,0,0,0,0,0,0,0
1660547671.94768405,168427554,1386,1445,1422,1486,0,0,0,0,0,0,0,0,0,0
1660547672.04795814,168527828,1386,1442,1433,1475,0,0,0,0,0,0,0,0,0,0
1660547672.14777422,168627644,1390,1439,1436,1471,0,0,0,0,0,0,0,0,0,0
1660547672.24801612,168727886,1388,1440,1426,1480,0,0,0,0,0,0,0,0,0,0
1660547672.34765911,168827529,1372,1449,1416,1484,0,0,0,0,0,0,0,0,0,0
1660547672.44792223,168927792,1383,1434,1412,1485,0,0,0,0,0,0,0,0,0,0
1660547672.54764605,169027516,1385,1429,1414,1482,0,0,0,0,0,0,0,0,0,0
1660547672.64795518,169127825,1369,1443,1425,1475,0,0,0,0,0,0,0,0,0,0
1660547672.74768424,169227554,1388,1428,1419,1482,0,0,0,0,0,0,0,0,0,0
1660547672.84790206,169327772,1370,1442,1412,1489,0,0,0,0,0,0,0,0,0,0
