timestamp,TimeUS,Instance,Volt,VoltR,Curr,CurrTot,EnrgTot,Temp,Res,RemPct
1660546265.82017994,164389700,0,24.8145809173584,24.825761795043945,0.07884683459997177,6.523872375488281,0.1621158868074417,0.0,0.14181439578533173,99
1660546265.92011595,164489636,0,24.780303955078125,24.7879638671875,0.054012443870306015,6.52537202835083,0.16215305030345917,0.0,0.14181439578533173,99
1660546266.02021599,164589736,0,24.81135368347168,24.822147369384766,0.0761084333062172,6.5274882316589355,0.1622055619955063,0.0,0.14181439578533173,99
1660546266.12067103,164690191,0,24.83186149597168,24.84696388244629,0.10649044066667557,6.530459880828857,0.16227935254573822,0.0,0.14181439578533173,99
1660546266.22021198,164789732,0,24.799575805664062,24.809633255004883,0.07092542201280594,6.532421112060547,0.16232798993587494,0.0,0.14181439578533173,99
1660546266.32021093,164889731,0,24.832435607910156,24.84945297241211,0.11999354511499405,6.535754680633545,0.16241076588630676,0.0,0.14181439578533173,99
1660546266.42027402,164989794,0,24.85025978088379,24.871192932128906,0.1476135402917862,6.539857864379883,0.16251273453235626,0.0,0.14181439578533173,99
1660546266.52014494,165089665,0,24.832626342773438,24.8485107421875,0.11201443523168564,6.542965412139893,0.1625899076461792,0.0,0.14181439578533173,99
1660546266.62022209,165189742,0,24.820362091064453,24.83211326599121,0.08285999298095703,6.545268535614014,0.1626470685005188,0.0,0.14181439578533173,99
1660546266.72057509,165290095,0,24.809051513671875,24.81932258605957,0.07242576777935028,6.547288417816162,0.1626971811056137,0.0,0.14181439578533173,99
1660546266.82026911,165389789,0,24.809051513671875,24.820323944091797,0.07948421686887741,6.549489974975586,0.16275179386138916,0.0,0.14181439578533173,99
1660546266.92053199,165490052,0,24.820743560791016,24.833715438842773,0.09145288169384003,6.552037239074707,0.16281501948833466,0.0,0.1418389081954956,99
1660546267.02013803,165589658,0,24.818445205688477,24.830415725708008,0.0843944400548935,6.554372310638428,0.16287297010421753,0.0,0.1418389081954956,99
1660546267.12033391,165689854,0,24.851961135864258,24.87183952331543,0.1401459127664566,6.5582733154296875,0.1629699170589447,0.0,0.1418389081954956,99
1660546267.22014809,165789668,0,24.80129051208496,24.810388565063477,0.06413977593183517,6.560051918029785,0.1630140244960785,0.0,0.1418389081954956,99
1660546267.32015395,165889674,0,24.831478118896484,24.847278594970703,0.11140065640211105,6.563146591186523,0.16309086978435516,0.0,0.1418389081954956,99
1660546267.42023206,165989752,0,24.855819702148438,24.876583099365234,0.14638599753379822,6.567216396331787,0.1631920337677002,0.0,0.1418389081954956,99
1660546267.52046394,166089984,0,24.83550262451172,24.850997924804688,0.1092524379491806,6.570258617401123,0.163267582654953,0.0,0.1418389081954956,99
1660546267.62080598,166190326,0,24.806560516357422,24.816354751586914,0.06904999911785126,6.572183609008789,0.1633153259754181,0.0,0.1418389081954956,99
1660546267.72047400,166289994,0,24.82831573486328,24.8441162109375,0.11140065640211105,6.575267791748047,0.16339190304279327,0.0,0.1418389081954956,99
1660546267.82027507,166389795,0,24.79966163635254,24.80819320678711,0.06015022099018097,6.576935768127441,0.1634332686662674,0.0,0.1418389081954956,99
1660546267.92049193,166490012,0,24.80866813659668,24.819114685058594,0.07365332543849945,6.578986167907715,0.1634841412305832,0.0,0.1418389081954956,99
1660546268.02024603,166589766,0,24.814804077148438,24.825590133666992,0.07604024559259415,6.5810933113098145,0.1635364294052124,0.0,0.1418389081954956,99
1660546268.12022591,166689746,0,24.84450912475586,24.8641414642334,0.1384068727493286,6.584937572479248,0.16363193094730377,0.0,0.1418389081954956,99
1660546268.22024298,166789763,0,24.81873321533203,24.830833435058594,0.08531510084867477,6.587307929992676,0.16369076073169708,0.0,0.1418389081954956,99
1660546268.32009792,166889618,0,24.814613342285156,24.826061248779297,0.08071176707744598,6.5895466804504395,0.16374631226062775,0.0,0.1418389081954956,99
1660546268.42077994,166990300,0,24.857925415039062,24.87860107421875,0.14577221870422363,6.59362268447876,0.1638476401567459,0.0,0.1418389081954956,99
1660546268.52049589,167090016,0,24.829368591308594,24.844343185424805,0.10556977242231369,6.596547603607178,0.16392026841640472,0.0,0.1418389081954956,99
1660546268.62028193,167189802,0,24.808958053588867,24.819927215576172,0.07733599841594696,6.598691463470459,0.16397345066070557,0.0,0.1418389081954956,99
1660546268.72047901,167289999,0,24.795732498168945,24.804916381835938,0.06475354731082916,6.600493907928467,0.16401813924312592,0.0,0.1418389081954956,99
1660546268.82070112,167390221,0,24.84019660949707,24.85839080810547,0.12827955186367035,6.604065418243408,0.16410686075687408,0.0,0.1418389081954956,99
1660546268.92044210,167489962,0,24.81884765625,24.831954956054688,0.09240764379501343,6.606625556945801,0.16417039930820465,0.0,0.1418389081954956,99
1660546269.02066207,167590182,0,24.817487716674805,24.82910919189453,0.08193933218717575,6.6089067459106445,0.16422702372074127,0.0,0.1418389081954956,99
1660546269.12049007,167690010,0,24.830230712890625,24.845291137695312,0.10618354380130768,6.611851215362549,0.16430014371871948,0.0,0.1418389081954956,99
1660546269.22064304,167790163,0,24.80608367919922,24.817487716674805,0.08040488511323929,6.61408805847168,0.16435563564300537,0.0,0.1418389081954956,99
1660546269.32045293,167889973,0,24.847671508789062,24.867389678955078,0.1390206515789032,6.617942810058594,0.16445142030715942,0.0,0.1418389081954956,99
1660546269.42070508,167990225,0,24.861757278442383,24.884523391723633,0.16050288081169128,6.62241268157959,0.16456255316734314,0.0,0.1418389081954956,99
1660546269.52050900,168090029,0,24.825727462768555,24.839656829833984,0.09820443391799927,6.6251349449157715,0.16463012993335724,0.0,0.1418389081954956,99
1660546269.62029195,168189812,0,24.81739044189453,24.8292293548584,0.08347377181053162,6.6274495124816895,0.16468757390975952,0.0,0.1418389081954956,99
1660546269.72050190,168290022,0,24.80129051208496,24.8096923828125,0.05922954902052879,6.629098415374756,0.16472846269607544,0.0,0.1418389081954956,99
1660546269.82014394,168389664,0,24.816720962524414,24.829730987548828,0.0917256698012352,6.6316375732421875,0.16479147970676422,0.0,0.1418389081954956,99
1660546269.92012000,168489640,0,24.818540573120117,24.832883834838867,0.1009664386510849,6.63444185256958,0.1648610681295395,0.0,0.1420566886663437,99
1660546270.02039790,168589918,0,24.814420700073242,24.825885772705078,0.08071176707744598,6.636690139770508,0.16491685807704926,0.0,0.1420566886663437,99
1660546270.12055302,168690073,0,24.834543228149414,24.851633071899414,0.12030044198036194,6.640036106109619,0.16499994695186615,0.0,0.1420566886663437,99
1660546270.22064996,168790170,0,24.80608367919922,24.816852569580078,0.0758015513420105,6.642144680023193,0.16505225002765656,0.0,0.1420566886663437,99
1660546270.32054400,168890064,0,24.839908599853516,24.85795783996582,0.12705200910568237,6.645670413970947,0.1651398241519928,0.0,0.1420566886663437,99
1660546270.42063498,168990155,0,24.84901237487793,24.86906623840332,0.14116887748241425,6.649595737457275,0.16523736715316772,0.0,0.1420566886663437,99
1660546270.52049994,169090020,0,24.828603744506836,24.84299087524414,0.10127332806587219,6.652405261993408,0.16530711948871613,0.0,0.14206457138061523,99
1660546270.62065101,169190171,0,24.77695083618164,24.78244400024414,0.03866799920797348,6.6534810066223145,0.16533377766609192,0.0,0.14206457138061523,99
1660546270.72048211,169290002,0,24.824811935424805,24.841331481933594,0.11627678573131561,6.656704425811768,0.16541379690170288,0.0,0.14206457138061523,99
1660546270.82070708,169390227,0,24.848247528076172,24.86878204345703,0.14454464614391327,6.660730838775635,0.16551384329795837,0.0,0.14206457138061523,99
1660546270.92016411,169489684,0,24.80426025390625,24.813852310180664,0.0675155520439148,6.662596225738525,0.16556011140346527,0.0,0.14206457138061523,99
1660546271.02026892,169589789,0,24.818635940551758,24.830669403076172,0.08470132946968079,6.664951324462891,0.16561856865882874,0.0,0.14206457138061523,99
1660546271.12073207,169690252,0,24.84891700744629,24.869800567626953,0.1469997763633728,6.66905403137207,0.16572052240371704,0.0,0.14206457138061523,99
1660546271.22021604,169789736,0,24.813941955566406,24.82549476623535,0.08132554590702057,6.671301364898682,0.1657762974500656,0.0,0.14206457138061523,99
1660546271.32015491,169889675,0,24.82659149169922,24.841371536254883,0.10403533279895782,6.674189567565918,0.1658480018377304,0.0,0.14206457138061523,99
1660546271.42023396,169989754,0,24.85629653930664,24.878095626831055,0.15344443917274475,6.678455829620361,0.16595403850078583,0.0,0.14206457138061523,99
1660546271.52060103,170090121,0,24.830455780029297,24.845474243164062,0.10570615530014038,6.681403160095215,0.1660272181034088,0.0,0.14207607507705688,99
1660546271.62014508,170189665,0,24.808000564575195,24.818378448486328,0.07303954660892487,6.683423042297363,0.16607733070850372,0.0,0.14207607507705688,99
1660546271.72047305,170289993,0,24.837610244750977,24.856489181518555,0.13288287818431854,6.687126636505127,0.16616931557655334,0.0,0.14207607507705688,99
1660546271.82019091,170389711,0,24.80311393737793,24.81122398376465,0.05708133056759834,6.6887078285217285,0.16620853543281555,0.0,0.14207607507705688,99
1660546271.92044091,170489961,0,24.81940460205078,24.831918716430664,0.0880771055817604,6.691160678863525,0.1662694215774536,0.0,0.14207607507705688,99
1660546272.02063107,170590151,0,24.81585693359375,24.827367782592773,0.08101865649223328,6.693415641784668,0.1663253754377365,0.0,0.14207607507705688,99
1660546272.12046695,170689987,0,24.83492660522461,24.851974487304688,0.11999354511499405,6.696743488311768,0.16640803217887878,0.0,0.14207607507705688,99
1660546272.22022510,170789745,0,24.83492660522461,24.850971221923828,0.11293510347604752,6.699873447418213,0.1664857566356659,0.0,0.14207607507705688,99
1660546272.32052994,170890050,0,24.82151222229004,24.835769653320312,0.10035266727209091,6.702669620513916,0.16655516624450684,0.0,0.14207607507705688,99
1660546272.42021108,170989731,0,24.858989715576172,24.8819522857666,0.1616281419992447,6.7071452140808105,0.1666664332151413,0.0,0.14207607507705688,99
1660546272.52010608,171089626,0,24.828603744506836,24.843122482299805,0.10219399631023407,6.7099809646606445,0.16673684120178223,0.0,0.14207607507705688,99
1660546272.62025094,171189771,0,24.815187454223633,24.82682991027832,0.08193933218717575,6.712260723114014,0.16679342091083527,0.0,0.14207607507705688,99
1660546272.72017503,171289695,0,24.801097869873047,24.810035705566406,0.062912218272686,6.7140069007873535,0.16683673858642578,0.0,0.14207607507705688,99
1660546272.82032394,171389844,0,24.831764221191406,24.84733009338379,0.1095593273639679,6.717054843902588,0.16691242158412933,0.0,0.14207607507705688,99
1660546272.92010999,171489630,0,24.819595336914062,24.83401870727539,0.10127332806587219,6.7198615074157715,0.16698208451271057,0.0,0.14241747558116913,99
1660546273.02023792,171589758,0,24.818157196044922,24.830570220947266,0.08715642988681793,6.722286224365234,0.16704227030277252,0.0,0.14241747558116913,99
1660546273.12068200,171690202,0,24.83636474609375,24.853628158569336,0.12122109532356262,6.725668907165527,0.16712628304958344,0.0,0.14241747558116913,99
1660546273.22017598,171789696,0,24.80838394165039,24.819091796875,0.07518777251243591,6.727746963500977,0.16717784106731415,0.0,0.14241747558116913,99
1660546273.32038593,171889906,0,24.84206199645996,24.860660552978516,0.1305982619524002,6.731382369995117,0.16726815700531006,0.0,0.14241747558116913,99
1660546273.42018795,171989708,0,24.853134155273438,24.87437629699707,0.14914798736572266,6.735517501831055,0.16737093031406403,0.0,0.14241747558116913,99
1660546273.52013803,172089658,0,24.832242965698242,24.84750747680664,0.10710421949625015,6.738491535186768,0.16744478046894073,0.0,0.14251619577407837,99
1660546273.62018299,172189703,0,24.817583084106445,24.829303741455078,0.08224621415138245,6.740777492523193,0.1675015091896057,0.0,0.14251619577407837,99
1660546273.72047806,172289998,0,24.823139190673828,24.83678436279297,0.09574932605028152,6.74344539642334,0.16756772994995117,0.0,0.14251619577407837,99
1660546273.82027698,172389797,0,24.814516067504883,24.827505111694336,0.09114599972963333,6.745972156524658,0.16763043403625488,0.0,0.14251619577407837,99
1660546273.92024589,172489766,0,24.821319580078125,24.835140228271484,0.0969768837094307,6.7486653327941895,0.16769728064537048,0.0,0.14251619577407837,99
1660546274.02029395,172589814,0,24.79525375366211,24.804964065551758,0.06812933087348938,6.750558853149414,0.1677442342042923,0.0,0.14251619577407837,99
1660546274.12020111,172689721,0,24.858020782470703,24.880064010620117,0.15467199683189392,6.7548508644104,0.16785092651844025,0.0,0.14251619577407837,99
1660546274.22033906,172789859,0,24.807031631469727,24.817916870117188,0.07638122886419296,6.756975173950195,0.16790363192558289,0.0,0.14251619577407837,99
1660546274.32012200,172889642,0,24.8232364654541,24.838106155395508,0.10434221476316452,6.759868621826172,0.16797545552253723,0.0,0.14251619577407837,99
1660546274.42035007,172989870,0,24.85418701171875,24.87588119506836,0.1522168666124344,6.764106750488281,0.16808079183101654,0.0,0.14251619577407837,99
1660546274.52009201,173089612,0,24.829944610595703,24.84526252746582,0.10741110146045685,6.767082691192627,0.16815468668937683,0.0,0.1426120102405548,99
1660546274.62020493,173189725,0,24.801769256591797,24.811397552490234,0.0675155520439148,6.768960475921631,0.1682012528181076,0.0,0.1426120102405548,99
1660546274.72048998,173290010,0,24.793241500854492,24.801950454711914,0.06107088550925255,6.7706618309021,0.1682434380054474,0.0,0.1426120102405548,99
1660546274.82062602,173390146,0,24.844030380249023,24.863550186157227,0.13687242567539215,6.774469375610352,0.16833803057670593,0.0,0.1426120102405548,99
1660546274.92049098,173490011,0,24.817487716674805,24.829259872436523,0.08255310356616974,6.776759624481201,0.16839486360549927,0.0,0.1426120102405548,99
1660546275.02052999,173590050,0,24.810874938964844,24.822254180908203,0.0797910988330841,6.778976917266846,0.16844987869262695,0.0,0.1426120102405548,99
1660546275.12053204,173690052,0,24.818635940551758,24.831911087036133,0.09308962523937225,6.781562805175781,0.16851405799388885,0.0,0.1426120102405548,99
1660546275.22011089,173789631,0,24.806467056274414,24.81745147705078,0.07702910900115967,6.783693790435791,0.16856691241264343,0.0,0.1426120102405548,99
1660546275.32023001,173889750,0,24.85112190246582,24.87265396118164,0.1509893238544464,6.787893295288086,0.16867128014564514,0.0,0.1426120102405548,99
1660546275.42017102,173989691,0,24.85466766357422,24.87589454650879,0.14884111285209656,6.792025566101074,0.16877399384975433,0.0,0.1426120102405548,99
1660546275.52016306,174089683,0,24.830902099609375,24.84592628479004,0.1052628755569458,6.794949531555176,0.16884659230709076,0.0,0.14272768795490265,99
1660546275.62021303,174189733,0,24.814708709716797,24.82618522644043,0.08040488511323929,6.797184467315674,0.16890203952789307,0.0,0.14272768795490265,99
1660546275.72022200,174289742,0,24.84508514404297,24.86571502685547,0.14454464614391327,6.8012003898620605,0.16900181770324707,0.0,0.14272768795490265,99
1660546275.82026696,174389787,0,24.81643295288086,24.829179763793945,0.08930466324090958,6.803682327270508,0.16906341910362244,0.0,0.14272768795490265,99
1660546275.92015409,174489674,0,24.781742095947266,24.78826904296875,0.04572644084692001,6.804951190948486,0.16909486055374146,0.0,0.14272768795490265,99
1660546276.02060795,174590128,0,24.814165115356445,24.825359344482422,0.07842715084552765,6.807139873504639,0.16914917528629303,0.0,0.14272768795490265,99
1660546276.12057900,174690099,0,24.833681106567383,24.850282669067383,0.11631087958812714,6.810369968414307,0.1692293882369995,0.0,0.14272768795490265,99
1660546276.22023511,174789755,0,24.809917449951172,24.82086753845215,0.07672221958637238,6.812493801116943,0.16928207874298096,0.0,0.14272768795490265,99
1660546276.32005501,174889575,0,24.843551635742188,24.86238670349121,0.13196220993995667,6.816153049468994,0.16937299072742462,0.0,0.14272768795490265,99
1660546276.42013502,174989655,0,24.85572052001953,24.878015518188477,0.15620644390583038,6.820496082305908,0.16948093473911285,0.0,0.14272768795490265,99
1660546276.52007794,175089598,0,24.83109474182129,24.8459529876709,0.10403533279895782,6.823384761810303,0.16955265402793884,0.0,0.14282430708408356,99
1660546276.62027502,175189795,0,24.81279182434082,24.824363708496094,0.08101865649223328,6.825639724731445,0.16960860788822174,0.0,0.14282430708408356,99
1660546276.72053695,175290057,0,24.818445205688477,24.831462860107422,0.09114599972963333,6.8281779289245605,0.16967160999774933,0.0,0.14282430708408356,99
1660546276.82065201,175390172,0,24.805315017700195,24.816492080688477,0.07825666666030884,6.830354690551758,0.16972561180591583,0.0,0.14282430708408356,99
1660546276.92049503,175490015,0,24.82097816467285,24.834274291992188,0.09308962523937225,6.832936763763428,0.16978970170021057,0.0,0.14282430708408356,99
1660546277.02065301,175590173,0,24.814899444580078,24.826251983642578,0.07948421686887741,6.835148334503174,0.1698445826768875,0.0,0.14282430708408356,99
1660546277.12019205,175689712,0,24.85466766357422,24.875925064086914,0.14884111285209656,6.839263916015625,0.16994687914848328,0.0,0.14282430708408356,99
1660546277.22028708,175789807,0,24.84882164001465,24.86880874633789,0.13994131982326508,6.843155384063721,0.17004357278347015,0.0,0.14282430708408356,99
1660546277.32013106,175889651,0,24.815378189086914,24.827301025390625,0.08347377181053162,6.845470905303955,0.17010103166103363,0.0,0.14282430708408356,99
1660546277.42040491,175989925,0,24.82160758972168,24.835983276367188,0.10065954923629761,6.8482747077941895,0.1701706349849701,0.0,0.14282430708408356,99
1660546277.52022290,176089743,0,24.826303482055664,24.84085464477539,0.10188709944486618,6.851099967956543,0.17024077475070953,0.0,0.14282430708408356,99
1660546277.62034512,176189865,0,24.798128128051758,24.80667495727539,0.05984332785010338,6.85276460647583,0.1702820509672165,0.0,0.14282430708408356,99
1660546277.72049809,176290018,0,24.79525375366211,24.80388832092285,0.06045711040496826,6.854446887969971,0.17032375931739807,0.0,0.14282430708408356,99
1660546277.82033896,176389859,0,24.852174758911133,24.873506546020508,0.14935259521007538,6.858587265014648,0.1704266518354416,0.0,0.14282430708408356,99
1660546277.92044902,176489969,0,24.819021224975586,24.831600189208984,0.0880771055817604,6.861037731170654,0.17048746347427368,0.0,0.14282430708408356,99
1660546278.02021408,176589734,0,24.815282821655273,24.826459884643555,0.07825666666030884,6.86320686340332,0.17054128646850586,0.0,0.14282430708408356,99
1660546278.12007093,176689591,0,24.81499481201172,24.826786041259766,0.08255310356616974,6.86549711227417,0.1705981194972992,0.0,0.14282430708408356,99
1660546278.22041798,176789938,0,24.804548263549805,24.814191818237305,0.0675155520439148,6.867379188537598,0.17064480483531952,0.0,0.14282430708408356,99
1660546278.32013297,176889653,0,24.856678009033203,24.878812789916992,0.15497887134552002,6.8716721534729,0.17075151205062866,0.0,0.14282430708408356,99
1660546278.42023396,176989754,0,24.85399627685547,24.87578010559082,0.15252377092838287,6.875913619995117,0.17085692286491394,0.0,0.14282430708408356,99
1660546278.52015495,177089675,0,24.828411102294922,24.84344482421875,0.1052628755569458,6.878835678100586,0.1709294617176056,0.0,0.14282430708408356,99
1660546278.62028909,177189809,0,24.817678451538086,24.829294204711914,0.08132554590702057,6.881097793579102,0.170985609292984,0.0,0.14282430708408356,99
1660546278.72056293,177290083,0,24.78690528869629,24.794599533081055,0.05387604236602783,6.882598400115967,0.17102280259132385,0.0,0.14282430708408356,99
1660546278.82070708,177390227,0,24.83550262451172,24.853429794311523,0.12551754713058472,6.886090278625488,0.17110952734947205,0.0,0.14282430708408356,99
1660546278.92020988,177489730,0,24.817773818969727,24.831844329833984,0.09851132333278656,6.888813018798828,0.17117708921432495,0.0,0.14282430708408356,99
1660546279.02025199,177589772,0,24.8129825592041,24.8243350982666,0.07948421686887741,6.891022205352783,0.17123191058635712,0.0,0.14282430708408356,99
1660546279.12012196,177689642,0,24.8267822265625,24.84221076965332,0.10802488774061203,6.89401912689209,0.171306312084198,0.0,0.14282430708408356,99
1660546279.22026801,177789788,0,24.809341430664062,24.819948196411133,0.07426710426807404,6.896084308624268,0.17135755717754364,0.0,0.14282430708408356,99
1660546279.32013106,177889651,0,24.838855743408203,24.857789993286133,0.13257598876953125,6.899763584136963,0.1714489459991455,0.0,0.14282430708408356,99
1660546279.42026806,177989788,0,24.85428237915039,24.876066207885742,0.15252377092838287,6.904006481170654,0.17155440151691437,0.0,0.14282430708408356,99
1660546279.52057600,178090096,0,24.82984733581543,24.84418296813965,0.10035266727209091,6.906802654266357,0.1716238409280777,0.0,0.1428617537021637,99
1660546279.62022996,178189750,0,24.811182022094727,24.822677612304688,0.08047308027744293,6.909030437469482,0.17167910933494568,0.0,0.1428617537021637,99
1660546279.72049189,178290012,0,24.817487716674805,24.830202102661133,0.08899776637554169,6.911509037017822,0.17174062132835388,0.0,0.1428617537021637,99
1660546279.82027912,178389799,0,24.81144905090332,24.823373794555664,0.08347377181053162,6.913823127746582,0.17179803550243378,0.0,0.1428617537021637,99
1660546279.92014909,178489669,0,24.81806182861328,24.83125877380371,0.0923735499382019,6.916386127471924,0.17186163365840912,0.0,0.1428617537021637,99
1660546280.02024007,178589760,0,24.814613342285156,24.82662582397461,0.0840875506401062,6.918724060058594,0.17191964387893677,0.0,0.1428617537021637,99
1660546280.12014389,178689664,0,24.856582641601562,24.878021240234375,0.15006865561008453,6.92288875579834,0.17202316224575043,0.0,0.1428617537021637,99
1660546280.22033095,178789851,0,24.80119514465332,24.810094833374023,0.06229843944311142,6.924622535705566,0.17206616699695587,0.0,0.1428617537021637,99
1660546280.32018709,178889707,0,24.82659149169922,24.841672897338867,0.10556977242231369,6.92755126953125,0.17213886976242065,0.0,0.1428617537021637,99
1660546280.42029810,178989818,0,24.84568214416504,24.8658504486084,0.14116887748241425,6.931477069854736,0.17223641276359558,0.0,0.1428617537021637,99
1660546280.52054691,179090067,0,24.82975196838379,24.844722747802734,0.10464909672737122,6.934390068054199,0.17230874300003052,0.0,0.1430615335702896,99
1660546280.62026906,179189789,0,24.796689987182617,24.805646896362305,0.06260532885789871,6.9361252784729,0.17235176265239716,0.0,0.1430615335702896,99
1660546280.72012997,179289650,0,24.79237937927246,24.80072021484375,0.058308884501457214,6.937742710113525,0.1723918616771698,0.0,0.1430615335702896,99
1660546280.82011104,179389631,0,24.844987869262695,24.86448097229004,0.13625866174697876,6.941527366638184,0.17248588800430298,0.0,0.1430615335702896,99
1660546280.92010593,179489626,0,24.82227897644043,24.835622787475586,0.09329421818256378,6.944118976593018,0.17255021631717682,0.0,0.14303560554981232,99
1660546281.02011704,179589637,0,24.814516067504883,24.825754165649414,0.07856355607509613,6.9463019371032715,0.17260438203811646,0.0,0.14303560554981232,99
1660546281.12047696,179689997,0,24.848342895507812,24.868051528930664,0.13779310882091522,6.950143814086914,0.17269983887672424,0.0,0.14303560554981232,99
1660546281.22034907,179789869,0,24.81873321533203,24.83155059814453,0.08961155265569687,6.952630043029785,0.17276154458522797,0.0,0.14303560554981232,99
1660546281.32053304,179890053,0,24.81927490234375,24.83278465270996,0.09445357322692871,6.955258846282959,0.17282679677009583,0.0,0.14303560554981232,99
1660546281.42062807,179990148,0,24.85926628112793,24.88239860534668,0.16173043847084045,6.959755897521973,0.17293858528137207,0.0,0.14303560554981232,99
1660546281.52036309,180089883,0,24.821319580078125,24.83527946472168,0.09759065508842468,6.962459564208984,0.17300570011138916,0.0,0.14303560554981232,99
1660546281.62030506,180189825,0,24.813365936279297,24.825042724609375,0.08163243532180786,6.964725971221924,0.17306193709373474,0.0,0.14303560554981232,99
1660546281.72015309,180289673,0,24.788545608520508,24.79618263244629,0.05339866131544113,6.966207027435303,0.17309865355491638,0.0,0.14303560554981232,99
1660546281.82027006,180389790,0,24.837512969970703,24.855247497558594,0.12398310750722885,6.969655513763428,0.17318430542945862,0.0,0.14303560554981232,99
1660546281.92018795,180489708,0,24.814804077148438,24.827665328979492,0.08991843461990356,6.972151279449463,0.17324623465538025,0.0,0.14303560554981232,99
1660546282.02026105,180589781,0,24.814132690429688,24.826248168945312,0.08470132946968079,6.97450590133667,0.17330466210842133,0.0,0.14303560554981232,99
1660546282.12029290,180689813,0,24.824195861816406,24.83756446838379,0.09329421818256378,6.97709846496582,0.17336902022361755,0.0,0.143297016620636,99
1660546282.22016311,180789683,0,24.810863494873047,24.82312774658203,0.08558789640665054,6.979472637176514,0.17342792451381683,0.0,0.143297016620636,99
1660546282.32045412,180889974,0,24.846904754638672,24.867616653442383,0.14454464614391327,6.9835004806518555,0.17352800071239471,0.0,0.143297016620636,99
1660546282.42011905,180989639,0,24.866743087768555,24.890886306762695,0.1684819906949997,6.988165378570557,0.17364399135112762,0.0,0.143297016620636,99
1660546282.52011490,181089635,0,24.82103157043457,24.8343563079834,0.09298732876777649,6.990748405456543,0.17370811104774475,0.0,0.143297016620636,99
1660546282.62039208,181189912,0,24.810396194458008,24.82174301147461,0.07917732745409012,6.992954254150391,0.17376282811164856,0.0,0.143297016620636,99
1660546282.72009206,181289612,0,24.847768783569336,24.868392944335938,0.14393088221549988,6.996940612792969,0.17386187613010406,0.0,0.143297016620636,99
1660546282.82025909,181389779,0,24.8267822265625,24.842525482177734,0.10986621677875519,6.999997615814209,0.17393778264522552,0.0,0.143297016620636,99
1660546282.92056990,181490090,0,24.769189834594727,24.774246215820312,0.03529221937060356,7.000980854034424,0.17396214604377747,0.0,0.143297016620636,99
1660546283.02060294,181590123,0,24.81269645690918,24.8247013092041,0.08378066122531891,7.00330924987793,0.174019917845726,0.0,0.143297016620636,99
1660546283.12047195,181689992,0,24.856966018676758,24.878416061401367,0.149693563580513,7.007462024688721,0.174123153090477,0.0,0.143297016620636,99
1660546283.22059512,181790115,0,24.806177139282227,24.81664276123047,0.07303954660892487,7.009493827819824,0.17417354881763458,0.0,0.143297016620636,99
1660546283.32043099,181889951,0,24.823427200317383,24.838159561157227,0.10280776768922806,7.012345314025879,0.17424432933330536,0.0,0.143297016620636,99
1660546283.42028999,181989810,0,24.85399627685547,24.876115798950195,0.15436509251594543,7.016627311706543,0.17435075342655182,0.0,0.143297016620636,99
1660546283.52018309,182089703,0,24.82898712158203,24.84443473815918,0.10771799087524414,7.01961612701416,0.17442496120929718,0.0,0.143410786986351,99
1660546283.62023711,182189757,0,24.787012100219727,24.794361114501953,0.05125044286251068,7.021040916442871,0.1744602769613266,0.0,0.143410786986351,99
1660546283.72027397,182289794,0,24.79611587524414,24.805753707885742,0.0672086626291275,7.022908687591553,0.17450658977031708,0.0,0.143410786986351,99
1660546283.82032490,182389845,0,24.854570388793945,24.876575469970703,0.15344443917274475,7.0271735191345215,0.1746125966310501,0.0,0.143410786986351,99
1660546283.92017603,182489696,0,24.833223342895508,24.848432540893555,0.10604716092348099,7.030113220214844,0.17468559741973877,0.0,0.143410786986351,99
1660546284.02087307,182590393,0,24.79908561706543,24.80916404724121,0.07027754932641983,7.03208065032959,0.17473438382148743,0.0,0.143410786986351,99
1660546284.12048411,182690004,0,24.846426010131836,24.86693572998047,0.143010213971138,7.036037921905518,0.17483271658420563,0.0,0.143410786986351,99
1660546284.22021389,182789734,0,24.818445205688477,24.83151626586914,0.09114599972963333,7.038563251495361,0.17489539086818695,0.0,0.143410786986351,99
1660546284.32010007,182889620,0,24.818635940551758,24.83232307434082,0.09544243663549423,7.0412116050720215,0.174961119890213,0.0,0.143410786986351,99
1660546284.42023396,182989754,0,24.85035514831543,24.870777130126953,0.1423964500427246,7.045172691345215,0.17505955696105957,0.0,0.143410786986351,99
1660546284.52052093,183090041,0,24.82764434814453,24.84185218811035,0.09912510216236115,7.047934055328369,0.17512811720371246,0.0,0.14333143830299377,99
1660546338.22029305,236789813,0,24.781837463378906,24.788612365722656,0.046033330261707306,8.520940780639648,0.2117021083831787,0.0,0.14715492725372314,99
1660546338.32033801,236889858,0,24.779155731201172,24.78565788269043,0.04419199377298355,8.52216911315918,0.21173253655433655,0.0,0.14715492725372314,99
1660546338.42032099,236989841,0,24.818252563476562,24.83123016357422,0.0880771055817604,8.524615287780762,0.21179324388504028,0.0,0.1473337709903717,99
1660546338.52058101,237090101,0,24.8267822265625,24.841522216796875,0.10004577040672302,8.5274019241333,0.21186242997646332,0.0,0.1473337709903717,99
1660546338.62035489,237189875,0,24.813461303710938,24.825307846069336,0.08040488511323929,8.529630661010742,0.2119177281856537,0.0,0.1473337709903717,99
1660546338.72060299,237290123,0,24.77024269104004,24.77444839477539,0.02854066528379917,8.530425071716309,0.21193741261959076,0.0,0.1473337709903717,99
1660546338.82066393,237390184,0,24.810300827026367,24.822237014770508,0.08101865649223328,8.53267765045166,0.2119932919740677,0.0,0.1473337709903717,99
1660546338.92059398,237490114,0,24.820362091064453,24.834062576293945,0.09298732876777649,8.535259246826172,0.21205736696720123,0.0,0.1473337709903717,99
1660546339.02074790,237590268,0,24.823427200317383,24.838298797607422,0.10093233734369278,8.538066864013672,0.21212707459926605,0.0,0.1473337709903717,99
1660546339.12061906,237690139,0,24.80033302307129,24.809646606445312,0.0632191076874733,8.539820671081543,0.2121705710887909,0.0,0.1473337709903717,99
1660546339.22057104,237790091,0,24.768613815307617,24.773767471313477,0.03498532995581627,8.540792465209961,0.21219463646411896,0.0,0.1473337709903717,99
1660546339.32052112,237890041,0,24.80752182006836,24.82027244567871,0.08654265850782394,8.543195724487305,0.21225424110889435,0.0,0.1473337709903717,99
1660546339.42028403,237989804,0,24.81566619873047,24.82801055908203,0.08378066122531891,8.545517921447754,0.21231186389923096,0.0,0.1473337709903717,99
1660546339.52066898,238090189,0,24.831764221191406,24.847091674804688,0.10403533279895782,8.548418998718262,0.21238389611244202,0.0,0.1473337709903717,99
1660546339.62069201,238190212,0,24.832242965698242,24.847705841064453,0.1049559935927391,8.551336288452148,0.2124563306570053,0.0,0.1473337709903717,99
1660546339.72024202,238289762,0,24.76880645751953,24.772830963134766,0.02731310948729515,8.552091598510742,0.2124750316143036,0.0,0.1473337709903717,99
1660546339.82032108,238389841,0,24.79361343383789,24.802204132080078,0.058308884501457214,8.553712844848633,0.2125152200460434,0.0,0.1473337709903717,99
1660546339.92064190,238490162,0,24.815187454223633,24.82866096496582,0.09145288169384003,8.556262016296387,0.21257846057415009,0.0,0.1473337709903717,99
1660546340.02074003,238590260,0,24.829465866088867,24.84465789794922,0.10311464965343475,8.55912971496582,0.2126496583223343,0.0,0.1473337709903717,99
1660546340.12020802,238689728,0,24.811737060546875,24.823945999145508,0.08285999298095703,8.561419486999512,0.21270646154880524,0.0,0.1473337709903717,99
1660546340.22027397,238789794,0,24.7755126953125,24.78175163269043,0.04235066473484039,8.562596321105957,0.2127356231212616,0.0,0.1473337709903717,99
1660546340.32057500,238890095,0,24.80052375793457,24.810697555541992,0.06904999911785126,8.564519882202148,0.2127833366394043,0.0,0.1473337709903717,99
1660546340.42076993,238990290,0,24.817678451538086,24.830429077148438,0.08654265850782394,8.56692886352539,0.212843120098114,0.0,0.1473337709903717,99
1660546340.52063298,239090153,0,24.78289222717285,24.863834381103516,0.5619135499000549,8.582517623901367,0.2132294476032257,0.0,0.14404626190662384,99
1660546340.62073994,239190260,0,24.574464797973633,24.906417846679688,2.3673408031463623,8.64835262298584,0.21484731137752533,0.0,0.14022158086299896,99
1660546340.72060704,239290127,0,24.642791748046875,24.830598831176758,1.3361940383911133,8.685422897338867,0.21576082706451416,0.0,0.14055341482162476,99
1660546340.82074308,239390263,0,24.65679359436035,24.787372589111328,0.9148698449134827,8.710869789123535,0.2163882702589035,0.0,0.1427305042743683,99
1660546340.92061996,239490140,0,24.681217193603516,24.855873107910156,1.233693242073059,8.745102882385254,0.21723319590091705,0.0,0.14157132804393768,99
1660546341.02029490,239589815,0,24.69971466064453,24.87321662902832,1.241058588027954,8.779467582702637,0.218081995844841,0.0,0.13980165123939514,99
1660546341.12019110,239689711,0,24.707380294799805,24.872814178466797,1.1962528228759766,8.812664985656738,0.21890220046043396,0.0,0.1382933408021927,99
1660546341.22030997,239789830,0,24.6448974609375,24.790142059326172,1.0326809883117676,8.841387748718262,0.2196100652217865,0.0,0.14064888656139374,99
1660546341.32024908,239889769,0,24.675661087036133,24.827503204345703,1.0765661001205444,8.87127685546875,0.2203475832939148,0.0,0.14104238152503967,99
1660546341.42031908,239989839,0,24.69291114807129,24.847570419311523,1.1008104085922241,8.901878356933594,0.221103236079216,0.0,0.14049528539180756,99
1660546341.52024794,240089768,0,24.707380294799805,24.86436653137207,1.1173824071884155,8.932897567749023,0.22186963260173798,0.0,0.14049528539180756,99
1660546341.62058496,240190105,0,24.694271087646484,24.84628677368164,1.0836586952209473,8.963102340698242,0.22261552512645721,0.0,0.14028023183345795,99
1660546341.72072506,240290245,0,24.667322158813477,24.813365936279297,1.0317604541778564,8.991805076599121,0.2233235388994217,0.0,0.1415477991104126,99
1660546341.82059503,240390115,0,24.67489242553711,24.824283599853516,1.0507874488830566,9.020957946777344,0.2240428924560547,0.0,0.14217005670070648,99
1660546341.92018294,240489703,0,24.697124481201172,24.854019165039062,1.1035724878311157,9.051485061645508,0.2247968167066574,0.0,0.14217005670070648,99
1660546342.02054405,240590064,0,24.702110290527344,24.86236572265625,1.1272027492523193,9.082916259765625,0.22557322680950165,0.0,0.14217005670070648,99
1660546342.12057900,240690099,0,24.66981315612793,24.819421768188477,1.0523219108581543,9.112159729003906,0.22629466652870178,0.0,0.14217005670070648,99
1660546342.22064209,240790162,0,24.646337509155273,24.787132263183594,0.9903303980827332,9.139688491821289,0.22697314620018005,0.0,0.14217005670070648,99
1660546342.32079601,240890316,0,24.695207595825195,24.85262680053711,1.107254981994629,9.17049503326416,0.22773392498493195,0.0,0.14217005670070648,99
1660546342.42061806,240990138,0,24.690704345703125,24.846202850341797,1.0937519073486328,9.200825691223145,0.22848279774188995,0.0,0.14217005670070648,99
1660546342.52074790,241090268,0,24.705238342285156,24.865943908691406,1.1303739547729492,9.232256889343262,0.22925931215286255,0.0,0.14217005670070648,99
1660546342.62058401,241190104,0,24.70623016357422,24.866920471191406,1.1302716732025146,9.263615608215332,0.23003406822681427,0.0,0.14217005670070648,99
1660546342.72060299,241290123,0,24.64039421081543,24.780710220336914,0.9869546294212341,9.291038513183594,0.23070977628231049,0.0,0.14217005670070648,99
1660546342.82071710,241390237,0,24.67326545715332,24.82422637939453,1.0618354082107544,9.32056999206543,0.23143841326236725,0.0,0.14217005670070648,99
1660546342.92067099,241490191,0,24.693866729736328,24.850324630737305,1.1005034446716309,9.351127624511719,0.2321930080652237,0.0,0.14217005670070648,99
1660546343.02058196,241590102,0,24.704696655273438,24.86512565612793,1.1284303665161133,9.382447242736816,0.23296675086021423,0.0,0.14217005670070648,99
1660546343.12060809,241690128,0,24.68169593811035,24.83414077758789,1.0722696781158447,9.412242889404297,0.233702152967453,0.0,0.14217005670070648,99
1660546343.22076702,241790287,0,24.6475830078125,24.789119720458984,0.9955475330352783,9.439943313598633,0.23438489437103271,0.0,0.14217005670070648,99
1660546343.32060909,241890129,0,24.680452346801758,24.832111358642578,1.066745638847351,9.469531059265137,0.23511512577533722,0.0,0.14217005670070648,99
1660546343.42063403,241990154,0,24.687990188598633,24.845399856567383,1.1071867942810059,9.500296592712402,0.23587465286254883,0.0,0.14217005670070648,99
1660546343.52058196,242090102,0,24.699522018432617,24.858598709106445,1.1189168691635132,9.531363487243652,0.236641988158226,0.0,0.14217005670070648,99
1660546343.62057495,242190095,0,24.697986602783203,24.856496810913086,1.1149271726608276,9.562332153320312,0.23740684986114502,0.0,0.14217005670070648,99
1660546343.72018099,242289701,0,24.664161682128906,24.812461853027344,1.043115258216858,9.591197967529297,0.23811879754066467,0.0,0.14217005670070648,99
1660546343.82053304,242390053,0,24.635793685913086,24.77580451965332,0.9848063588142395,9.61865234375,0.23879516124725342,0.0,0.14217005670070648,99
1660546343.92059994,242490120,0,24.69041633605957,24.84748649597168,1.1047999858856201,9.649364471435547,0.23955345153808594,0.0,0.14217005670070648,99
1660546344.02065897,242590179,0,24.69827651977539,24.85687255859375,1.1155409812927246,9.68037223815918,0.24031929671764374,0.0,0.14217005670070648,99
1660546344.12073803,242690258,0,24.7010555267334,24.862051010131836,1.1324199438095093,9.711845397949219,0.24109670519828796,0.0,0.14217005670070648,99
1660546344.22031689,242789837,0,24.63234519958496,24.771526336669922,0.9789754748344421,9.738936424255371,0.24176400899887085,0.0,0.14217005670070648,99
1660546344.32017803,242889698,0,24.67063331604004,24.82288932800293,1.069337248802185,9.768601417541504,0.24249586462974548,0.0,0.14238357543945312,99
1660546344.42066097,242990181,0,24.685243606567383,24.841543197631836,1.0977414846420288,9.799243927001953,0.24325227737426758,0.0,0.14238357543945312,99
1660546344.52056193,243090082,0,24.69635772705078,24.855979919433594,1.1210650205612183,9.83035659790039,0.24402064085006714,0.0,0.14238357543945312,99
1660546344.62052989,243190050,0,24.67642593383789,24.829360961914062,1.0741111040115356,9.860185623168945,0.24475671350955963,0.0,0.14238357543945312,99
1660546344.72016597,243289686,0,24.635698318481445,24.777360916137695,0.9949337244033813,9.887723922729492,0.24543514847755432,0.0,0.14238357543945312,99
1660546344.82062507,243390145,0,24.682655334472656,24.837732315063477,1.0891485214233398,9.918119430541992,0.24618539214134216,0.0,0.14238357543945312,99
1660546344.92058492,243490105,0,24.689266204833984,24.846790313720703,1.1063344478607178,9.948841094970703,0.2469438761472702,0.0,0.14238357543945312,99
1660546345.02070594,243590226,0,24.698659896850586,24.85880470275879,1.124747633934021,9.980124473571777,0.24771654605865479,0.0,0.14238357543945312,99
1660546345.12059593,243690116,0,24.66521453857422,24.815135955810547,1.0529357194900513,10.009343147277832,0.24843722581863403,0.0,0.14238357543945312,99
1660546345.22068000,243790200,0,24.65189552307129,24.79808235168457,1.0267137289047241,10.03788948059082,0.2491409331560135,0.0,0.14238357543945312,99
1660546345.32064009,243890160,0,24.66243553161621,24.81305503845215,1.057845950126648,10.067264556884766,0.24986538290977478,0.0,0.14238357543945312,99
1660546345.42069912,243990219,0,24.680931091308594,24.836793899536133,1.0946725606918335,10.097692489624023,0.2506163716316223,0.0,0.14238357543945312,99
1660546345.52019906,244089719,0,24.69568634033203,24.855701446533203,1.1238270998001099,10.128756523132324,0.251383513212204,0.0,0.14238357543945312,99
1660546345.62047195,244189992,0,24.697893142700195,24.858388900756836,1.1272027492523193,10.160155296325684,0.2521589994430542,0.0,0.14238357543945312,99
1660546345.72022200,244289742,0,24.626211166381836,24.765295028686523,0.9768272042274475,10.187223434448242,0.2528255879878998,0.0,0.14238357543945312,99
1660546345.82030010,244389820,0,24.6734561920166,24.82783317565918,1.0842382907867432,10.217367172241211,0.2535693347454071,0.0,0.14238357543945312,99
1660546345.92024803,244489768,0,24.684762954711914,24.841150283813477,1.0983551740646362,10.247862815856934,0.2543221116065979,0.0,0.14238357543945312,99
1660546346.02031302,244589833,0,24.69203758239746,24.85157585144043,1.1204854249954224,10.279010772705078,0.25509122014045715,0.0,0.14238357543945312,99
1660546346.12022305,244689743,0,24.6734561920166,24.826086044311523,1.071962833404541,10.30876350402832,0.25582531094551086,0.0,0.14238357543945312,99
1660546346.22066402,244790184,0,24.635602951049805,24.79920196533203,1.1379438638687134,10.34051513671875,0.2566075325012207,0.0,0.14376752078533173,99
1660546346.32060003,244890120,0,24.361438751220703,24.915409088134766,3.922039747238159,10.449400901794434,0.2592601478099823,0.0,0.14124570786952972,99
1660546346.42058706,244990107,0,24.493778228759766,24.877975463867188,2.7408244609832764,10.525530815124512,0.2611248791217804,0.0,0.14017556607723236,99
1660546346.52055812,245090078,0,24.541118621826172,24.88272476196289,2.4554176330566406,10.593721389770508,0.26279836893081665,0.0,0.1391235738992691,99
1660546346.62062907,245190149,0,24.546772003173828,24.878910064697266,2.4014053344726562,10.660480499267578,0.26443707942962646,0.0,0.13830992579460144,99
1660546346.72067690,245290197,0,24.540830612182617,24.88170623779297,2.478741407394409,10.729372024536133,0.26612773537635803,0.0,0.1375197470188141,99
1660546346.82063603,245390156,0,24.4942569732666,24.833724975585938,2.457566022872925,10.797616004943848,0.2677993178367615,0.0,0.13813167810440063,99
1660546346.92066312,245490183,0,24.476146697998047,24.811134338378906,2.405087947845459,10.864447593688965,0.2694350779056549,0.0,0.13928288221359253,99
1660546347.02060509,245590125,0,24.522525787353516,24.874019622802734,2.5362660884857178,10.934864044189453,0.27116188406944275,0.0,0.1385868489742279,99
1660546347.12080503,245690325,0,24.485342025756836,24.89510726928711,2.9826529026031494,11.017887115478516,0.27319473028182983,0.0,0.13738307356834412,99
1660546347.22054911,245790069,0,24.381084442138672,24.81952476501465,3.1677067279815674,11.105661392211914,0.27533477544784546,0.0,0.1384093165397644,99
1660546347.32025099,245889771,0,24.389612197875977,24.864286422729492,3.4377689361572266,11.200878143310547,0.27765706181526184,0.0,0.1380762755870819,99
1660546347.42029810,245989818,0,24.3693904876709,24.895721435546875,3.84501051902771,11.307743072509766,0.2802612781524658,0.0,0.13688690960407257,99
1660546347.52023602,246089756,0,24.367572784423828,24.905176162719727,3.9656178951263428,11.417840003967285,0.28294405341148376,0.0,0.13556617498397827,99
1660546347.62048912,246190009,0,24.349843978881836,24.858556747436523,3.7492611408233643,11.522257804870605,0.2854866087436676,0.0,0.13568337261676788,99
1660546347.72026205,246289782,0,24.295316696166992,24.834320068359375,3.949659824371338,11.631730079650879,0.2881462872028351,0.0,0.13646844029426575,99
1660546347.82032108,246389841,0,24.251651763916016,24.906415939331055,4.8358869552612305,11.766148567199707,0.29140615463256836,0.0,0.1353970319032669,99
1660546347.92059112,246490111,0,24.249319076538086,24.90392303466797,4.866950988769531,11.901719093322754,0.29469364881515503,0.0,0.13449987769126892,99
1660546348.02067494,246590195,0,24.275001525878906,24.907018661499023,4.729771137237549,12.033222198486328,0.2978858947753906,0.0,0.13362522423267365,99
1660546348.12061000,246690130,0,24.23810577392578,24.90797996520996,5.042797565460205,12.173219680786133,0.3012791872024536,0.0,0.1328379064798355,99
1660546348.22065711,246790177,0,24.187604904174805,24.8487491607666,4.9550275802612305,12.310935020446777,0.3046101927757263,0.0,0.13342900574207306,99
1660546348.32056308,246890083,0,24.121292114257812,24.853092193603516,5.467838764190674,12.462687492370605,0.308270663022995,0.0,0.13383711874485016,99
1660546348.42070007,246990220,0,24.09599494934082,24.92041778564453,6.200689792633057,12.635180473327637,0.3124270439147949,0.0,0.13295654952526093,99
1660546348.52046895,247089989,0,24.06321907043457,24.928287506103516,6.549929141998291,12.816715240478516,0.31679534912109375,0.0,0.13207291066646576,99
1660546348.62062597,247190146,0,24.057470321655273,24.91689109802246,6.537039756774902,12.998600959777832,0.3211710751056671,0.0,0.13146938383579254,99
1660546348.72066092,247290181,0,23.92498207092285,24.86710548400879,7.1511921882629395,13.197328567504883,0.3259256184101105,0.0,0.13174356520175934,99
1660546348.82086396,247390384,0,23.924745559692383,24.918363571166992,7.571868896484375,13.408102035522461,0.33096832036972046,0.0,0.13122496008872986,99
1660546348.92026091,247489781,0,23.985023498535156,24.901813507080078,6.998293399810791,13.60134220123291,0.3356032073497772,0.0,0.13100197911262512,99
1660546349.02024889,247589769,0,23.988950729370117,24.919649124145508,7.129642009735107,13.799382209777832,0.34035396575927734,0.0,0.13053937256336212,99
1660546349.12027097,247689791,0,23.98233985900879,24.863433837890625,6.729152202606201,13.986359596252441,0.34483811259269714,0.0,0.13093683123588562,99
1660546349.22024703,247789767,0,24.040315628051758,24.81146812438965,5.8895039558410645,14.149930953979492,0.348770409822464,0.0,0.13093683123588562,99
1660546349.32062292,247890143,0,24.47154426574707,24.751262664794922,2.1626458168029785,14.210227012634277,0.35024595260620117,0.0,0.1293409913778305,99
1660546349.42056298,247990083,0,24.55348014831543,24.786388397216797,1.8115650415420532,14.260512351989746,0.351480633020401,0.0,0.1285678893327713,99
1660546349.52025008,248089770,0,24.514955520629883,24.786535263061523,2.1221365928649902,14.319299697875977,0.35292181372642517,0.0,0.127974271774292,99
1660546349.62063289,248190153,0,24.523696899414062,24.802589416503906,2.183684825897217,14.380194664001465,0.3544151782989502,0.0,0.1277167797088623,99
1660546349.72057390,248290094,0,24.478830337524414,24.74666404724121,2.1123158931732178,14.43883991241455,0.3558507561683655,0.0,0.1267961710691452,99
1660546349.82058811,248390108,0,24.473173141479492,24.741933822631836,2.1328775882720947,14.498099327087402,0.3573010265827179,0.0,0.12600885331630707,99
1660546349.92015696,248489677,0,24.511600494384766,24.793079376220703,2.2332303524017334,14.559870719909668,0.35881516337394714,0.0,0.12604142725467682,99
1660546350.02065611,248590176,0,24.51610565185547,24.80240249633789,2.268829345703125,14.623213768005371,0.3603680729866028,0.0,0.12618692219257355,99
1660546350.12016892,248689689,0,24.509973526000977,24.7951602935791,2.259622812271118,14.685681343078613,0.36189913749694824,0.0,0.126210018992424,99
1660546350.22060800,248790128,0,24.50824737548828,24.75009536743164,1.924807071685791,14.739387512207031,0.3632153868675232,0.0,0.12564818561077118,99
1660546350.32063293,248890153,0,24.573698043823242,24.699434280395508,1.0096642971038818,14.76744270324707,0.36390480399131775,0.0,0.12453305721282959,99
1660546350.42071795,248990238,0,24.64202308654785,24.77647590637207,1.078714370727539,14.79743480682373,0.3646438717842102,0.0,0.12464164942502975,99
1660546350.52025795,249089778,0,24.643268585205078,24.78074836730957,1.1017310619354248,14.827899932861328,0.36539462208747864,0.0,0.12478478252887726,99
1660546350.62048006,249190000,0,24.620271682739258,24.751768112182617,1.0560046434402466,14.857300758361816,0.366118460893631,0.0,0.1245233491063118,99
1660546350.72024393,249289764,0,24.592960357666016,24.71691131591797,1.0007646083831787,14.88503646850586,0.36680057644844055,0.0,0.12385685741901398,99
1660546350.82062602,249390146,0,24.632633209228516,24.767623901367188,1.0888416767120361,14.915400505065918,0.36754852533340454,0.0,0.12397608160972595,99
1660546350.92036796,249489888,0,24.64672088623047,24.787593841552734,1.1330337524414062,14.946794509887695,0.3683222830295563,0.0,0.12433281540870667,99
1660546351.02046800,249589988,0,24.642885208129883,24.78345489501953,1.1284303665161133,14.978174209594727,0.3690955638885498,0.0,0.12457037717103958,99
1660546351.12058496,249690105,0,24.64739227294922,24.78972816467285,1.140092134475708,15.009882926940918,0.3698770999908447,0.0,0.12484592944383621,99
1660546351.22060299,249790123,0,24.595355987548828,24.723278045654297,1.0299190282821655,15.038498878479004,0.37058091163635254,0.0,0.12420525401830673,99
1660546351.32064104,249890161,0,24.605609893798828,24.744306564331055,1.1189168691635132,15.069594383239746,0.37134602665901184,0.0,0.12395556271076202,99
1660546351.42063403,249990154,0,24.384851455688477,24.82541275024414,3.5803699493408203,15.169050216674805,0.3737712502479553,0.0,0.12304896861314774,99
1660546351.52072906,250090249,0,24.40015411376953,24.817487716674805,3.4098422527313232,15.26386547088623,0.3760847747325897,0.0,0.12239105254411697,99
1660546351.62068892,250190209,0,24.448259353637695,24.79412269592285,2.8313565254211426,15.342489242553711,0.3780069947242737,0.0,0.12215494364500046,99
1660546351.72060990,250290130,0,24.407819747924805,24.72869110107422,2.611931085586548,15.41499137878418,0.37977662682533264,0.0,0.12284846603870392,99
1660546351.82060599,250390126,0,24.419031143188477,24.777647018432617,2.9209682941436768,15.496131896972656,0.3817580044269562,0.0,0.12277321517467499,99
1660546351.92064404,250490164,0,24.418359756469727,24.79366111755371,3.063978433609009,15.581282615661621,0.3838372528553009,0.0,0.12248808145523071,99
1660546352.02067804,250590198,0,24.375621795654297,24.816009521484375,3.6117751598358154,15.68165111541748,0.3862837851047516,0.0,0.12193108350038528,99
1660546352.12019897,250689719,0,24.236957550048828,24.787109375,4.514948844909668,15.806475639343262,0.3893091380596161,0.0,0.12185098230838776,99
1660546352.22073102,250790251,0,24.125221252441406,24.780920028686523,5.380375385284424,15.95673942565918,0.39293429255485535,0.0,0.12186875939369202,99
1660546352.32067299,250890193,0,24.183826446533203,24.791606903076172,4.992741107940674,16.095355987548828,0.39628657698631287,0.0,0.12173298001289368,99
1660546352.42064500,250990165,0,24.22689437866211,24.81853675842285,4.880146503448486,16.23089027404785,0.39957013726234436,0.0,0.12123451381921768,99
1660546352.52062392,251090144,0,24.203418731689453,24.810131072998047,5.017632961273193,16.370250701904297,0.40294313430786133,0.0,0.12091588973999023,99
1660546352.62061405,251190134,0,24.216163635253906,24.8104190826416,4.926179885864258,16.5070858001709,0.406256765127182,0.0,0.12063223868608475,99
1660546352.72021890,251289739,0,24.169206619262695,24.751798629760742,4.806493282318115,16.64008331298828,0.40947118401527405,0.0,0.12120948731899261,99
1660546352.82050490,251390025,0,24.25698471069336,24.765182495117188,4.192715644836426,16.75688934326172,0.412304550409317,0.0,0.12120948731899261,99
1660546352.92060399,251490124,0,24.14984703063965,24.795970916748047,5.338025093078613,16.90532684326172,0.41588929295539856,0.0,0.12104157358407974,99
1660546353.02078390,251590304,0,23.98665428161621,24.840662002563477,7.102635383605957,17.10299301147461,0.42063063383102417,0.0,0.12023801356554031,99
1660546353.12023997,251689760,0,23.992382049560547,24.817691802978516,6.885563373565674,17.29323387145996,0.42519494891166687,0.0,0.11986090987920761,99
1660546353.22026992,251789790,0,23.926376342773438,24.755521774291992,6.885051727294922,17.48455810546875,0.42977264523506165,0.0,0.1204269677400589,99
1660546353.32059908,251890119,0,23.981956481933594,24.776473999023438,6.586449146270752,17.66813087463379,0.4341751039028168,0.0,0.1206292137503624,99
1660546353.42077804,251990298,0,24.045875549316406,24.792173385620117,6.189027786254883,17.840370178222656,0.4383167326450348,0.0,0.12058402597904205,99
1660546353.52066898,252090189,0,23.955509185791016,24.808612823486328,7.091280937194824,18.037151336669922,0.4430307149887085,0.0,0.12030322849750519,99
1660546353.62070203,252190222,0,24.03236198425293,24.750930786132812,5.972978115081787,18.203134536743164,0.44701969623565674,0.0,0.12030322849750519,99
1660546353.72019291,252289713,0,23.890249252319336,24.741451263427734,7.038803577423096,18.397676467895508,0.4516673684120178,0.0,0.12092994153499603,99
1660546353.82034492,252389865,0,24.12033462524414,24.769989013671875,5.377920627593994,18.547300338745117,0.45527634024620056,0.0,0.1208001971244812,99
1660546353.92063808,252490158,0,24.01846694946289,24.79811668395996,6.469524383544922,18.727550506591797,0.4596056640148163,0.0,0.1205110251903534,99
1660546354.02049899,252590019,0,23.568180084228516,24.89783477783203,11.142111778259277,19.036651611328125,0.4668906033039093,0.0,0.11933600902557373,99
1660546354.12024999,252689770,0,23.798446655273438,24.795604705810547,8.357197761535645,19.268177032470703,0.4724005162715912,0.0,0.11931722611188889,99
1660546354.22025609,252789776,0,23.847318649291992,24.728029251098633,7.342316150665283,19.472209930419922,0.4772661626338959,0.0,0.11994993686676025,99
1660546354.32061791,252890138,0,23.81511878967285,24.743852615356445,7.716107368469238,19.687341690063477,0.48238953948020935,0.0,0.12036300450563431,99
1660546354.42066002,252990180,0,23.863033294677734,24.763574600219727,7.470902442932129,19.894968032836914,0.4873441457748413,0.0,0.12053992599248886,99
1660546354.52062392,253090144,0,23.962120056152344,24.783714294433594,6.814159870147705,20.084197998046875,0.491878479719162,0.0,0.12057153135538101,99
1660546354.62077308,253190293,0,24.389707565307617,24.685808181762695,2.4729104042053223,20.152997970581055,0.49355649948120117,0.0,0.11973755061626434,99
1660546354.72060490,253290125,0,24.42861557006836,24.659757614135742,1.944754719734192,20.206932067871094,0.4948740601539612,0.0,0.11885388195514679,99
1660546354.82076693,253390287,0,24.46550750732422,24.713478088378906,2.0902199745178223,20.265092849731445,0.4962969720363617,0.0,0.11863348633050919,99
1660546354.92063808,253490158,0,24.470670700073242,24.725784301757812,2.1516318321228027,20.32478904724121,0.49775776267051697,0.0,0.11856747418642044,99
1660546355.02078009,253590300,0,24.477869033813477,24.73931121826172,2.2037689685821533,20.386096954345703,0.499258428812027,0.0,0.11863399296998978,99
1660546355.12028694,253689807,0,24.467998504638672,24.73170280456543,2.2231030464172363,20.44754981994629,0.5007620453834534,0.0,0.11862021684646606,99
1660546355.22033906,253789859,0,24.445959091186523,24.70523452758789,2.1902658939361572,20.5084285736084,0.5022502541542053,0.0,0.11837615817785263,99
1660546355.32018304,253889703,0,24.410884857177734,24.66254425048828,2.1362533569335938,20.567670822143555,0.5036964416503906,0.0,0.1178036704659462,99
1660546355.42073011,253990250,0,24.453720092773438,24.71849822998047,2.247040271759033,20.63044548034668,0.505231499671936,0.0,0.1178344190120697,99
1660546355.52084208,254090362,0,24.560667037963867,24.73504066467285,1.4776698350906372,20.671541213989258,0.5062408447265625,0.0,0.11800594627857208,99
1660546355.62081695,254190337,0,24.60512924194336,24.735626220703125,1.1044930219650269,20.70221710205078,0.5069956183433533,0.0,0.11815052479505539,99
1660546355.72059703,254290117,0,24.552019119262695,24.669633865356445,0.9994347095489502,20.72991943359375,0.5076757669448853,0.0,0.11768101155757904,99
1660546355.82078290,254390303,0,24.569002151489258,24.690216064453125,1.0317604541778564,20.758634567260742,0.5083812475204468,0.0,0.11748188734054565,99
1660546355.92061090,254490131,0,24.59918975830078,24.730318069458008,1.1143134832382202,20.78953742980957,0.5091414451599121,0.0,0.11767585575580597,99
1660546356.02070999,254590230,0,24.60733413696289,24.740842819213867,1.1321130990982056,20.821012496948242,0.5099160075187683,0.0,0.11792793869972229,99
1660546356.12059903,254690119,0,24.60187339782715,24.733694076538086,1.1164616346359253,20.851999282836914,0.5106783509254456,0.0,0.11807090044021606,99
1660546356.22025800,254789778,0,24.58433723449707,24.712604522705078,1.0870003700256348,20.88209342956543,0.5114181637763977,0.0,0.11800068616867065,99
1660546356.32018900,254889709,0,24.548208236694336,24.668554306030273,1.0237812995910645,20.91051483154297,0.5121158361434937,0.0,0.11755118519067764,99
1660546356.42045307,254989973,0,24.5989990234375,24.731647491455078,1.126589059829712,20.94189453125,0.512887716293335,0.0,0.11774281412363052,99
1660546356.52079010,255090310,0,24.609539031982422,24.745691299438477,1.153595209121704,20.974050521850586,0.513679027557373,0.0,0.11802509427070618,99
1660546356.62068510,255190205,0,24.573421478271484,24.700088500976562,1.0747931003570557,21.003877639770508,0.514411985874176,0.0,0.11785172671079636,99
1660546356.72025800,255289778,0,24.554819107055664,24.67746353149414,1.0406601428985596,21.032663345336914,0.5151188373565674,0.0,0.11785172671079636,99
1660546356.82030511,255389825,0,24.60062599182129,24.735904693603516,1.145616054534912,21.064502716064453,0.5159021019935608,0.0,0.11808409541845322,99
1660546356.92065096,255490171,0,24.601680755615234,24.736202239990234,1.137330174446106,21.096206665039062,0.5166820883750916,0.0,0.11827816814184189,99
1660546357.02076292,255590283,0,24.612030029296875,24.751140594482422,1.1732361316680908,21.128835678100586,0.5174851417541504,0.0,0.11857045441865921,99
1660546357.12021995,255689740,0,24.61298942565918,24.751991271972656,1.1698604822158813,21.161157608032227,0.5182806849479675,0.0,0.11881889402866364,99
1660546357.22061610,255790136,0,24.55376625061035,24.676395416259766,1.0320671796798706,21.18994140625,0.5189874768257141,0.0,0.11881889402866364,99
1660546357.32059598,255890116,0,24.589319229125977,24.72162628173828,1.1133928298950195,21.22086524963379,0.5197478532791138,0.0,0.11883269995450974,99
1660546357.42047191,255989992,0,24.597272872924805,24.732290267944336,1.1351819038391113,21.252361297607422,0.5205225944519043,0.0,0.11893881112337112,99
1660546357.52054906,256090069,0,24.618675231933594,24.758190155029297,1.1729974746704102,21.284971237182617,0.521325409412384,0.0,0.11893881112337112,99
1660546357.62059307,256190113,0,24.60215950012207,24.73715591430664,1.1342613697052002,21.316495895385742,0.5221009850502014,0.0,0.11901628971099854,99
1660546357.72085905,256290379,0,24.563444137573242,24.68857765197754,1.0514012575149536,21.345775604248047,0.522820234298706,0.0,0.11901628971099854,99
1660546357.82057190,256390092,0,24.60053062438965,24.73428726196289,1.1229063272476196,21.37688636779785,0.5235855579376221,0.0,0.11911597847938538,99
1660546357.92076993,256490290,0,24.60647201538086,24.742340087890625,1.1391716003417969,21.40859603881836,0.5243657827377319,0.0,0.11926974356174469,99
1660546358.02051091,256590031,0,24.621803283691406,24.761295318603516,1.169553518295288,21.441001892089844,0.5251636505126953,0.0,0.11926974356174469,99
1660546358.12019801,256689718,0,24.61825942993164,24.757604598999023,1.1683260202407837,21.473356246948242,0.5259601473808289,0.0,0.11926974356174469,99
1660546358.22040009,256789920,0,24.58625030517578,24.71725082397461,1.0983551740646362,21.503931045532227,0.5267118215560913,0.0,0.11926974356174469,99
