timestamp,TimeUS,Instance,Volt,VoltR,Curr,CurrTot,EnrgTot,Temp,Res,RemPct
1660547588.43981314,84919683,0,23.769107818603516,23.77311897277832,0.0379226915538311,2.5889761447906494,0.06160484626889229,0.0,0.10575484484434128,99
1660547588.53978014,85019650,0,23.745067596435547,23.7468204498291,0.016571998596191406,2.5894362926483154,0.06161577254533768,0.0,0.10575484484434128,99
1660547588.63966012,85119530,0,23.79518699645996,23.80014991760254,0.04664710909128189,2.590730667114258,0.06164656952023506,0.0,0.10638610273599625,99
1660547588.73971605,85219586,0,23.790874481201172,23.795516967773438,0.043578214943408966,2.5919418334960938,0.06167538836598396,0.0,0.10654766112565994,99
1660547588.83968115,85319551,0,23.801258087158203,23.806779861450195,0.051830120384693146,2.59338116645813,0.06170964613556862,0.0,0.10654766112565994,99
1660547588.93963313,85419503,0,23.80476951599121,23.810394287109375,0.052784886211156845,2.594846725463867,0.06174453720450401,0.0,0.10654766112565994,99
1660547589.03965116,85519521,0,23.740949630737305,23.742158889770508,0.01135488785803318,2.5951621532440186,0.06175202876329422,0.0,0.10654766112565994,99
1660547589.13966823,85619538,0,23.778034210205078,23.781925201416016,0.03651977330446243,2.596176862716675,0.06177615746855736,0.0,0.10654766112565994,99
1660547589.23958611,85719456,0,23.80084228515625,23.806106567382812,0.049409110099077225,2.597548246383667,0.06180879846215248,0.0,0.10654766112565994,99
1660547589.33964610,85819516,0,23.788095474243164,23.792646408081055,0.04265755042433739,2.598733901977539,0.061837006360292435,0.0,0.10668648034334183,99
1660547589.43962216,85919492,0,23.7774600982666,23.781356811523438,0.03651977330446243,2.599748134613037,0.06186112388968468,0.0,0.10668648034334183,99
1660547589.53993726,86019807,0,23.738554000854492,23.739601135253906,0.009820444509387016,2.6000218391418457,0.061867620795965195,0.0,0.10668648034334183,99
1660547589.63959408,86119464,0,23.784934997558594,23.78938865661621,0.04173688590526581,2.601177215576172,0.06189510226249695,0.0,0.10668648034334183,99
1660547589.73980212,86219672,0,23.807966232299805,23.813640594482422,0.0531940720975399,2.6026580333709717,0.06193035840988159,0.0,0.10668648034334183,99
1660547589.83938313,86319253,0,23.796146392822266,23.801189422607422,0.04726088419556618,2.6039655208587646,0.06196146830916405,0.0,0.10668648034334183,99
1660547589.93975210,86419622,0,23.753023147583008,23.755413055419922,0.022402888163924217,2.6045901775360107,0.06197630614042282,0.0,0.10668648034334183,99
1660547590.03973508,86519605,0,23.74295997619629,23.744531631469727,0.01473066583275795,2.604999303817749,0.06198602169752121,0.0,0.10668648034334183,99
1660547590.13970208,86619572,0,23.80611228942871,23.811809539794922,0.05339866131544113,2.6064822673797607,0.06202132627367973,0.0,0.10668648034334183,99
1660547590.23995519,86719825,0,23.78541374206543,23.7898006439209,0.04112310707569122,2.6076276302337646,0.062048569321632385,0.0,0.10668648034334183,99
1660547590.33982515,86819695,0,23.80246925354004,23.80836296081543,0.05523999407887459,2.6091601848602295,0.062085047364234924,0.0,0.10668648034334183,99
1660547590.43961620,86919486,0,23.795475006103516,23.800418853759766,0.0463402196764946,2.6104447841644287,0.0621156170964241,0.0,0.10668648034334183,99
1660547590.53970909,87019579,0,23.74295997619629,23.74430274963379,0.012582443654537201,2.6107945442199707,0.06212392449378967,0.0,0.10668648034334183,99
1660547590.63963413,87119504,0,23.78134536743164,23.785602569580078,0.03989554941654205,2.6119019985198975,0.0621502622961998,0.0,0.10668648034334183,99
1660547590.73966813,87219538,0,23.792024612426758,23.827024459838867,0.3280642032623291,2.621018648147583,0.062367167323827744,0.0,0.10668648034334183,99
1660547590.83958507,87319455,0,23.669462203979492,23.88099479675293,2.2872426509857178,2.684504985809326,0.06386984884738922,0.0,0.09248331189155579,99
1660547590.93967009,87419540,0,23.690351486206055,23.81031608581543,1.3009018898010254,2.720675230026245,0.06472673267126083,0.0,0.09221675246953964,99
1660547591.03962922,87519499,0,23.69514274597168,23.77211570739746,0.8212346434593201,2.7434794902801514,0.06526708602905273,0.0,0.09372730553150177,99
1660547591.13972926,87619599,0,23.709707260131836,23.809322357177734,1.067359447479248,2.773160696029663,0.06597081571817398,0.0,0.09332825243473053,99
1660547591.23960805,87719478,0,23.742576599121094,23.846630096435547,1.1149271726608276,2.804095983505249,0.06670529395341873,0.0,0.09332825243473053,99
1660547591.33991218,87819782,0,23.729833602905273,23.826290130615234,1.0421946048736572,2.8331358432769775,0.06739440560340881,0.0,0.0925510823726654,99
1660547591.43965125,87919521,0,23.68455696105957,23.770586013793945,0.9111189842224121,2.8583805561065674,0.06799231469631195,0.0,0.09442102164030075,99
1660547591.53973413,88019604,0,23.685848236083984,23.771770477294922,0.8951948881149292,2.883270025253296,0.06858184188604355,0.0,0.09598220884799957,99
1660547591.63974118,88119611,0,23.74018096923828,23.836767196655273,1.0062885284423828,2.911226511001587,0.06924553215503693,0.0,0.09598220884799957,99
1660547591.73968506,88219555,0,23.734146118164062,23.82743263244629,0.9719170331954956,2.93821120262146,0.0698859915137291,0.0,0.09598220884799957,99
1660547591.83965015,88319520,0,23.746889114379883,23.84259033203125,0.9970818758010864,2.965897560119629,0.07054346054792404,0.0,0.09598220884799957,99
1660547591.93970418,88419574,0,23.742671966552734,23.837961196899414,0.9927854537963867,2.993494749069214,0.07119869440793991,0.0,0.09598220884799957,99
1660547592.03960323,88519473,0,23.685848236083984,23.768207550048828,0.8580612540245056,3.017307758331299,0.07176272571086884,0.0,0.09598220884799957,99
1660547592.13960314,88619473,0,23.72092056274414,23.81119728088379,0.9406144022941589,3.043437957763672,0.07238256186246872,0.0,0.09597722440958023,99
1660547592.23962617,88719496,0,23.742671966552734,23.837514877319336,0.9881821274757385,3.0708916187286377,0.0730343833565712,0.0,0.09597722440958023,99
1660547592.33965611,88819526,0,23.729387283325195,23.822986602783203,0.9752246141433716,3.097989797592163,0.07367740571498871,0.0,0.09597722440958023,99
1660547592.43963718,88919507,0,23.710569381713867,23.799787521362305,0.9295663237571716,3.1238136291503906,0.0742897018790245,0.0,0.09597722440958023,99
1660547592.53966522,89019535,0,23.706544876098633,23.7946720123291,0.9182115197181702,3.1493287086486816,0.07489457726478577,0.0,0.09597722440958023,99
1660547592.63962626,89119496,0,23.703479766845703,23.79063606262207,0.9080841541290283,3.1745455265045166,0.07549230009317398,0.0,0.09597722440958023,99
1660547592.73967505,89219545,0,23.74363136291504,23.839269638061523,0.996468186378479,3.2022411823272705,0.07614989578723907,0.0,0.09597722440958023,99
1660547592.83963704,89319507,0,23.734146118164062,23.828960418701172,0.9878752827644348,3.2296738624572754,0.07680098712444305,0.0,0.09597722440958023,99
1660547592.93995404,89419824,0,23.740949630737305,23.837146759033203,1.0022990703582764,3.257605791091919,0.07746411859989166,0.0,0.09597722440958023,99
1660547593.03937507,89519245,0,23.69159698486328,23.776897430419922,0.8887501358985901,3.282151460647583,0.07804564386606216,0.0,0.09597722440958023,99
1660547593.13974214,89619612,0,23.697826385498047,23.785276412963867,0.9111530184745789,3.3075571060180664,0.07864770293235779,0.0,0.09597722440958023,99
1660547593.23940206,89719272,0,23.723316192626953,23.81524658203125,0.9578343033790588,3.3340749740600586,0.07927679270505905,0.0,0.09597722440958023,99
1660547593.33976912,89819639,0,23.738361358642578,23.834735870361328,1.0041403770446777,3.36206316947937,0.07994118332862854,0.0,0.09597722440958023,99
1660547593.43967509,89919545,0,23.731557846069336,23.826047897338867,0.9844993948936462,3.3893959522247314,0.08058983087539673,0.0,0.09597722440958023,99
1660547593.53969526,90019565,0,23.682588577270508,23.76585578918457,0.8675748705863953,3.4135022163391113,0.08116073161363602,0.0,0.09597722440958023,99
1660547593.63959813,90119468,0,23.710952758789062,23.80186653137207,0.9449107646942139,3.4397263526916504,0.08178253471851349,0.0,0.09621409326791763,99
1660547593.73960519,90219475,0,23.735294342041016,23.831405639648438,0.9989233016967773,3.4674782752990723,0.08244124054908752,0.0,0.09621409326791763,99
1660547593.83961010,90319480,0,23.730215072631836,23.82502555847168,0.9854201674461365,3.494854688644409,0.0830908864736557,0.0,0.09621409326791763,99
1660547593.93962026,90419490,0,23.705875396728516,23.794780731201172,0.9240424036979675,3.5205271244049072,0.08369947224855423,0.0,0.09621409326791763,99
1660547594.03962207,90519492,0,23.69063949584961,23.776975631713867,0.8973430395126343,3.5454554557800293,0.0842900425195694,0.0,0.09621409326791763,99
1660547594.13963914,90619509,0,23.720014572143555,23.812959671020508,0.9660179018974304,3.572296380996704,0.08492670953273773,0.0,0.09621409326791763,99
1660547594.23966622,90719536,0,23.73931884765625,23.835901260375977,1.003833532333374,3.6001904010772705,0.08558889478445053,0.0,0.09621409326791763,99
1660547594.33989525,90819765,0,23.722549438476562,23.81697654724121,0.9814305901527405,3.627516984939575,0.08623714745044708,0.0,0.09621409326791763,99
1660547594.43963814,90919508,0,23.736061096191406,23.83196449279785,0.9967750310897827,3.6551358699798584,0.08689271658658981,0.0,0.09621409326791763,99
1660547594.53975415,91019624,0,23.695716857910156,23.783294677734375,0.910232424736023,3.6804513931274414,0.08749258518218994,0.0,0.09621409326791763,99
1660547594.63958406,91119454,0,23.699357986450195,23.78631591796875,0.9037877321243286,3.7055158615112305,0.08808659762144089,0.0,0.09621409326791763,99
1660547594.73973608,91219606,0,23.7310791015625,23.82633399963379,0.9900234341621399,3.733060598373413,0.0887402594089508,0.0,0.09621409326791763,99
1660547594.83939910,91319269,0,23.731462478637695,23.827070236206055,0.9937061071395874,3.760572910308838,0.08939316868782043,0.0,0.09621409326791763,99
1660547594.93972516,91419595,0,23.739179611206055,23.834945678710938,0.9953429698944092,3.7883031368255615,0.09005146473646164,0.0,0.09621409326791763,99
1660547595.03957415,91519444,0,23.67530632019043,23.75931167602539,0.8730987906455994,3.812530517578125,0.09062505513429642,0.0,0.09621409326791763,99
1660547595.13971806,91619588,0,23.709516525268555,23.80219078063965,0.9611759781837463,3.8392703533172607,0.09125904738903046,0.0,0.09641682356595993,99
1660547595.23959517,91719465,0,23.732803344726562,23.829086303710938,0.9986163377761841,3.8669776916503906,0.09191662073135376,0.0,0.09641682356595993,99
1660547595.33967519,91819545,0,23.72532844543457,23.819835662841797,0.9802030920982361,3.8942294120788574,0.09256318211555481,0.0,0.09641682356595993,99
1660547595.43961620,91919486,0,23.706544876098633,23.796112060546875,0.9289526343345642,3.920020580291748,0.09317459911108017,0.0,0.09641682356595993,99
1660547595.53987718,92019747,0,23.683164596557617,23.768056869506836,0.8804641366004944,3.944542646408081,0.09375536441802979,0.0,0.09641682356595993,99
1660547595.63960218,92119472,0,23.726478576660156,23.821460723876953,0.9851132035255432,3.971834897994995,0.09440291672945023,0.0,0.09641682356595993,99
1660547595.73965311,92219523,0,23.727628707885742,23.822935104370117,0.9884890913963318,3.9993090629577637,0.09505481272935867,0.0,0.09641682356595993,99
1660547595.83966708,92319537,0,23.743120193481445,23.841291427612305,1.0181889533996582,4.0275983810424805,0.09572649002075195,0.0,0.09641682356595993,99
1660547595.93969321,92419563,0,23.73711585998535,23.835086822509766,1.0161091089248657,4.055832862854004,0.09639669954776764,0.0,0.09641682356595993,99
1660547596.03972006,92519590,0,23.68488883972168,23.771495819091797,0.8982637524604797,4.080784320831299,0.09698767215013504,0.0,0.09641682356595993,99
1660547596.13992524,92619795,0,23.69456672668457,23.782920837402344,0.916370153427124,4.106301784515381,0.097592294216156,0.0,0.09641682356595993,99
1660547596.23968315,92719553,0,23.729450225830078,23.82579231262207,0.999230146408081,4.133994102478027,0.0982494130730629,0.0,0.09641682356595993,99
1660547596.33975625,92819626,0,23.731367111206055,23.826644897460938,0.9881821274757385,4.161466121673584,0.09890136122703552,0.0,0.09641682356595993,99
1660547596.43965316,92919523,0,23.72532844543457,23.819717407226562,0.9789754748344421,4.188633918762207,0.0995459258556366,0.0,0.09641682356595993,99
1660547596.53968906,93019559,0,23.683452606201172,23.76973533630371,0.8948879837989807,4.213502407073975,0.10013490170240402,0.0,0.09641682356595993,99
1660547596.63957524,93119445,0,23.720441818237305,23.8134708404541,0.9648586511611938,4.240275859832764,0.10076997429132462,0.0,0.09641682356595993,99
1660547596.73969126,93219561,0,23.737476348876953,23.83439826965332,1.005231499671936,4.268233776092529,0.10143361985683441,0.0,0.09641682356595993,99
1660547596.83957219,93319442,0,23.72446632385254,23.819595336914062,0.9866476655006409,4.295610427856445,0.10208311676979065,0.0,0.09641682356595993,99
1660547596.93969512,93419565,0,23.69964599609375,23.78968620300293,0.9338628053665161,4.321585178375244,0.10269870609045029,0.0,0.09641682356595993,99
1660547597.03960919,93519479,0,23.678661346435547,23.763967514038086,0.8847605586051941,4.346142292022705,0.10328018665313721,0.0,0.09641682356595993,99
1660547597.13963413,93619504,0,23.73558235168457,23.833404541015625,1.014574646949768,4.374334335327148,0.10394933819770813,0.0,0.09641682356595993,99
1660547597.23964024,93719510,0,23.735870361328125,23.83206558227539,0.9976956844329834,4.402052402496338,0.1046072468161583,0.0,0.09641682356595993,99
1660547597.33965516,93819525,0,23.730215072631836,23.826675415039062,1.0004576444625854,4.429849147796631,0.10526687651872635,0.0,0.09641682356595993,99
1660547597.43976021,93919630,0,23.737211227416992,23.835092544555664,1.0151883363723755,4.458080291748047,0.10593701153993607,0.0,0.09641682356595993,99
1660547597.53990412,94019774,0,23.689966201782227,23.776750564575195,0.9001049995422363,4.483121395111084,0.10653023421764374,0.0,0.09641682356595993,99
1660547597.63966727,94119537,0,23.69914436340332,23.788503646850586,0.9268043637275696,4.508806228637695,0.10713893920183182,0.0,0.09641682356595993,99
1660547597.73970318,94219573,0,23.723411560058594,23.818836212158203,0.9897165894508362,4.536311149597168,0.10779145359992981,0.0,0.09641682356595993,99
1660547597.83966422,94319534,0,23.735389709472656,23.83321189880371,1.014574646949768,4.5644850730896,0.10846017301082611,0.0,0.09641682356595993,99
1660547597.93974519,94419615,0,23.72964096069336,23.82556915283203,0.9949337244033813,4.592146396636963,0.1091165691614151,0.0,0.09641682356595993,99
1660547598.03962708,94519497,0,23.67674446105957,23.761873245239258,0.8829193115234375,4.616645336151123,0.10969661921262741,0.0,0.09641682356595993,99
1660547598.13973808,94619608,0,23.717756271362305,23.81208610534668,0.9783616662025452,4.64385461807251,0.11034195870161057,0.0,0.09641682356595993,99
1660547598.23957205,94719442,0,23.73261070251465,23.829959869384766,1.0096642971038818,4.67185640335083,0.11100651323795319,0.0,0.09641682356595993,99
1660547598.33992219,94819792,0,23.787233352661133,23.803512573242188,0.16940265893936157,4.676578998565674,0.111118845641613,0.0,0.09609421342611313,99
1660547598.43958306,94919453,0,23.748231887817383,23.751773834228516,0.03784962370991707,4.677627086639404,0.11114373058080673,0.0,0.09357691556215286,99
1660547598.53966713,95019537,0,23.752063751220703,23.755695343017578,0.03958866372704506,4.678727626800537,0.11116987466812134,0.0,0.09172718226909637,99
1660547598.63958716,95119457,0,23.785030364990234,23.79136848449707,0.06904999911785126,4.680644512176514,0.11121546477079391,0.0,0.09178998321294785,99
1660547598.73972917,95219599,0,23.808029174804688,23.817157745361328,0.09820443391799927,4.683376312255859,0.11128050833940506,0.0,0.09296364337205887,99
1660547598.83963418,95319504,0,23.80026626586914,23.80767059326172,0.07917732745409012,4.685573577880859,0.11133281141519547,0.0,0.09350749850273132,99
1660547598.93983722,95419707,0,23.820009231567383,23.831260681152344,0.11845909804105759,4.688870906829834,0.11141135543584824,0.0,0.09497736394405365,99
1660547599.03963423,95519504,0,23.74085235595703,23.74277687072754,0.02025466412305832,4.689432621002197,0.11142468452453613,0.0,0.09497736394405365,99
1660547599.13964915,95619519,0,23.790874481201172,23.798675537109375,0.08193933218717575,4.691709041595459,0.11147885024547577,0.0,0.09520576149225235,99
1660547599.23937106,95719241,0,23.781963348388672,23.7878475189209,0.061991553753614426,4.693426609039307,0.1115196943283081,0.0,0.0949217900633812,99
1660547599.33967614,95819546,0,23.82436180114746,23.835811614990234,0.1183227151632309,4.69672155380249,0.1115981936454773,0.0,0.09677451848983765,99
1660547599.43968606,95919556,0,23.785316467285156,23.791141510009766,0.06045711040496826,4.698402404785156,0.11163817346096039,0.0,0.09635976701974869,99
1660547599.53977418,96019644,0,23.766916275024414,23.771263122558594,0.04511266201734543,4.6996564865112305,0.11166798323392868,0.0,0.09635976701974869,99
1660547599.63968015,96119550,0,23.781963348388672,23.78762435913086,0.0589226633310318,4.701291561126709,0.11170687526464462,0.0,0.0960652306675911,99
1660547599.73994327,96219813,0,23.82297706604004,23.834026336669922,0.11293510347604752,4.704436779022217,0.11178180575370789,0.0,0.0978408008813858,99
1660547599.83956623,96319436,0,23.787616729736328,23.794174194335938,0.0672086626291275,4.706296920776367,0.11182605475187302,0.0,0.09757710248231888,99
1660547599.93963623,96419506,0,23.810710906982422,23.820110321044922,0.09544243663549423,4.708950042724609,0.11188922822475433,0.0,0.09848815202713013,99
1660547600.03956509,96519435,0,23.770750045776367,23.775314331054688,0.0463402196764946,4.710236549377441,0.11191980540752411,0.0,0.09848815202713013,99
1660547600.13987613,96619746,0,23.769023895263672,23.773527145385742,0.04572644084692001,4.71151065826416,0.1119500920176506,0.0,0.09848815202713013,99
1660547600.23956919,96719439,0,23.79380226135254,23.799964904785156,0.062400735914707184,4.713238716125488,0.11199121177196503,0.0,0.09874459356069565,99
1660547600.33973813,96819608,0,23.811094284057617,23.82094383239746,0.09973888099193573,4.716013431549072,0.11205728352069855,0.0,0.09874459356069565,99
1660547600.43961525,96919485,0,23.80103302001953,23.808700561523438,0.07733599841594696,4.7181596755981445,0.11210836470127106,0.0,0.09915006160736084,99
1660547600.53966427,97019534,0,23.775638580322266,23.78017234802246,0.04572644084692001,4.719430446624756,0.11213858425617218,0.0,0.09915006160736084,99
1660547600.63967109,97119541,0,23.769121170043945,23.773624420166016,0.04541955143213272,4.720692157745361,0.1121685802936554,0.0,0.09915006160736084,99
1660547600.73967409,97219544,0,23.80908203125,23.817996978759766,0.08991843461990356,4.7231903076171875,0.11222805827856064,0.0,0.09915006160736084,99
1660547600.83937621,97319246,0,23.799882888793945,23.80694007873535,0.07089133560657501,4.725153923034668,0.11227478832006454,0.0,0.09955672919750214,99
1660547600.93971205,97419582,0,23.806781768798828,23.815397262573242,0.08654265850782394,4.727566242218018,0.11233221739530563,0.0,0.09955672919750214,99
1660547601.03941011,97519280,0,23.738937377929688,23.741044998168945,0.021175332367420197,4.728152751922607,0.11234614253044128,0.0,0.09955672919750214,99
1660547601.13964915,97619519,0,23.82649040222168,23.83782958984375,0.11388987302780151,4.731324195861816,0.11242170631885529,0.0,0.09955672919750214,99
1660547601.23965120,97719521,0,23.80611228942871,23.8140869140625,0.080097995698452,4.73354959487915,0.11247467994689941,0.0,0.09955672919750214,99
1660547601.33966517,97819535,0,23.812244415283203,23.822021484375,0.09820443391799927,4.736278057098389,0.11253964900970459,0.0,0.09955672919750214,99
1660547601.43962026,97919490,0,23.758581161499023,23.76194190979004,0.0337577760219574,4.737215518951416,0.1125619187951088,0.0,0.09955672919750214,99
1660547601.53965521,98019525,0,23.771995544433594,23.776426315307617,0.044498883187770844,4.738451957702637,0.11259131878614426,0.0,0.09955672919750214,99
1660547601.63963509,98119505,0,23.79969024658203,23.807268142700195,0.0761084333062172,4.740565776824951,0.11264162510633469,0.0,0.09955672919750214,99
1660547601.73962522,98219495,0,23.818952560424805,23.829065322875977,0.10158021003007889,4.743387222290039,0.11270882934331894,0.0,0.09955672919750214,99
1660547601.83959317,98319463,0,23.803333282470703,23.811521530151367,0.08224621415138245,4.745671272277832,0.11276319622993469,0.0,0.09955672919750214,99
1660547601.93966722,98419537,0,23.829877853393555,23.84145736694336,0.11631087958812714,4.748904705047607,0.11284025013446808,0.0,0.09955672919750214,99
1660547602.03956223,98519432,0,23.745784759521484,23.7476863861084,0.01909530721604824,4.749434471130371,0.11285283416509628,0.0,0.09955672919750214,99
1660547602.13984919,98619719,0,23.796815872192383,23.804759979248047,0.0797910988330841,4.751657485961914,0.11290573328733444,0.0,0.09955672919750214,99
1660547602.23964405,98719514,0,23.78052520751953,23.78602409362793,0.05523999407887459,4.7531890869140625,0.1129421517252922,0.0,0.09955672919750214,99
1660547602.33972311,98819593,0,23.83179473876953,23.843984603881836,0.12244866043329239,4.756593227386475,0.11302328109741211,0.0,0.09955672919750214,99
1660547602.43965626,98919526,0,23.79001235961914,23.79545021057129,0.0546262189745903,4.7581095695495605,0.11305935680866241,0.0,0.09955672919750214,99
1660547602.53970814,99019578,0,23.77170753479004,23.776199340820312,0.04511266201734543,4.759363651275635,0.1130891665816307,0.0,0.09955672919750214,99
1660547602.63967609,99119546,0,23.78560447692871,23.792051315307617,0.06475354731082916,4.761161804199219,0.11313194036483765,0.0,0.09955672919750214,99
1660547602.73964620,99219516,0,23.834285736083984,23.846782684326172,0.12551754713058472,4.764647483825684,0.11321502178907394,0.0,0.09955672919750214,99
1660547602.83960104,99319471,0,23.787841796875,23.79391860961914,0.06103678420186043,4.7663421630859375,0.1132553294301033,0.0,0.09955672919750214,99
1660547602.93967414,99419544,0,23.785316467285156,23.791397094726562,0.06107088550925255,4.768040180206299,0.11329571902751923,0.0,0.09955672919750214,99
1660547603.03958416,99519454,0,23.76768684387207,23.772239685058594,0.04572644084692001,4.7693095207214355,0.11332588642835617,0.0,0.09955672919750214,99
1660547603.13960123,99619471,0,23.80754852294922,23.816776275634766,0.0926804393529892,4.771884441375732,0.11338718980550766,0.0,0.09955672919750214,99
1660547603.23963809,99719508,0,23.794708251953125,23.801433563232422,0.0675155520439148,4.773760795593262,0.11343183368444443,0.0,0.09960318356752396,99
1660547603.33963013,99819500,0,23.825946807861328,23.83698081970215,0.11078687012195587,4.776838302612305,0.11350515484809875,0.0,0.09960318356752396,99
1660547603.43959618,99919466,0,23.802183151245117,23.809436798095703,0.07273266464471817,4.778858184814453,0.1135532334446907,0.0,0.0997258871793747,99
1660547603.53967619,100019546,0,23.768644332885742,23.77262306213379,0.03989554941654205,4.779967308044434,0.11357959359884262,0.0,0.0997258871793747,99
1660547603.63957620,100119446,0,23.779760360717773,23.78499412536621,0.05247799679636955,4.781423568725586,0.11361422389745712,0.0,0.0997258871793747,99
1660547603.73976421,100219634,0,23.8137149810791,23.823848724365234,0.10161431133747101,4.784251689910889,0.11368156969547272,0.0,0.0997258871793747,99
1660547603.83936620,100319236,0,23.808029174804688,23.816261291503906,0.08255310356616974,4.786535739898682,0.11373595148324966,0.0,0.0997258871793747,99
1660547603.93992019,100419790,0,23.81061553955078,23.819246292114258,0.08654265850782394,4.7889533042907715,0.1137935146689415,0.0,0.0997258871793747,99
1660547604.03966808,100519538,0,23.747081756591797,23.749958038330078,0.028847552835941315,4.78975248336792,0.11381249874830246,0.0,0.0997258871793747,99
1660547604.13974118,100619611,0,23.822017669677734,23.833341598510742,0.1135488823056221,4.792909145355225,0.11388769745826721,0.0,0.0997258871793747,99
1660547604.23964906,100719519,0,23.80927276611328,23.817689895629883,0.0843944400548935,4.795251369476318,0.11394346505403519,0.0,0.0997258871793747,99
1660547604.33963108,100819501,0,23.814542770385742,23.824886322021484,0.10372843593358994,4.798132419586182,0.11401207000017166,0.0,0.0997258871793747,99
1660547604.43961525,100919485,0,23.761550903320312,23.765989303588867,0.044498883187770844,4.799368381500244,0.11404144018888474,0.0,0.0997258871793747,99
1660547604.53962111,101019491,0,23.78042984008789,23.785816192626953,0.054012443870306015,4.800868988037109,0.114077128469944,0.0,0.0997258871793747,99
1660547604.63958716,101119457,0,23.803281784057617,23.8107967376709,0.07535826414823532,4.802961826324463,0.11412694305181503,0.0,0.0997258871793747,99
1660547604.73960209,101219472,0,23.817611694335938,23.827375411987305,0.09789754450321198,4.8056817054748535,0.11419172585010529,0.0,0.0997258871793747,99
1660547604.83960009,101319470,0,23.80620765686035,23.81407356262207,0.07887043803930283,4.807872772216797,0.11424388736486435,0.0,0.0997258871793747,99
1660547604.93976927,101419639,0,23.834095001220703,23.846214294433594,0.12152798473834991,4.811254501342773,0.11432448774576187,0.0,0.0997258871793747,99
1660547605.03964114,101519511,0,23.744686126708984,23.746767044067383,0.020868442952632904,4.811833381652832,0.1143382340669632,0.0,0.0997258871793747,99
1660547605.13969827,101619568,0,23.800554275512695,23.807518005371094,0.06966377794742584,4.813769817352295,0.11438432335853577,0.0,0.09994843602180481,99
1660547605.23960805,101719478,0,23.76202964782715,23.765403747558594,0.0337577760219574,4.814706802368164,0.11440658569335938,0.0,0.09994843602180481,99
1660547605.33971024,101819580,0,23.803524017333984,23.810792922973633,0.07273266464471817,4.816729545593262,0.1144547313451767,0.0,0.09994843602180481,99
1660547605.43938017,101919250,0,23.777076721191406,23.782014846801758,0.049409110099077225,4.8180975914001465,0.11448726058006287,0.0,0.09994843602180481,99
1660547605.53995109,102019821,0,23.753873825073242,23.756940841674805,0.03068888746201992,4.818954944610596,0.11450763046741486,0.0,0.09994843602180481,99
1660547605.63965416,102119524,0,23.7845516204834,23.7906551361084,0.06107088550925255,4.820645809173584,0.11454784125089645,0.0,0.09994843602180481,99
1660547605.73971820,102219588,0,23.80984878540039,23.81757926940918,0.07733599841594696,4.82279634475708,0.11459904909133911,0.0,0.09994843602180481,99
1660547605.83971524,102319585,0,23.790874481201172,23.79719352722168,0.0632191076874733,4.824552059173584,0.11464081704616547,0.0,0.09994843602180481,99
1660547605.93976116,102419631,0,23.75695037841797,23.760446548461914,0.03498532995581627,4.825524806976318,0.11466392129659653,0.0,0.09994843602180481,99
1660547606.03961110,102519481,0,23.756567001342773,23.760032653808594,0.034678444266319275,4.826486587524414,0.11468677222728729,0.0,0.09994843602180481,99
1660547606.13963604,102619506,0,23.801990509033203,23.809566497802734,0.0758015513420105,4.828592777252197,0.1147368997335434,0.0,0.09994843602180481,99
1660547606.23960304,102719473,0,23.796146392822266,23.80274200439453,0.06598110496997833,4.830425262451172,0.11478050798177719,0.0,0.09994843602180481,99
1660547606.33960605,102819476,0,23.798490524291992,23.80513572692871,0.06649258732795715,4.832272529602051,0.11482446640729904,0.0,0.09994843602180481,99
1660547606.43963313,102919503,0,23.801225662231445,23.808679580688477,0.07457399368286133,4.834344863891602,0.11487378925085068,0.0,0.09994843602180481,99
1660547606.53963804,103019508,0,23.782825469970703,23.788776397705078,0.059536438435316086,4.835999011993408,0.11491312831640244,0.0,0.09994843602180481,99
1660547606.63964105,103119511,0,23.742002487182617,23.744823455810547,0.02823377586901188,4.836783409118652,0.11493174731731415,0.0,0.09994843602180481,99
1660547606.73977327,103219643,0,23.80246925354004,23.80992317199707,0.07457399368286133,4.838857650756836,0.11498111486434937,0.0,0.09994843602180481,99
1660547606.83967018,103319540,0,23.79442024230957,23.801658630371094,0.07242576777935028,4.84086799621582,0.11502894759178162,0.0,0.09994843602180481,99
1660547606.93991017,103419780,0,23.78330421447754,23.78913116455078,0.058308884501457214,4.842491626739502,0.11506756395101547,0.0,0.09994843602180481,99
1660547607.03936505,103519235,0,23.749956130981445,23.752716064453125,0.027619997039437294,4.843254566192627,0.11508569121360779,0.0,0.09994843602180481,99
1660547607.13970613,103619576,0,23.80256462097168,23.810232162475586,0.07672221958637238,4.845393180847168,0.11513659358024597,0.0,0.09994843602180481,99
1660547607.23967409,103719544,0,23.807750701904297,23.815317153930664,0.07569924741983414,4.8474955558776855,0.1151866465806961,0.0,0.09994843602180481,99
1660547607.33972216,103819592,0,23.797103881835938,23.804649353027344,0.0754946619272232,4.849593639373779,0.11523658037185669,0.0,0.09994843602180481,99
1660547607.43964005,103919510,0,23.75618553161621,23.7590389251709,0.02854066528379917,4.850385665893555,0.11525540053844452,0.0,0.09994843602180481,99
1660547607.53970408,104019574,0,23.633142471313477,23.837709426879883,2.0954372882843018,4.908634185791016,0.11663199961185455,0.0,0.09762517362833023,99
1660547607.63957524,104119445,0,23.709035873413086,23.874725341796875,1.763383388519287,4.957557201385498,0.11779192090034485,0.0,0.09396076947450638,99
1660547607.73971725,104219587,0,23.73931884765625,23.831907272338867,0.996468186378479,4.985278606414795,0.11845000088214874,0.0,0.09291595965623856,99
1660547607.83964109,104319511,0,23.737689971923828,23.835289001464844,1.062449336051941,5.014766216278076,0.11914996057748795,0.0,0.09186258912086487,99
1660547607.93971515,104419585,0,23.741714477539062,23.845142364501953,1.14285409450531,5.046543598175049,0.11990440636873245,0.0,0.09050033986568451,99
1660547608.03961706,104519487,0,23.680002212524414,23.770265579223633,0.9731446504592896,5.073551177978516,0.1205439493060112,0.0,0.09275425225496292,99
1660547608.13965821,104619528,0,23.723634719848633,23.818540573120117,1.0260318517684937,5.1020660400390625,0.1212204247713089,0.0,0.09249745309352875,99
1660547608.23963308,104719503,0,23.74066162109375,23.837289810180664,1.0446497201919556,5.131079196929932,0.12190921604633331,0.0,0.09249745309352875,99
1660547608.33985615,104819726,0,23.73481559753418,23.82834815979004,1.0111987590789795,5.159233093261719,0.12257744371891022,0.0,0.09249745309352875,99
1660547608.43968415,104919554,0,23.725616455078125,23.815326690673828,0.9679274559020996,5.186075687408447,0.12321430444717407,0.0,0.09268378466367722,99
1660547608.53968024,105019550,0,23.692747116088867,23.77628517150879,0.9013326168060303,5.211113929748535,0.12380752712488174,0.0,0.09268378466367722,99
1660547608.63938117,105119251,0,23.73567771911621,23.828062057495117,0.9967750310897827,5.2387213706970215,0.1244628056883812,0.0,0.09268378466367722,99
1660547608.73973227,105219602,0,23.753692626953125,23.850656509399414,1.0461841821670532,5.267886638641357,0.12515558302402496,0.0,0.09268378466367722,99
1660547608.83968210,105319552,0,23.73778533935547,23.830711364746094,1.00260591506958,5.295724868774414,0.12581640481948853,0.0,0.09268378466367722,99
1660547608.93972111,105419591,0,23.693225860595703,23.776763916015625,0.9013326168060303,5.320773601531982,0.1264098882675171,0.0,0.09268378466367722,99
1660547609.03961921,105519489,0,23.692119598388672,23.77675437927246,0.9131648540496826,5.346115589141846,0.1270102858543396,0.0,0.09268378466367722,99
1660547609.13970017,105619570,0,23.74295997619629,23.837961196899414,1.0250087976455688,5.3746137619018555,0.12768691778182983,0.0,0.09268378466367722,99
1660547609.23958826,105719458,0,23.729257583618164,23.821300506591797,0.99309241771698,5.4021711349487305,0.12834082543849945,0.0,0.09268378466367722,99
1660547609.33965206,105819522,0,23.744876861572266,23.83928108215332,1.018564224243164,5.430484771728516,0.12901313602924347,0.0,0.09268378466367722,99
1660547609.43960309,105919473,0,23.749094009399414,23.843782424926758,1.0216330289840698,5.4588518142700195,0.12968683242797852,0.0,0.09268378466367722,99
1660547609.53970313,106019573,0,23.680192947387695,23.762367248535156,0.8866019248962402,5.483506202697754,0.13027065992355347,0.0,0.09268378466367722,99
1660547609.63962126,106119491,0,23.720441818237305,23.80989646911621,0.9651654958724976,5.51029634475708,0.1309061348438263,0.0,0.09268378466367722,99
1660547609.73989606,106219766,0,23.751585006713867,23.847496032714844,1.0348292589187622,5.539122581481934,0.1315907984972,0.0,0.09268378466367722,99
1660547609.83964205,106319512,0,23.734708786010742,23.828161239624023,1.0083004236221313,5.567061901092529,0.13225392997264862,0.0,0.09268378466367722,99
1660547609.93968606,106419556,0,23.7230281829834,23.81402015686035,0.9817374348640442,5.59434700012207,0.13290120661258698,0.0,0.09268378466367722,99
1660547610.03978109,106519651,0,23.68479347229004,23.767677307128906,0.8942741751670837,5.619213104248047,0.1334901601076126,0.0,0.09268378466367722,99
1660547610.13974810,106619618,0,23.732707977294922,23.824722290039062,0.9927854537963867,5.646783828735352,0.13414448499679565,0.0,0.09268378466367722,99
1660547610.23966217,106719532,0,23.744972229003906,23.83949089050293,1.0197917222976685,5.675089359283447,0.13481660187244415,0.0,0.09268378466367722,99
1660547610.33973408,106819604,0,23.74066162109375,23.835180282592773,1.0197917222976685,5.703439712524414,0.13548965752124786,0.0,0.09268378466367722,99
1660547610.43971920,106919589,0,23.684600830078125,23.768850326538086,0.9090048670768738,5.7286882400512695,0.13608765602111816,0.0,0.09268378466367722,99
1660547610.53971410,107019584,0,23.693225860595703,23.778385162353516,0.9188252687454224,5.754211902618408,0.13669238984584808,0.0,0.09268378466367722,99
1660547610.63966107,107119531,0,23.7466983795166,23.842069625854492,1.0289983749389648,5.782779216766357,0.137370765209198,0.0,0.09268378466367722,99
1660547610.73969221,107219562,0,23.74610137939453,23.841577529907227,1.0301235914230347,5.811407566070557,0.13805058598518372,0.0,0.09268378466367722,99
1660547610.83957911,107319449,0,23.738361358642578,23.831769943237305,1.0078229904174805,5.839373588562012,0.13871444761753082,0.0,0.09268378466367722,99
1660547610.93977308,107419643,0,23.73702049255371,23.830827713012695,1.0121194124221802,5.867544651031494,0.13938313722610474,0.0,0.09268378466367722,99
1660547611.03964520,107519515,0,23.68488883972168,23.76808738708496,0.8976499438285828,5.892449855804443,0.1399730145931244,0.0,0.09268378466367722,99
1660547611.13969827,107619568,0,23.704437255859375,23.792583465576172,0.9510486125946045,5.918883800506592,0.14059960842132568,0.0,0.09268378466367722,99
1660547611.23965621,107719526,0,23.73845672607422,23.832691192626953,1.0167227983474731,5.947116374969482,0.14126980304718018,0.0,0.09268378466367722,99
1660547611.34003115,107819901,0,23.724945068359375,23.81670379638672,0.9900234341621399,5.974722862243652,0.14192475378513336,0.0,0.09268378466367722,99
1660547611.43968606,107919556,0,23.707311630249023,23.795202255249023,0.9482866525650024,6.000975131988525,0.1425471305847168,0.0,0.09268378466367722,99
1660547611.53970814,108019578,0,23.689455032348633,23.77412223815918,0.9135057926177979,6.026358127593994,0.14314843714237213,0.0,0.09268378466367722,99
1660547611.63973713,108119607,0,23.732707977294922,23.826515197753906,1.0121194124221802,6.054482936859131,0.14381591975688934,0.0,0.09268378466367722,99
1660547611.73970914,108219579,0,23.746410369873047,23.842975616455078,1.041887640953064,6.083418846130371,0.14450304210186005,0.0,0.09268378466367722,99
1660547611.83971810,108319588,0,23.733762741088867,23.827627182006836,1.0127332210540771,6.111555099487305,0.14517082273960114,0.0,0.09268378466367722,99
1660547611.93980122,108419671,0,23.74602699279785,23.841171264648438,1.0265432596206665,6.1400957107543945,0.14584855735301971,0.0,0.09268378466367722,99
1660547612.03977513,108519645,0,23.709035873413086,23.798093795776367,0.9608690142631531,6.166773796081543,0.14648106694221497,0.0,0.09268378466367722,99
1660547612.13985109,108619721,0,23.689008712768555,23.773771286010742,0.9145287871360779,6.192206382751465,0.14708353579044342,0.0,0.09268378466367722,99
1660547612.23977327,108719643,0,23.735103607177734,23.82848358154297,1.0075160264968872,6.220173358917236,0.14774733781814575,0.0,0.09268378466367722,99
1660547612.33998919,108819859,0,23.747560501098633,23.84432601928711,1.0440360307693481,6.249239444732666,0.14843758940696716,0.0,0.09268378466367722,99
1660547612.43961811,108919488,0,23.744077682495117,23.839269638061523,1.0270546674728394,6.277665138244629,0.1491125375032425,0.0,0.09268378466367722,99
1660547612.53970027,109019570,0,23.68488883972168,23.767717361450195,0.8936604261398315,6.302511692047119,0.14970102906227112,0.0,0.09268378466367722,99
1660547612.63961816,109119488,0,23.718812942504883,23.809492111206055,0.9783616662025452,6.329668045043945,0.15034514665603638,0.0,0.09268378466367722,99
1660547612.73971009,109219580,0,23.748998641967773,23.845138549804688,1.0372843742370605,6.358510494232178,0.15103012323379517,0.0,0.09268378466367722,99
1660547612.83966422,109319534,0,23.56960678100586,23.87819480895996,4.133179187774658,6.473278522491455,0.15373516082763672,0.0,0.07466118037700653,99
1660547612.93998313,109419853,0,23.403823852539062,23.877840042114258,6.546553134918213,6.655720233917236,0.1580049842596054,0.0,0.07240709662437439,99
1660547613.03967404,109519544,0,23.185335159301758,23.871444702148438,9.553449630737305,6.920294761657715,0.16413924098014832,0.0,0.071818046271801,99
1660547613.13979626,109619666,0,23.29189682006836,23.87687873840332,8.826430320739746,7.165791988372803,0.16985733807086945,0.0,0.06627605855464935,99
1660547613.23951411,109719384,0,23.367982864379883,23.84426498413086,7.21649169921875,7.3657026290893555,0.17452885210514069,0.0,0.06599917262792587,99
1660547613.33972025,109819590,0,23.32019805908203,23.856351852416992,8.171087265014648,7.593163013458252,0.1798332780599594,0.0,0.06561587005853653,99
1660547613.43976521,109919635,0,23.280780792236328,23.85829734802246,8.850367546081543,7.839137077331543,0.1855597347021103,0.0,0.06525345146656036,99
1660547613.53978705,110019657,0,23.036514282226562,23.819438934326172,11.97940731048584,8.171998023986816,0.19322769343852997,0.0,0.0653558224439621,99
1660547613.63969207,110119562,0,22.859901428222656,23.84457015991211,15.092487335205078,8.590865135192871,0.20280294120311737,0.0,0.06524230539798737,99
1660547613.73976326,110219633,0,22.661725997924805,23.87657928466797,18.872745513916016,9.115522384643555,0.21469257771968842,0.0,0.06437073647975922,99
1660547613.83973217,110319602,0,22.495464324951172,23.87629508972168,22.071447372436523,9.728483200073242,0.22848141193389893,0.0,0.06256182491779327,99
1660547613.93973708,110419607,0,22.44822120666504,23.840429306030273,22.28135871887207,10.347490310668945,0.24237702786922455,0.0,0.0624830462038517,99
1660547614.03974319,110519613,0,22.395132064819336,23.785865783691406,22.185916900634766,10.963846206665039,0.25618040561676025,0.0,0.06268543004989624,99
1660547614.13976908,110619639,0,22.45675277709961,23.8198299407959,21.740928649902344,11.567676544189453,0.2697404623031616,0.0,0.06269636750221252,99
1660547614.23975015,110719620,0,22.478397369384766,23.841814041137695,21.780927658081055,12.172932624816895,0.28334563970565796,0.0,0.06259682029485703,99
1660547614.33972716,110819597,0,22.455791473388672,23.823463439941406,21.848339080810547,12.779733657836914,0.2969718277454376,0.0,0.06259842962026596,99
1660547614.43966317,110919533,0,22.38459014892578,23.80479621887207,22.65392303466797,13.408662796020508,0.311050146818161,0.0,0.06269142031669617,99
1660547614.53971124,111019581,0,22.353832244873047,23.773738861083984,22.56400489807129,14.035791397094727,0.3250688910484314,0.0,0.0629279762506485,99
1660547614.63967514,111119545,0,22.383920669555664,23.82302474975586,22.878564834594727,14.67112922668457,0.33929023146629333,0.0,0.06290185451507568,99
1660547614.74002218,111219892,0,22.408451080322266,23.815086364746094,22.357160568237305,15.294366836547852,0.3532560169696808,0.0,0.06291655451059341,99
1660547614.83947825,111319348,0,22.427234649658203,23.815351486206055,22.058557510375977,15.903814315795898,0.3669242262840271,0.0,0.0629286915063858,99
1660547614.93982315,111419693,0,22.36897087097168,23.74100685119629,21.675561904907227,16.50785255432129,0.3804359436035156,0.0,0.06329874694347382,99
1660547615.03976512,111519635,0,22.37769317626953,23.764930725097656,21.838520050048828,17.114362716674805,0.39400824904441833,0.0,0.06352254003286362,99
1660547615.13982224,111619692,0,22.41301918029785,23.798648834228516,21.79865837097168,17.72028160095215,0.4075886905193329,0.0,0.06356486678123474,99
1660547615.23970127,111719571,0,22.416790008544922,23.785249710083008,21.493576049804688,18.3166446685791,0.4209572374820709,0.0,0.06366829574108124,99
1660547615.33979416,111819664,0,22.45195960998535,23.80208969116211,21.201108932495117,18.905847549438477,0.4341859817504883,0.0,0.06368201971054077,99
1660547615.43971920,111919589,0,22.493165969848633,23.766902923583984,20.04935646057129,19.462696075439453,0.4467112720012665,0.0,0.0635301023721695,99
1660547615.53974414,112019614,0,22.47160530090332,23.702543258666992,19.490819931030273,20.004291534423828,0.45888179540634155,0.0,0.06315480172634125,99
1660547615.63966918,112119539,0,22.47170066833496,23.677705764770508,19.21369743347168,20.53753089904785,0.47086456418037415,0.0,0.06276802718639374,99
1660547615.74018621,112220056,0,22.554302215576172,23.74664878845215,19.001331329345703,21.068233489990234,0.48283419013023376,0.0,0.06275065988302231,99
1660547615.83972311,112319593,0,22.5587100982666,23.73106575012207,18.705490112304688,21.585466384887695,0.49450230598449707,0.0,0.06267442554235458,99
1660547615.94025707,112420127,0,22.541643142700195,23.705429077148438,18.616901397705078,22.105405807495117,0.5062226057052612,0.0,0.0625123530626297,99
1660547616.03967524,112519545,0,22.511178970336914,23.662094116210938,18.499568939208984,22.6163330078125,0.5177241563796997,0.0,0.06221311166882515,99
1660547616.14025521,112620125,0,22.552770614624023,23.72627830505371,18.853715896606445,23.14312744140625,0.5296047925949097,0.0,0.06224279850721359,99
1660547616.23971415,112719584,0,22.540504455566406,23.708921432495117,18.78620147705078,23.662185668945312,0.5413045883178711,0.0,0.06219544634222984,99
1660547616.34038520,112820255,0,22.55190658569336,23.737247467041016,19.034475326538086,24.19451141357422,0.5533095598220825,0.0,0.062273357063531876,99
1660547616.43969607,112919566,0,22.5319766998291,23.714988708496094,19.006242752075195,24.7188663482666,0.5651243329048157,0.0,0.062243297696113586,99
1660547616.54028726,113020157,0,22.486648559570312,23.660930633544922,18.86599349975586,25.246055603027344,0.5769790410995483,0.0,0.062243297696113586,99
1660547616.63972020,113119590,0,22.495752334594727,23.67694854736328,18.977088928222656,25.77025032043457,0.5887711644172668,0.0,0.062243297696113586,99
1660547616.74032021,113220190,0,22.49230194091797,23.702314376831055,19.43588638305664,26.313419342041016,0.6009882688522339,0.0,0.06225660443305969,99
1660547616.83975410,113319624,0,22.502887725830078,23.706819534301758,19.34115982055664,26.847675323486328,0.613010585308075,0.0,0.06224716454744339,99
1660547616.94023919,113420109,0,22.4877986907959,23.69638442993164,19.40304946899414,27.389307022094727,0.6251906752586365,0.0,0.06228840723633766,99
1660547617.03971314,113519583,0,22.451095581054688,23.6495304107666,19.24009132385254,27.92098617553711,0.6371274590492249,0.0,0.06228840723633766,99
1660547617.14016819,113620038,0,22.4717960357666,23.66388511657715,19.13820457458496,28.45507049560547,0.6491292715072632,0.0,0.06228840723633766,99
1660547617.23968506,113719555,0,22.481666564941406,23.694019317626953,19.469642639160156,28.993324279785156,0.6612301468849182,0.0,0.06226884946227074,99
1660547617.34017706,113820047,0,22.47994041442871,23.684110641479492,19.32908821105957,29.532928466796875,0.6733604073524475,0.0,0.06229833886027336,99
1660547617.43971109,113919581,0,22.457611083984375,23.632511138916016,18.85923957824707,30.054397583007812,0.6850713491439819,0.0,0.06229833886027336,99
1660547617.54021120,114020081,0,22.44525146484375,23.618602752685547,18.834383010864258,30.58022689819336,0.6968737244606018,0.0,0.06229833886027336,99
1660547617.63972020,114119590,0,22.49064064025879,23.68228530883789,19.11269760131836,31.108570098876953,0.7087565064430237,0.0,0.06234828382730484,99
1660547617.74025416,114220124,0,22.49824333190918,23.653900146484375,18.558183670043945,31.626874923706055,0.7204174399375916,0.0,0.0622720830142498,99
1660547617.83974814,114319618,0,22.54596710205078,23.662559509277344,17.937654495239258,32.122657775878906,0.7315953373908997,0.0,0.06224854663014412,99
1660547617.94027805,114420148,0,22.57232093811035,23.66998291015625,17.630151748657227,32.614959716796875,0.7427077293395996,0.0,0.062260519713163376,99
1660547618.03971124,114519581,0,22.5408878326416,23.60305404663086,17.13237762451172,33.0882568359375,0.7533762454986572,0.0,0.06199757009744644,99
1660547618.14033008,114620200,0,22.548553466796875,23.603662490844727,17.073760986328125,33.56550216674805,0.7641374468803406,0.0,0.061797160655260086,99
1660547618.23970413,114719574,0,22.57107162475586,23.621408462524414,17.019136428833008,34.03533935546875,0.7747421860694885,0.0,0.06171507015824318,99
1660547618.34022427,114820094,0,22.597139358520508,23.650882720947266,17.058725357055664,34.511695861816406,0.7855064868927002,0.0,0.061771515756845474,99
1660547618.43985915,114919729,0,22.601930618286133,23.633453369140625,16.7064151763916,34.97410202026367,0.7959577441215515,0.0,0.06174410507082939,99
1660547618.54025221,115020122,0,22.54707145690918,23.576885223388672,16.678728103637695,35.43926239013672,0.8064457774162292,0.0,0.06174410507082939,99
1660547618.63971710,115119587,0,22.59349822998047,23.61986541748047,16.63214874267578,35.898826599121094,0.8168289661407471,0.0,0.06170981377363205,99
1660547618.74016023,115220030,0,22.605764389038086,23.642879486083984,16.788049697875977,36.36726379394531,0.8274183869361877,0.0,0.06177695840597153,99
1660547618.83969307,115319563,0,22.591772079467773,23.62090492248535,16.668975830078125,36.82817077636719,0.8378310799598694,0.0,0.061739373952150345,99
1660547618.94015312,115420023,0,22.579219818115234,23.579313278198242,16.250993728637695,37.28167724609375,0.8480709195137024,0.0,0.06154041737318039,99
1660547619.03971410,115519584,0,22.5773983001709,23.59178924560547,16.510929107666016,37.73820114135742,0.858377993106842,0.0,0.06143750250339508,99
1660547619.14021206,115620082,0,22.596946716308594,23.595378875732422,16.26848602294922,38.192543029785156,0.8686447739601135,0.0,0.061372123658657074,99
1660547619.23970604,115719576,0,22.61870002746582,23.60651969909668,16.096935272216797,38.63745880126953,0.8787081837654114,0.0,0.06136694923043251,99
1660547619.34017515,115820045,0,22.624160766601562,23.622074127197266,16.24567413330078,39.090877532958984,0.8889663815498352,0.0,0.06142640858888626,99
1660547619.43979216,115919662,0,22.63058090209961,23.6215763092041,16.12148666381836,39.53702163696289,0.8990628719329834,0.0,0.06147049739956856,99
1660547619.54022908,116020099,0,22.57969856262207,23.552471160888672,15.825031280517578,39.97856140136719,0.9090327024459839,0.0,0.06147049739956856,99
1660547619.63972211,116119592,0,22.597713470458984,23.578792572021484,15.985840797424316,40.42039489746094,0.9190171957015991,0.0,0.06137170270085335,99
1660547619.74031019,116220180,0,22.625789642333984,23.61356544494629,16.07790756225586,40.869667053222656,0.9291822910308838,0.0,0.06143680587410927,99
1660547619.83972025,116319590,0,22.623682022094727,23.602088928222656,15.924463272094727,41.3094367980957,0.9391315579414368,0.0,0.06144049018621445,99
1660547619.94030523,116420175,0,22.609498977661133,23.586524963378906,15.91771125793457,41.7538948059082,0.949180543422699,0.0,0.06137975677847862,99
1660547620.03971410,116519584,0,22.587268829345703,23.551504135131836,15.709333419799805,42.18803787231445,0.9589866995811462,0.0,0.06137975677847862,99
1660547620.14026904,116620139,0,22.616878509521484,23.56401824951172,15.457992553710938,42.61970520019531,0.9687497019767761,0.0,0.06127186119556427,99
1660547620.23965311,116719523,0,22.66164207458496,23.60512924194336,15.377177238464355,43.04438018798828,0.9783735275268555,0.0,0.06135636568069458,99
1660547620.34021926,116820089,0,22.650707244873047,23.593101501464844,15.355183601379395,43.473365783691406,0.9880903363227844,0.0,0.061373017728328705,99
1660547620.43969512,116919565,0,22.610076904296875,23.540868759155273,15.16614055633545,43.892478942871094,0.9975664615631104,0.0,0.061373017728328705,99
1660547620.54025507,117020125,0,22.60384750366211,23.5361270904541,15.190383911132812,44.316829681396484,1.0071583986282349,0.0,0.061373017728328705,99
1660547620.63972425,117119594,0,22.65760612487793,23.59461212158203,15.246546745300293,44.73805618286133,1.01670241355896,0.0,0.061456870287656784,99
1660547620.74023318,117220103,0,22.651473999023438,23.586196899414062,15.201740264892578,45.16258239746094,1.0263185501098633,0.0,0.06148790940642357,99
1660547620.83969212,117319562,0,22.6599063873291,23.59642791748047,15.214630126953125,45.58295822143555,1.0358442068099976,0.0,0.061554014682769775,99
1660547620.94028521,117420155,0,22.670543670654297,23.5936336517334,14.986611366271973,46.00175476074219,1.04533851146698,0.0,0.061594270169734955,99
1660547621.03976417,117519634,0,22.623842239379883,23.541353225708008,14.89604377746582,46.41341018676758,1.0546517372131348,0.0,0.061594270169734955,99
1660547621.14023519,117620105,0,22.6081600189209,23.51854705810547,14.78038215637207,46.82594299316406,1.0639783143997192,0.0,0.061594270169734955,99
1660547621.23977208,117719642,0,22.677825927734375,23.594404220581055,14.855262756347656,47.2367057800293,1.0732935667037964,0.0,0.06170051917433739,99
1660547621.34029007,117820160,0,22.667476654052734,23.577436447143555,14.744782447814941,47.648441314697266,1.0826265811920166,0.0,0.061714041978120804,99
1660547621.43967724,117919547,0,22.660289764404297,23.569629669189453,14.739871978759766,48.05540084838867,1.091848373413086,0.0,0.061692532151937485,99
1660547621.54023814,118020108,0,22.636812210083008,23.532426834106445,14.517377853393555,48.460960388183594,1.1010289192199707,0.0,0.061692532151937485,99
1660547621.63968325,118119553,0,22.670448303222656,23.565673828125,14.512160301208496,48.86186599731445,1.1101176738739014,0.0,0.06168795004487038,99
1660547621.74019623,118220066,0,22.69430923461914,23.592485427856445,14.534871101379395,49.26771545410156,1.1193281412124634,0.0,0.061794549226760864,99
1660547621.83967018,118319540,0,22.686548233032227,23.55950164794922,14.138676643371582,49.65835952758789,1.128190517425537,0.0,0.06174216419458389,99
1660547621.94022107,118420091,0,22.702314376831055,23.5162296295166,13.229637145996094,50.02796173095703,1.1365814208984375,0.0,0.06152215600013733,99
1660547622.03968716,118519557,0,22.689327239990234,23.510900497436523,13.396312713623047,50.398128509521484,1.1449801921844482,0.0,0.061328351497650146,99
1660547622.14027214,118620142,0,22.652240753173828,23.57134437561035,15.013618469238281,50.81764221191406,1.1544830799102783,0.0,0.06121794879436493,99
1660547622.23970222,118719572,0,22.60748863220215,23.559446334838867,15.561107635498047,51.24747085571289,1.1642004251480103,0.0,0.061175499111413956,99
1660547622.34021926,118820089,0,22.603750228881836,23.573246002197266,15.874441146850586,51.690738677978516,1.1742199659347534,0.0,0.061072804033756256,99
1660547622.43973517,118919605,0,22.590911865234375,23.573619842529297,16.11534881591797,52.13625717163086,1.1842845678329468,0.0,0.060979653149843216,99
1660547622.54026628,119020136,0,22.546062469482422,23.54207420349121,16.31605339050293,52.591922760009766,1.194558024406433,0.0,0.061044879257678986,99
1660547622.63986325,119119733,0,22.526418685913086,23.52237319946289,16.274930953979492,53.04206848144531,1.2046982049942017,0.0,0.06119567155838013,99
1660547622.74031615,119220186,0,22.549510955810547,23.557178497314453,16.474102020263672,53.501949310302734,1.2150682210922241,0.0,0.06116676703095436,99
1660547622.83979416,119319664,0,22.52950668334961,23.552215576171875,16.72066879272461,53.96402359008789,1.2254785299301147,0.0,0.06116434186697006,99
1660547622.94034123,119420211,0,22.523351669311523,23.54836654663086,16.753984451293945,54.4319953918457,1.2360187768936157,0.0,0.06118032708764076,99
1660547623.03979707,119519667,0,22.4788875579834,23.51901626586914,16.958677291870117,54.900543212890625,1.246551275253296,0.0,0.06133317947387695,99
1660547623.14024019,119620110,0,22.4842529296875,23.535036087036133,17.115192413330078,55.37810516357422,1.257288932800293,0.0,0.061394792050123215,99
1660547623.23970819,119719578,0,22.51185417175293,23.573169708251953,17.32203483581543,55.85675048828125,1.2680641412734985,0.0,0.06126967445015907,99
1660547623.34029913,119820169,0,22.486839294433594,23.56626319885254,17.640586853027344,56.349700927734375,1.279149055480957,0.0,0.061189744621515274,99
1660547623.43968415,119919554,0,22.415639877319336,23.514318466186523,17.904203414916992,56.84402084350586,1.2902295589447021,0.0,0.06136428937315941,99
1660547623.54021215,120020082,0,22.4040470123291,23.527509689331055,18.279834747314453,57.354522705078125,1.3016668558120728,0.0,0.06145911291241646,99
1660547623.63969922,120119569,0,22.41525650024414,23.54965591430664,18.463796615600586,57.86481475830078,1.3131052255630493,0.0,0.061439093202352524,99
1660547623.74025822,120220128,0,22.416120529174805,23.56812858581543,18.782827377319336,58.3895149230957,1.3248668909072876,0.0,0.06133303791284561,99
1660547623.83969307,120319563,0,22.397239685058594,23.570276260375977,19.15876579284668,58.918739318847656,1.3367199897766113,0.0,0.06122710928320885,99
1660547623.94031906,120420189,0,22.395132064819336,23.57578468322754,19.32172203063965,59.4588623046875,1.348816156387329,0.0,0.0611049085855484,99
1660547624.03976321,120519633,0,22.314348220825195,23.49907875061035,19.307605743408203,59.992244720458984,1.3607182502746582,0.0,0.06136077269911766,99
1660547624.14023209,120620102,0,22.32134437561035,23.522268295288086,19.53286361694336,60.53740692138672,1.3728870153427124,0.0,0.06148220971226692,99
1660547624.24090123,120720771,0,22.319522857666016,23.545137405395508,19.934274673461914,61.094886779785156,1.3853297233581543,0.0,0.06148277968168259,99
1660547624.34092116,120820791,0,22.337444305419922,23.531017303466797,19.391693115234375,61.63370132446289,1.3973654508590698,0.0,0.06155073642730713,99
1660547624.43979716,120919667,0,22.387754440307617,23.50298500061035,18.167821884155273,62.13273239135742,1.4085376262664795,0.0,0.061384908854961395,99
1660547624.53984308,121019713,0,22.41600227355957,23.5140438079834,17.912080764770508,62.63055419921875,1.4196968078613281,0.0,0.06130174174904823,99
1660547624.63979316,121119663,0,22.37855339050293,23.457355499267578,17.598234176635742,63.11919403076172,1.4306318759918213,0.0,0.06130174174904823,99
1660547624.74036527,121220235,0,22.433176040649414,23.506553649902344,17.522741317749023,63.608760833740234,1.4416143894195557,0.0,0.06125622242689133,99
1660547624.83974218,121319612,0,22.44687843322754,23.497636795043945,17.173500061035156,64.0828628540039,1.4522565603256226,0.0,0.06118489429354668,99
1660547624.94022822,121420098,0,22.447071075439453,23.508148193359375,17.345664978027344,64.56707000732422,1.4631255865097046,0.0,0.061172518879175186,99
1660547625.03967905,121519549,0,22.413532257080078,23.47174835205078,17.343517303466797,65.04622650146484,1.4738651514053345,0.0,0.061015091836452484,99
1660547625.14022112,121620091,0,22.39015007019043,23.46563148498535,17.6264705657959,65.53854370117188,1.4848881959915161,0.0,0.061015091836452484,99
1660547625.23966813,121719538,0,22.41947364807129,23.496150970458984,17.645496368408203,66.0260238647461,1.4958173036575317,0.0,0.06101706624031067,99
1660547625.34025621,121820126,0,22.462881088256836,23.530927658081055,17.463205337524414,66.51399993896484,1.506778597831726,0.0,0.061159826815128326,99
1660547625.43968725,121919557,0,22.4675350189209,23.532665252685547,17.382184982299805,66.99413299560547,1.5175660848617554,0.0,0.0612771101295948,99
1660547625.54028726,122020157,0,22.41333770751953,23.45567512512207,17.010234832763672,67.46951293945312,1.5282208919525146,0.0,0.0612771101295948,99
1660547625.63973618,122119606,0,22.43720054626465,23.48489761352539,17.116113662719727,67.94237518310547,1.5388306379318237,0.0,0.06121112406253815,99
1660547625.74031425,122220184,0,22.47601318359375,23.5242977142334,17.095245361328125,68.42002868652344,1.5495662689208984,0.0,0.061320215463638306,99
1660547625.83978820,122319658,0,22.464513778686523,23.50711441040039,16.998573303222656,68.88958740234375,1.5601146221160889,0.0,0.06133464723825455,99
1660547625.94030404,122420174,0,22.468921661376953,23.491788864135742,16.690765380859375,69.35582733154297,1.5705904960632324,0.0,0.0612834170460701,99
1660547626.03979206,122519662,0,22.441896438598633,23.458332061767578,16.58580780029297,69.81422424316406,1.5808777809143066,0.0,0.0612834170460701,99
1660547626.14022207,122620092,0,22.476970672607422,23.479228973388672,16.370986938476562,70.27096557617188,1.5911439657211304,0.0,0.061221644282341,99
1660547626.23978305,122719653,0,22.501075744628906,23.51177978515625,16.48607063293457,70.72693634033203,1.601403832435608,0.0,0.061306580901145935,99
1660547626.34025025,122820120,0,22.50332260131836,23.50014305114746,16.254674911499023,71.18045806884766,1.6116095781326294,0.0,0.061325132846832275,99
1660547626.43973422,122919604,0,22.488277435302734,23.500852584838867,16.50693702697754,71.63679504394531,1.621871829032898,0.0,0.061342380940914154,99
1660547626.54021311,123020083,0,22.491823196411133,23.49135398864746,16.30101776123047,72.09180450439453,1.632105827331543,0.0,0.061317045241594315,99
1660547626.63976812,123119638,0,22.48348617553711,23.465782165527344,16.05243682861328,72.53568267822266,1.6420856714248657,0.0,0.06119294837117195,99
1660547626.74021125,123220081,0,22.466142654418945,23.43499183654785,15.832703590393066,72.9775390625,1.652012586593628,0.0,0.06119294837117195,99
1660547626.83984113,123319711,0,22.51309585571289,23.48828887939453,15.927839279174805,73.41818237304688,1.6619328260421753,0.0,0.06122571602463722,99
1660547626.94027615,123420146,0,22.529197692871094,23.503311157226562,15.887636184692383,73.86164855957031,1.6719237565994263,0.0,0.06131262332201004,99
1660547627.03969216,123519562,0,22.473499298095703,23.433917999267578,15.664290428161621,74.29425811767578,1.6816461086273193,0.0,0.06131262332201004,99
1660547627.14027119,123620141,0,22.501501083374023,23.45390510559082,15.5586519241333,74.7289810180664,1.6914279460906982,0.0,0.06121375039219856,99
1660547627.23974013,123719610,0,22.548648834228516,23.500370025634766,15.518755912780762,75.15780639648438,1.7010972499847412,0.0,0.061327122151851654,99
1660547627.34024119,123820111,0,22.544050216674805,23.4858455657959,15.349661827087402,75.58635711669922,1.7107585668563843,0.0,0.06135609745979309,99
