timestamp,TimeUS,Instance,Volt,VoltR,Curr,CurrTot,EnrgTot,Temp,Res,RemPct
1656402625.77968907,149308545,0,24.263486862182617,24.279373168945312,0.18742142617702484,12.546131134033203,0.3050021827220917,0.0,0.08476648479700089,99
1656402625.87968993,149408546,0,24.30365562438965,24.32584571838379,0.26177623867988586,12.5534029006958,0.3051789104938507,0.0,0.08476648479700089,99
1656402625.97969604,149508552,0,24.303932189941406,24.32636260986328,0.26460638642311096,12.56075382232666,0.30535757541656494,0.0,0.08476648479700089,99
1656402626.07965899,149608515,0,24.271202087402344,24.288007736206055,0.1982502043247223,12.566259384155273,0.30549120903015137,0.0,0.08476648479700089,99
1656402626.17966700,149708523,0,24.259809494018555,24.274974822998047,0.17891621589660645,12.571229934692383,0.305611789226532,0.0,0.08476648479700089,99
1656402626.27972007,149808576,0,24.287860870361328,24.307384490966797,0.23016665875911713,12.577627182006836,0.3057671785354614,0.0,0.08482059836387634,99
1656402626.37969089,149908547,0,24.30260467529297,24.324443817138672,0.2574797570705414,12.58477783203125,0.3059409558773041,0.0,0.08482059836387634,99
1656402626.47970605,150008562,0,24.29800796508789,24.319744110107422,0.2562521994113922,12.591897964477539,0.30611395835876465,0.0,0.08482059836387634,99
1656402626.57964087,150108497,0,24.24477767944336,24.257402420043945,0.14884111285209656,12.596030235290527,0.3062141537666321,0.0,0.08482059836387634,99
1656402626.67966986,150208526,0,24.272157669067383,24.289546966552734,0.20500177145004272,12.601726531982422,0.306352436542511,0.0,0.08482059836387634,99
1656402626.77974701,150308603,0,24.30010414123535,24.322114944458008,0.25949159264564514,12.608939170837402,0.306527704000473,0.0,0.08482059836387634,99
1656402626.87964296,150408499,0,24.296092987060547,24.31683921813965,0.2445904165506363,12.615727424621582,0.30669263005256653,0.0,0.08482059836387634,99
1656402626.97969007,150508546,0,24.30547523498535,24.327964782714844,0.2651519775390625,12.62309741973877,0.3068717420101166,0.0,0.08482059836387634,99
1656402627.07964492,150608501,0,24.29619026184082,24.317222595214844,0.2479662150144577,12.629983901977539,0.3070390522480011,0.0,0.08482059836387634,99
1656402627.17967606,150708532,0,24.248416900634766,24.26169204711914,0.15651333332061768,12.634333610534668,0.30714452266693115,0.0,0.08482059836387634,99
1656402627.27967596,150808532,0,24.286231994628906,24.305286407470703,0.22464263439178467,12.640571594238281,0.3072960376739502,0.0,0.08482059836387634,99
1656402627.37971306,150908569,0,24.290924072265625,24.31031608581543,0.22863219678401947,12.646927833557129,0.30745044350624084,0.0,0.08482059836387634,99
1656402627.47968388,151008540,0,24.304134368896484,24.326520919799805,0.26392441987991333,12.654257774353027,0.3076286017894745,0.0,0.08482059836387634,99
1656402627.57973099,151108587,0,24.26909637451172,24.28531265258789,0.19119176268577576,12.659571647644043,0.30775755643844604,0.0,0.08482059836387634,99
1656402627.67965508,151208511,0,24.253488540649414,24.267675399780273,0.16725443303585052,12.664214134216309,0.30787014961242676,0.0,0.08482059836387634,99
1656402627.77972388,151308580,0,24.294252395629883,24.31429672241211,0.2363044172525406,12.670783042907715,0.30802974104881287,0.0,0.08482059836387634,99
1656402627.87975693,151408613,0,24.306432723999023,24.329105377197266,0.26730018854141235,12.678211212158203,0.3082102835178375,0.0,0.08482059836387634,99
1656402627.97961998,151508476,0,24.2714900970459,24.338708877563477,0.8071177005767822,12.700602531433105,0.30875375866889954,0.0,0.08328209072351456,99
1656402628.07970595,151608562,0,23.93678855895996,24.312692642211914,4.516176223754883,12.82616901397705,0.31175941228866577,0.0,0.08323512971401215,99
1656402628.17964005,151708496,0,24.068811416625977,24.301820755004883,2.7920749187469482,12.903682708740234,0.3136250674724579,0.0,0.08345392346382141,99
1656402628.27968407,151808540,0,24.17871856689453,24.337141036987305,1.9128382205963135,12.956844329833984,0.3149104714393616,0.0,0.08282022178173065,99
1656402628.37967801,151908534,0,24.180057525634766,24.31560516357422,1.637558937072754,13.00233268737793,0.31601038575172424,0.0,0.08277428895235062,99
1656402628.47968006,152008536,0,24.208110809326172,24.33179473876953,1.4942418336868286,13.043840408325195,0.3170152008533478,0.0,0.08277428895235062,99
1656402628.57963204,152108488,0,24.204259872436523,24.319961547851562,1.3966853618621826,13.082620620727539,0.31795382499694824,0.0,0.08284065872430801,99
1656402628.67970896,152208565,0,24.17718505859375,24.2838077545166,1.2870919704437256,13.118408203125,0.3188190460205078,0.0,0.08284065872430801,99
1656402628.77966094,152308517,0,24.183504104614258,24.28748321533203,1.2551754713058472,13.153260231018066,0.3196618854999542,0.0,0.08284065872430801,99
1656402628.87968302,152408539,0,24.21615219116211,24.324016571044922,1.2966054677963257,13.189288139343262,0.320534348487854,0.0,0.08318975567817688,99
1656402628.97971392,152508570,0,24.22515106201172,24.334020614624023,1.3009018898010254,13.225439071655273,0.32141008973121643,0.0,0.0836871787905693,99
1656402629.07969499,152608551,0,24.185993194580078,24.287105560302734,1.208221435546875,13.258996963500977,0.3222217261791229,0.0,0.0836871787905693,99
1656402629.17970586,152708562,0,24.177568435668945,24.277910232543945,1.1990149021148682,13.292308807373047,0.3230271339416504,0.0,0.0836871787905693,99
1656402629.27969193,152808548,0,24.212799072265625,24.319782257080078,1.27358877658844,13.327683448791504,0.32388365268707275,0.0,0.08400171250104904,99
1656402629.37973189,152908588,0,24.221704483032227,24.331111907958984,1.2947641611099243,13.363666534423828,0.3247552216053009,0.0,0.08450011909008026,99
1656402629.47968006,153008536,0,24.22638511657715,24.337202072143555,1.3114385604858398,13.400079727172852,0.3256373703479767,0.0,0.08450011909008026,99
1656402629.57974100,153108597,0,24.17622947692871,24.278221130371094,1.206993818283081,13.43363094329834,0.3264485001564026,0.0,0.08450011909008026,99
1656402629.67968798,153208544,0,24.177091598510742,24.279056549072266,1.206687092781067,13.467134475708008,0.32725852727890015,0.0,0.08450011909008026,99
1656402629.77966785,153308524,0,24.220651626586914,24.33096694946289,1.3055051565170288,13.50339412689209,0.32813677191734314,0.0,0.08450011909008026,99
1656402629.87968898,153408545,0,24.21567153930664,24.324146270751953,1.283716082572937,13.539063453674316,0.3290005326271057,0.0,0.08450011909008026,99
1656402629.97967005,153508526,0,24.222949981689453,24.333057403564453,1.30305016040802,13.575255393981934,0.32987719774246216,0.0,0.08450011909008026,99
1656402630.07971001,153608566,0,24.20964241027832,24.316621780395508,1.265609622001648,13.610427856445312,0.3307287096977234,0.0,0.0845283791422844,99
1656402630.17964292,153708499,0,24.166561126708984,24.267107009887695,1.189501166343689,13.643449783325195,0.3315267562866211,0.0,0.0845283791422844,99
1656402630.27966404,153808520,0,24.193090438842773,24.31608009338379,1.4584040641784668,13.683972358703613,0.3325071334838867,0.0,0.08433172851800919,99
1656402630.37966800,153908524,0,24.056747436523438,24.34415054321289,3.4426796436309814,13.779613494873047,0.33480796217918396,0.0,0.0834822803735733,99
1656402630.47971487,154008571,0,23.755844116210938,24.39800262451172,7.9244842529296875,13.999856948852539,0.34004002809524536,0.0,0.08103474974632263,99
1656402630.57969689,154108553,0,23.89341926574707,24.30985450744629,5.126578330993652,14.14224910736084,0.34344226121902466,0.0,0.08123064786195755,99
1656402630.67972088,154208577,0,23.936119079589844,24.28500747680664,4.268824100494385,14.260865211486816,0.3462814688682556,0.0,0.08172931522130966,99
1656402630.77969003,154308546,0,23.995187759399414,24.333744049072266,4.1534342765808105,14.376208305358887,0.3490491509437561,0.0,0.08151239901781082,99
1656402630.87971306,154408569,0,24.010986328125,24.3428955078125,4.0874528884887695,14.489787101745605,0.3517763018608093,0.0,0.08120209723711014,99
1656402630.97974205,154508598,0,24.004474639892578,24.335861206054688,4.089907646179199,14.603437423706055,0.35450443625450134,0.0,0.08102527260780334,99
1656402631.07967687,154608533,0,23.94416046142578,24.278560638427734,4.096353054046631,14.717103004455566,0.35722607374191284,0.0,0.08163345605134964,99
1656402631.17970896,154708565,0,23.960233688354492,24.30279541015625,4.1856231689453125,14.833474159240723,0.3600143492221832,0.0,0.08184255659580231,99
1656402631.27968287,154808539,0,23.964744567871094,24.330081939697266,4.4738264083862305,14.957674026489258,0.36299076676368713,0.0,0.08166120201349258,99
1656402631.37967706,154908533,0,23.96263885498047,24.32468605041504,4.438226699829102,15.081012725830078,0.36594629287719727,0.0,0.08157464861869812,99
1656402631.47967792,155008534,0,23.945884704589844,24.34279441833496,4.884749889373779,15.216711044311523,0.36919569969177246,0.0,0.08125478029251099,99
1656402631.57962704,155108483,0,23.865942001342773,24.322851181030273,5.624044895172119,15.372868537902832,0.37292253971099854,0.0,0.08124200254678726,99
1656402631.67971301,155208569,0,23.74531364440918,24.305286407470703,6.873083114624023,15.563966751098633,0.377460241317749,0.0,0.08147326856851578,99
1656402631.77975988,155308616,0,23.6408634185791,24.348453521728516,8.723623275756836,15.80642318725586,0.38319212198257446,0.0,0.08111188560724258,99
1656402631.87968493,155408541,0,23.49782943725586,24.372175216674805,10.846373558044434,16.107505798339844,0.39026692509651184,0.0,0.08061183989048004,99
1656402631.97967696,155508533,0,23.539093017578125,24.363582611083984,10.272491455078125,16.39285659790039,0.396983802318573,0.0,0.08026191592216492,99
1656402632.07970905,155608565,0,23.524520874023438,24.30367660522461,9.671773910522461,16.66162109375,0.40330636501312256,0.0,0.08055973052978516,99
1656402632.17967200,155708528,0,23.525306701660156,24.298307418823242,9.557440757751465,16.927030563354492,0.4095502197742462,0.0,0.08087950199842453,99
1656402632.27973199,155808588,0,23.57642936706543,24.330026626586914,9.321442604064941,17.18613624572754,0.41565898060798645,0.0,0.08084546029567719,99
1656402632.37968588,155908542,0,23.608503341674805,24.335023880004883,8.995526313781738,17.435916900634766,0.42155593633651733,0.0,0.08076471090316772,99
1656402632.47973800,156008594,0,23.56321907043457,24.33820152282715,9.608076095581055,17.70296859741211,0.4278485178947449,0.0,0.08065938949584961,99
1656402632.57970691,156108563,0,23.527605056762695,24.282567977905273,9.306097984313965,17.96141242980957,0.43392905592918396,0.0,0.08112567663192749,99
1656402632.67969298,156208549,0,23.497541427612305,24.304771423339844,9.926012992858887,18.237091064453125,0.44040682911872864,0.0,0.08132468163967133,99
1656402632.77969790,156308554,0,23.24355125427246,24.38249397277832,14.086812973022461,18.628480911254883,0.44950413703918457,0.0,0.08085176348686218,99
1656402632.87964606,156408502,0,23.304725646972656,24.346506118774414,12.90682601928711,18.98680305480957,0.4578547477722168,0.0,0.08071541786193848,99
1656402632.97973800,156508594,0,23.30027961730957,24.353771209716797,13.08096694946289,19.350566864013672,0.46633052825927734,0.0,0.08053617924451828,99
1656402633.07969594,156608552,0,23.28098487854004,24.325794219970703,12.963906288146973,19.710552215576172,0.4747113585472107,0.0,0.08059374988079071,99
1656402633.17969489,156708551,0,23.24862289428711,24.282642364501953,12.76841926574707,20.065258026123047,0.4829578101634979,0.0,0.08098253607749939,99
1656402633.27966404,156808520,0,23.264135360717773,24.32628631591797,13.113975524902344,20.42942237854004,0.49142977595329285,0.0,0.08099386841058731,99
1656402633.37974286,156908599,0,23.29610824584961,24.325597763061523,12.708268165588379,20.782730102539062,0.499660462141037,0.0,0.08100949972867966,99
1656402633.47969985,157008556,0,23.299558639526367,24.34443473815918,12.91940689086914,21.141511917114258,0.5080199241638184,0.0,0.08087651431560516,99
1656402633.57968903,157108545,0,23.27140998840332,24.30605697631836,12.764735221862793,21.496074676513672,0.5162710547447205,0.0,0.0810551792383194,99
1656402633.67975307,157208609,0,23.305971145629883,24.280895233154297,12.0278959274292,21.830427169799805,0.5240634679794312,0.0,0.0810551792383194,99
1656402633.77969193,157308548,0,23.289405822753906,24.28365707397461,12.224611282348633,22.169818878173828,0.5319676995277405,0.0,0.08133185654878616,99
1656402633.87969685,157408553,0,23.139440536499023,24.361156463623047,15.082905769348145,22.588817596435547,0.5416631102561951,0.0,0.08100003004074097,99
1656402633.97967696,157508533,0,23.026126861572266,24.35102081298828,16.398914337158203,23.044315338134766,0.5521514415740967,0.0,0.08079162240028381,99
1656402634.07973695,157608593,0,23.036375045776367,24.276784896850586,15.29411506652832,23.469440460205078,0.5619447827339172,0.0,0.08110375702381134,99
1656402634.17962003,157708476,0,23.058584213256836,24.30116844177246,15.298410415649414,23.893932342529297,0.5717329978942871,0.0,0.08122309297323227,99
1656402634.27964902,157808505,0,23.090749740600586,24.34831428527832,15.522746086120605,24.325275421142578,0.5816930532455444,0.0,0.0810142531991005,99
1656402634.37971187,157908568,0,23.086637496948242,24.318864822387695,15.208492279052734,24.748037338256836,0.5914531946182251,0.0,0.08102228492498398,99
1656402634.47966099,158008517,0,23.119569778442383,24.33214569091797,14.981087684631348,25.163999557495117,0.6010700464248657,0.0,0.08094047755002975,99
1656402634.57969093,158108547,0,23.084434509277344,24.29979133605957,14.989066123962402,25.580520629882812,0.6106852293014526,0.0,0.08108290284872055,99
1656402634.67969584,158208552,0,23.043275833129883,24.266748428344727,15.02391529083252,25.997901916503906,0.6203030347824097,0.0,0.0814349427819252,99
1656402634.77967286,158308529,0,23.010046005249023,24.311792373657227,15.98123836517334,26.44171905517578,0.6305152773857117,0.0,0.08145467191934586,99
1656402634.87964106,158408497,0,22.959590911865234,24.330589294433594,16.853418350219727,26.90980339050293,0.6412622928619385,0.0,0.08134838938713074,99
1656402634.97972488,158508581,0,22.954803466796875,24.336355209350586,17.011157989501953,27.382770538330078,0.6521191596984863,0.0,0.08121439814567566,99
1656402635.07968593,158608542,0,22.95490264892578,24.272132873535156,16.160459518432617,27.831533432006836,0.6624204516410828,0.0,0.08150950819253922,99
1656402635.17970896,158708565,0,22.88893699645996,24.27865982055664,17.001951217651367,28.303956985473633,0.673233687877655,0.0,0.08173903822898865,99
1656402635.27972007,158808576,0,22.86663055419922,24.319425582885742,17.78512954711914,28.79808235168457,0.684532642364502,0.0,0.08168595284223557,99
1656402635.37969589,158908552,0,22.69123649597168,24.364818572998047,20.560325622558594,29.369112014770508,0.6974899768829346,0.0,0.081398606300354,99
1656402635.47966886,159008525,0,22.6617488861084,24.359968185424805,20.922149658203125,29.950172424316406,0.7106578350067139,0.0,0.0811685100197792,99
1656402635.57973003,159108586,0,22.674962997436523,24.346736907958984,20.63152313232422,30.52366065979004,0.7236616611480713,0.0,0.08103005588054657,99
1656402635.67971087,159208567,0,22.674577713012695,24.31238555908203,20.198402404785156,31.084671020507812,0.7363823652267456,0.0,0.08108596503734589,99
1656402635.77963686,159308493,0,22.650836944580078,24.269149780273438,19.889467239379883,31.636791229248047,0.748888373374939,0.0,0.08136528730392456,99
1656402635.87969303,159408549,0,22.64911460876465,24.288196563720703,20.10643768310547,32.19565963745117,0.76154625415802,0.0,0.08152028918266296,99
1656402635.97965193,159508508,0,22.683673858642578,24.328205108642578,20.19052505493164,32.75632095336914,0.7742641568183899,0.0,0.08145063370466232,99
1656402636.07967401,159608530,0,22.669984817504883,24.29143714904785,19.875350952148438,33.30857849121094,0.7867838740348816,0.0,0.08158107101917267,99
1656402636.17969990,159708556,0,22.660314559936523,24.273977279663086,19.72865867614746,33.85678482055664,0.7992063760757446,0.0,0.08179280161857605,99
1656402636.27962995,159808486,0,22.660602569580078,24.317703247070312,20.268781661987305,34.41945266723633,0.8119567632675171,0.0,0.08175630867481232,99
1656402636.37966585,159908522,0,22.648540496826172,24.27411651611328,19.8354549407959,34.970680236816406,0.8244412541389465,0.0,0.0819530189037323,99
1656402636.47969389,160008550,0,22.672239303588867,24.28988265991211,19.71522331237793,35.518524169921875,0.8368620872497559,0.0,0.08205048739910126,99
1656402636.57967401,160108530,0,23.082805633544922,24.162256240844727,13.260974884033203,35.886844635009766,0.8453639149665833,0.0,0.08140051364898682,99
1656402636.67968488,160208541,0,23.105690002441406,24.19399070739746,13.42761516571045,36.25990295410156,0.8539837002754211,0.0,0.08104941993951797,99
1656402636.77976108,160308617,0,23.037904739379883,24.193063735961914,14.300406455993652,36.657470703125,0.8631427884101868,0.0,0.08077806979417801,99
1656402636.87969089,160408547,0,22.843557357788086,24.225543975830078,17.108440399169922,37.13241195678711,0.8739920854568481,0.0,0.08077806979417801,99
1656402636.97971702,160508573,0,22.856191635131836,24.250499725341797,17.260963439941406,37.61204147338867,0.884954571723938,0.0,0.08077806979417801,99
1656402637.07970905,160608565,0,22.829864501953125,24.17506217956543,16.653017044067383,38.07463073730469,0.8955153822898865,0.0,0.08077806979417801,99
1656402637.17970991,160708566,0,22.842023849487305,24.186330795288086,16.6419677734375,38.536949157714844,0.906075656414032,0.0,0.08077806979417801,99
1656402637.27972889,160808585,0,22.8774471282959,24.2325496673584,16.76564598083496,39.00278091430664,0.9167327284812927,0.0,0.08082620054483414,99
1656402637.37969995,160908556,0,22.864355087280273,24.19791603088379,16.52289581298828,39.46165466308594,0.9272245764732361,0.0,0.08070991188287735,99
1656402637.47968602,161008542,0,22.87533950805664,24.23883056640625,16.874591827392578,39.93037033081055,0.937946617603302,0.0,0.08080137521028519,99
1656402637.57970285,161108559,0,22.802772521972656,24.215625762939453,17.47732162475586,40.41597366333008,0.949019730091095,0.0,0.08083923161029816,99
1656402637.67966700,161208523,0,22.788986206054688,24.181766510009766,17.184242248535156,40.89318084716797,0.9598947763442993,0.0,0.08104982227087021,99
1656402637.77962089,161308477,0,22.824504852294922,24.20981788635254,17.082660675048828,41.36748123168945,0.9707204699516296,0.0,0.08109473437070847,99
1656402637.87965202,161408508,0,22.762752532958984,24.233491897583008,18.154624938964844,41.8719596862793,0.9822037220001221,0.0,0.0810118094086647,99
1656402637.97974205,161508598,0,22.71239471435547,24.22918128967285,18.735258102416992,42.39295196533203,0.9940366744995117,0.0,0.08095894008874893,99
1656402638.07966495,161608521,0,22.7572021484375,24.150482177734375,17.209712982177734,42.870670318603516,1.0049082040786743,0.0,0.08095894008874893,99
1656402638.17971396,161708570,0,22.80315589904785,24.16497039794922,16.8610897064209,43.33930206298828,1.015594482421875,0.0,0.08076666295528412,99
1656402638.27968192,161808538,0,22.791805267333984,24.197925567626953,17.409122467041016,43.82277297973633,1.0266135931015015,0.0,0.08076915144920349,99
1656402638.37970185,161908558,0,22.392822265625,24.286529541015625,23.567224502563477,44.47760009765625,1.0412770509719849,0.0,0.08035346120595932,99
1656402638.47969484,162008551,0,22.370132446289062,24.259159088134766,23.58103370666504,45.13263702392578,1.055930256843567,0.0,0.0801079198718071,99
1656402638.57966304,162108519,0,22.459936141967773,24.23411750793457,22.176097869873047,45.74849319458008,1.0697623491287231,0.0,0.0800042599439621,99
1656402638.67969704,162208553,0,22.362855911254883,24.152673721313477,22.291488647460938,46.36796188354492,1.0836154222488403,0.0,0.0802914947271347,99
1656402638.77972794,162308584,0,22.458499908447266,24.188636779785156,21.52334213256836,46.966064453125,1.0970479249954224,0.0,0.08038420975208282,99
1656402638.87971807,162408574,0,22.511249542236328,24.200345993041992,21.005008697509766,47.54952621459961,1.1101824045181274,0.0,0.08041402697563171,99
1656402638.97968197,162508538,0,22.501676559448242,24.21014976501465,21.250825881958008,48.139373779296875,1.1234549283981323,0.0,0.08039558678865433,99
1656402639.07970691,162608563,0,22.495763778686523,24.189451217651367,21.046096801757812,48.72446823120117,1.1366170644760132,0.0,0.08047514408826828,99
1656402639.17968297,162708539,0,22.45964813232422,24.139026641845703,20.788957595825195,49.301841735839844,1.1495846509933472,0.0,0.08078223466873169,99
1656402639.27969790,162808554,0,22.501867294311523,24.19575309753418,20.96419334411621,49.88431930541992,1.1626914739608765,0.0,0.08079896867275238,99
1656402639.37968493,162908541,0,22.508474349975586,24.19792938232422,20.908031463623047,50.465065002441406,1.1757631301879883,0.0,0.08080412447452545,99
1656402639.47966695,163008523,0,22.506175994873047,24.20279312133789,21.001325607299805,51.048377990722656,1.1888912916183472,0.0,0.08078619837760925,99
1656402639.57966900,163108525,0,22.458688735961914,24.133834838867188,20.735559463500977,51.624359130859375,1.201827049255371,0.0,0.08078619837760925,99
1656402639.67968106,163208537,0,22.474870681762695,24.14498519897461,20.673261642456055,52.19879913330078,1.2147375345230103,0.0,0.08078619837760925,99
1656402639.77970695,163308563,0,22.50722885131836,24.187532424926758,20.799392700195312,52.776756286621094,1.227745771408081,0.0,0.08078619837760925,99
1656402639.87969303,163408549,0,22.49325180053711,24.180761337280273,20.886856079101562,53.356910705566406,1.240795373916626,0.0,0.08079291135072708,99
1656402639.97973895,163508595,0,22.428001403808594,24.18962287902832,21.813661575317383,53.963172912597656,1.2543926239013672,0.0,0.08075767755508423,99
1656402640.07969904,163608555,0,22.349550247192383,24.14441680908203,22.176097869873047,54.5789794921875,1.268155574798584,0.0,0.08093701303005219,99
1656402640.17970395,163708560,0,22.364770889282227,24.14468002319336,21.94715690612793,55.18870162963867,1.2817919254302979,0.0,0.0810997262597084,99
1656402640.27971196,163808568,0,22.87898063659668,24.10301971435547,15.147727966308594,55.60953903198242,1.2914202213287354,0.0,0.08080673217773438,99
1656402640.37969089,163908547,0,22.907032012939453,24.085346221923828,14.635222434997559,56.016021728515625,1.3007315397262573,0.0,0.08051227033138275,99
1656402640.47961807,164008474,0,22.73527717590332,24.12286376953125,17.250530242919922,56.49489212036133,1.3116188049316406,0.0,0.08043733239173889,99
1656402640.57968593,164108542,0,22.782381057739258,24.061418533325195,15.960982322692871,56.93859100341797,1.3217272758483887,0.0,0.0801353007555008,99
1656402640.67971587,164208572,0,22.885011672973633,24.0615291595459,14.724527359008789,57.34775924682617,1.3310911655426025,0.0,0.07990187406539917,99
1656402640.77965808,164308514,0,22.72072410583496,24.098438262939453,17.249608993530273,57.82667541503906,1.3419724702835083,0.0,0.0798693522810936,99
1656402640.87968707,164408543,0,22.690853118896484,24.130821228027344,18.029037475585938,58.327667236328125,1.3533403873443604,0.0,0.0798693522810936,99
1656402640.97968197,164508538,0,22.672088623046875,24.135772705078125,18.354103088378906,58.8375129699707,1.3648996353149414,0.0,0.07974692434072495,99
1656402641.07974386,164608600,0,22.609859466552734,24.057926177978516,18.102148056030273,59.34070587158203,1.3762768507003784,0.0,0.07999423891305923,99
1656402641.17965198,164708508,0,22.63724136352539,24.057395935058594,17.75321388244629,59.833431243896484,1.3874307870864868,0.0,0.07999423891305923,99
1656402641.27970195,164808558,0,22.6733341217041,24.079254150390625,17.5917911529541,60.32238006591797,1.3985168933868408,0.0,0.07991906255483627,99
1656402641.37964392,164908500,0,22.707990646362305,24.08978271484375,17.293495178222656,60.802513122558594,1.4094197750091553,0.0,0.07990237325429916,99
1656402641.47971487,165008571,0,22.67151641845703,24.093170166015625,17.792495727539062,61.29713821411133,1.4206336736679077,0.0,0.07990184426307678,99
1656402641.57971096,165108567,0,22.59482765197754,24.03977394104004,18.02880096435547,61.79795837402344,1.4319496154785156,0.0,0.08014655113220215,99
1656402641.67964387,165208500,0,22.651390075683594,24.047136306762695,17.414918899536133,62.28142166137695,1.4429006576538086,0.0,0.08014655113220215,99
1656402641.77974987,165308606,0,22.69257926940918,24.102144241333008,17.569080352783203,62.7700080871582,1.453987956047058,0.0,0.08022988587617874,99
1656402641.87971997,165408576,0,22.67706871032715,24.082836151123047,17.524272918701172,63.25668716430664,1.4650243520736694,0.0,0.08021825551986694,99
1656402641.97973704,165508593,0,22.724075317382812,24.10468292236328,17.194063186645508,63.73442077636719,1.4758803844451904,0.0,0.08029557764530182,99
1656402642.07972288,165608579,0,22.64959144592285,24.083477020263672,17.851417541503906,64.23026275634766,1.48711097240448,0.0,0.08032330125570297,99
1656402642.17970204,165708558,0,22.552417755126953,24.060693740844727,18.74722671508789,64.7509536743164,1.4988538026809692,0.0,0.08045332878828049,99
1656402642.27965903,165808515,0,22.633506774902344,24.101028442382812,18.25620460510254,65.25782012939453,1.5103260278701782,0.0,0.08038483560085297,99
1656402642.37970996,165908566,0,22.691429138183594,24.099428176879883,17.505556106567383,65.74439239501953,1.521367073059082,0.0,0.08043155074119568,99
1656402642.47968793,166008544,0,22.7008113861084,24.10143280029297,17.404281616210938,66.22782897949219,1.5323413610458374,0.0,0.08047565817832947,99
1656402642.57964492,166108501,0,22.64341163635254,24.011903762817383,17.005054473876953,66.69996643066406,1.5430322885513306,0.0,0.08047565817832947,99
1656402642.67970705,166208563,0,22.653995513916016,24.028364181518555,17.07805824279785,67.17469787597656,1.5537868738174438,0.0,0.08047565817832947,99
1656402642.77966189,166308518,0,22.710384368896484,24.094776153564453,17.18239974975586,67.65185546875,1.564623236656189,0.0,0.08057037740945816,99
1656402642.87970090,166408557,0,22.68702507019043,24.085294723510742,17.346893310546875,68.13394165039062,1.5755603313446045,0.0,0.08060633391141891,99
1656402642.97968888,166508545,0,22.69659996032715,24.100666046142578,17.399677276611328,68.61724853515625,1.5865297317504883,0.0,0.08069492131471634,99
1656402643.07973504,166608591,0,22.684345245361328,24.084802627563477,17.35364532470703,69.09955596923828,1.5974706411361694,0.0,0.08070100098848343,99
1656402643.17967606,166708532,0,22.5472469329834,24.03802490234375,18.42499351501465,69.61109924316406,1.6090046167373657,0.0,0.08091068267822266,99
1656402643.27965999,166808516,0,22.178560256958008,24.1343994140625,24.248823165893555,70.28462219238281,1.6239423751831055,0.0,0.08065709471702576,99
1656402643.37978196,166908638,0,22.30713653564453,24.104875564575195,22.314197540283203,70.90525817871094,1.6377869844436646,0.0,0.08056483417749405,99
1656402643.47973204,167008588,0,22.390981674194336,24.12005043029785,21.502338409423828,71.5022964477539,1.6511552333831787,0.0,0.08041305840015411,99
1656402643.57972288,167108579,0,22.34389877319336,24.076438903808594,21.529481887817383,72.10033416748047,1.6645177602767944,0.0,0.08047289401292801,99
1656402643.67969203,167208548,0,22.305030822753906,24.055570602416992,21.713001251220703,72.70333099365234,1.6779676675796509,0.0,0.08062176406383514,99
1656402643.77965188,167308508,0,22.349645614624023,24.09672737121582,21.683847427368164,73.30545806884766,1.691425085067749,0.0,0.08057064563035965,99
1656402643.87962985,167408486,0,22.361421585083008,24.111724853515625,21.754737854003906,73.90929412841797,1.704927682876587,0.0,0.08045618236064911,99
1656402643.97971106,167508567,0,22.393110275268555,24.10325050354004,21.27292251586914,74.50110626220703,1.7181801795959473,0.0,0.08039046823978424,99
1656402644.07965708,167608513,0,22.3005313873291,24.031410217285156,21.46012306213379,75.09683990478516,1.7314653396606445,0.0,0.08065556734800339,99
1656402644.17971087,167708567,0,22.35117530822754,24.065109252929688,21.226581573486328,75.68694305419922,1.744654893875122,0.0,0.08074472099542618,99
1656402644.27974987,167808606,0,22.39454460144043,24.092174530029297,21.024648666381836,76.27123260498047,1.7577399015426636,0.0,0.08074472099542618,99
1656402644.37967992,167908536,0,22.3577938079834,24.0782527923584,21.299793243408203,76.86251831054688,1.7709598541259766,0.0,0.0807734876871109,99
1656402644.47970605,168008562,0,22.567066192626953,24.05907440185547,18.493431091308594,77.37635803222656,1.7825556993484497,0.0,0.08067775517702103,99
1656402644.57969785,168108554,0,22.716320037841797,24.036876678466797,16.4007568359375,77.83197784423828,1.7929056882858276,0.0,0.08051806688308716,99
1656402644.67970800,168208564,0,22.632932662963867,23.97394561767578,16.730661392211914,78.29679870605469,1.8034260272979736,0.0,0.0801529660820961,99
1656402644.77964902,168308505,0,22.649303436279297,24.012493133544922,17.035400390625,78.76976013183594,1.8141382932662964,0.0,0.08002094179391861,99
1656402644.87966990,168408526,0,22.638675689697266,24.032052993774414,17.418397903442383,79.25374603271484,1.8250950574874878,0.0,0.07999454438686371,99
1656402644.97969604,168508552,0,22.613689422607422,24.05423927307129,17.99350929260254,79.75373840332031,1.8364017009735107,0.0,0.08005937188863754,99
1656402645.07966685,168608523,0,22.54552459716797,24.015531539916992,18.361469268798828,80.263671875,1.8478984832763672,0.0,0.08005937188863754,98
1656402645.17969990,168708556,0,22.55746078491211,23.972206115722656,17.72624397277832,80.75627136230469,1.8590102195739746,0.0,0.079810731112957,98
1656402645.27966404,168808520,0,22.632265090942383,24.021953582763672,17.412567138671875,81.23981475830078,1.869953989982605,0.0,0.07980948686599731,98
1656402645.37965703,168908513,0,22.641740798950195,24.03167152404785,17.407657623291016,81.7233657836914,1.8809024095535278,0.0,0.07984591275453568,98
1656402645.47968388,169008540,0,22.64959144592285,24.04134750366211,17.416250228881836,82.20732116699219,1.8918638229370117,0.0,0.07991135865449905,98
1656402645.57969499,169108551,0,22.59080696105957,23.95921516418457,17.18117332458496,82.6846694946289,1.9026474952697754,0.0,0.07964584231376648,98
1656402645.67962193,169208478,0,22.580276489257812,23.990407943725586,17.705034255981445,83.17615509033203,1.913745403289795,0.0,0.07964584231376648,98
1656402645.77970004,169308556,0,22.601818084716797,24.009178161621094,17.670045852661133,83.66736602783203,1.9248476028442383,0.0,0.07964661717414856,98
1656402645.87965703,169408513,0,22.648540496826172,24.02907943725586,17.316511154174805,84.14825439453125,1.9357390403747559,0.0,0.07972382009029388,98
1656402645.97972298,169508579,0,22.653135299682617,24.025461196899414,17.203575134277344,84.6264877319336,1.9465725421905518,0.0,0.07976984232664108,98
1656402646.07971287,169608569,0,22.634157180786133,24.01438331604004,17.304100036621094,85.10714721679688,1.9574518203735352,0.0,0.07976292073726654,98
1656402646.17968202,169708538,0,22.60124397277832,23.955509185791016,16.978626251220703,85.57866668701172,1.9681087732315063,0.0,0.07976292073726654,98
1656402646.27973700,169808593,0,22.60038185119629,23.994497299194336,17.478240966796875,86.0644760131836,1.979088306427002,0.0,0.07976292073726654,98
1656402646.37964487,169908501,0,22.59071159362793,24.00881576538086,17.783903121948242,86.55805969238281,1.9902386665344238,0.0,0.07974088191986084,98
1656402646.47971988,170008576,0,22.62967872619629,24.028223037719727,17.518444061279297,87.04508972167969,2.0012600421905518,0.0,0.07983262836933136,98
1656402646.57971597,170108572,0,22.60354232788086,23.978418350219727,17.221988677978516,87.52349853515625,2.0120737552642822,0.0,0.07983262836933136,98
1656402646.67970896,170208565,0,22.594064712524414,23.950443267822266,16.99028778076172,87.99545288085938,2.0227372646331787,0.0,0.07983262836933136,98
1656402646.77973294,170308589,0,22.623836517333984,23.992961883544922,17.15201759338379,88.47205352783203,2.033519744873047,0.0,0.07982296496629715,98
1656402646.87970591,170408562,0,22.651124954223633,24.018890380859375,17.115192413330078,88.9473876953125,2.0442864894866943,0.0,0.07991532236337662,98
1656402646.97973299,170508589,0,22.646286010742188,24.02846336364746,17.27204704284668,89.42732238769531,2.0551552772521973,0.0,0.08002395182847977,98
1656402647.07969189,170608548,0,22.56447982788086,23.957780838012695,17.36408042907715,89.90950775146484,2.066035509109497,0.0,0.08024043589830399,98
1656402647.17969584,170708552,0,22.580087661743164,23.97783088684082,17.396610260009766,90.3927993774414,2.076948404312134,0.0,0.08034567534923553,98
1656402647.27965307,170808509,0,22.62479591369629,24.029911041259766,17.488370895385742,90.87841796875,2.087935447692871,0.0,0.08034567534923553,98
1656402647.37976003,170908616,0,22.60210609436035,23.994991302490234,17.336151123046875,91.36053466796875,2.098832368850708,0.0,0.08034567534923553,98
1656402647.47968793,171008544,0,22.55729866027832,24.033735275268555,18.407808303833008,91.87152862548828,2.110358953475952,0.0,0.08020711690187454,98
1656402647.57973385,171108590,0,22.41675567626953,24.014236450195312,19.926294326782227,92.4253158569336,2.1227731704711914,0.0,0.08016947656869888,98
1656402647.67971897,171208575,0,22.404502868652344,23.94773292541504,19.186384201049805,92.958251953125,2.1347134113311768,0.0,0.08043356984853745,98
1656402647.77973390,171308590,0,22.469127655029297,24.00473976135254,19.095853805541992,93.48881530761719,2.146634578704834,0.0,0.08041603863239288,98
1656402647.87973499,171408591,0,22.45778465270996,24.015098571777344,19.380712509155273,94.02721405029297,2.1587259769439697,0.0,0.08035379648208618,98
1656402647.97967696,171508533,0,22.50090980529785,24.02481460571289,18.988441467285156,94.55440521240234,2.170588254928589,0.0,0.08025430142879486,98
1656402648.07976007,171608616,0,22.456106185913086,23.975717544555664,18.904354095458984,95.08000183105469,2.1823911666870117,0.0,0.08038416504859924,98
1656402648.17970705,171708563,0,22.415224075317383,23.95423126220703,19.094932556152344,95.61017608642578,2.194275140762329,0.0,0.0805976465344429,98
1656402648.27973795,171808594,0,22.487699508666992,24.013349533081055,18.94609260559082,96.13665771484375,2.2061145305633545,0.0,0.08052579313516617,98
1656402648.37971902,171908575,0,22.499954223632812,24.023775100708008,18.923381805419922,96.6622543334961,2.217940330505371,0.0,0.08052579313516617,98
1656402648.47974896,172008605,0,22.505985260009766,24.02592658996582,18.875200271606445,97.186767578125,2.2297449111938477,0.0,0.08052579313516617,98
1656402648.57973099,172108587,0,22.460891723632812,23.94635772705078,18.44708824157715,97.69913482666016,2.241253137588501,0.0,0.08052579313516617,98
1656402648.67971587,172208572,0,22.478700637817383,23.977685928344727,18.614959716796875,98.21617889404297,2.252875566482544,0.0,0.08052579313516617,98
1656402648.77973294,172308589,0,22.489168167114258,23.993432998657227,18.680665969848633,98.73521423339844,2.2645480632781982,0.0,0.08052527159452438,98
1656402648.87969398,172408550,0,22.520057678222656,24.01995086669922,18.602989196777344,99.25174713134766,2.2761805057525635,0.0,0.08062642812728882,98
1656402648.97981906,172508675,0,22.514314651489258,24.021041870117188,18.668664932250977,99.7708969116211,2.2878687381744385,0.0,0.08070884644985199,98
1656402649.07968807,172608544,0,22.515365600585938,23.993698120117188,18.326175689697266,100.27950286865234,2.2993202209472656,0.0,0.08066786080598831,98
1656402649.17974305,172708599,0,22.483678817749023,23.939434051513672,18.046293258666992,100.7811050415039,2.310598134994507,0.0,0.08066786080598831,98
1656402649.27971292,172808569,0,22.49555015563965,23.998117446899414,18.633373260498047,101.29857635498047,2.3222389221191406,0.0,0.08063851296901703,98
1656402649.37973905,172908595,0,22.501293182373047,23.979934692382812,18.347349166870117,101.80840301513672,2.3337106704711914,0.0,0.08059152215719223,98
1656402649.47970796,173008564,0,22.535951614379883,24.012128829956055,18.297021865844727,102.3165283203125,2.3451619148254395,0.0,0.08067858964204788,98
1656402649.57974291,173108599,0,22.475154876708984,23.942914962768555,18.19268035888672,102.82210540771484,2.356524705886841,0.0,0.08067858964204788,98
1656402649.67974591,173208602,0,22.492782592773438,23.94208526611328,17.963911056518555,103.32115936279297,2.3677496910095215,0.0,0.08067858964204788,98
1656402649.77971005,173308566,0,22.49506950378418,23.98770523071289,18.51030921936035,103.83518981933594,2.379312753677368,0.0,0.0806381031870842,98
1656402649.87973785,173408594,0,22.500049591064453,24.00958824157715,18.719913482666016,104.3553695678711,2.391016721725464,0.0,0.0806381031870842,98
1656402649.97972608,173508582,0,22.48836898803711,24.004425048828125,18.821495056152344,104.878173828125,2.40277361869812,0.0,0.0805491954088211,98
1656402650.07976985,173608626,0,22.414461135864258,23.93387794494629,18.808300018310547,105.40074920654297,2.414486885070801,0.0,0.0807843953371048,98
1656402650.17969298,173708549,0,22.468358993530273,23.959165573120117,18.454147338867188,105.91315460205078,2.425999879837036,0.0,0.0807843953371048,98
1656402650.27972293,173808579,0,22.492965698242188,24.007177352905273,18.743852615356445,106.43402099609375,2.437715768814087,0.0,0.0807843953371048,98
1656402650.37969494,173908551,0,22.508474349975586,23.980039596557617,18.218151092529297,106.93987274169922,2.449101686477661,0.0,0.08077467232942581,98
1656402650.47973299,174008589,0,22.52075958251953,23.99957275390625,18.292621612548828,107.44830322265625,2.4605519771575928,0.0,0.0808420479297638,98
1656402650.57975388,174108610,0,22.488080978393555,23.987125396728516,18.5440673828125,107.96355438232422,2.4721391201019287,0.0,0.08083688467741013,98
1656402650.67971706,174208573,0,22.429872512817383,23.93659782409668,18.588258743286133,108.47976684570312,2.483717679977417,0.0,0.08105790615081787,98
1656402650.77973294,174308589,0,22.472763061523438,23.98472023010254,18.656389236450195,108.99815368652344,2.4953672885894775,0.0,0.08104236423969269,98
1656402650.87970591,174408562,0,22.467689514160156,23.990970611572266,18.805843353271484,109.52043914794922,2.5071017742156982,0.0,0.08100039511919022,98
1656402650.97973204,174508588,0,22.46807289123535,24.000059127807617,18.93166732788086,110.04650115966797,2.518921375274658,0.0,0.08092185109853745,98
1656402651.07974005,174608596,0,22.40900230407715,23.954797744750977,19.07130241394043,110.57634735107422,2.530794620513916,0.0,0.08105350285768509,98
1656402651.17975688,174708613,0,22.468168258666992,23.9415340423584,18.212013244628906,111.08235931396484,2.542163848876953,0.0,0.08090075850486755,98
1656402651.27975106,174808607,0,22.500337600708008,23.98427391052246,18.332313537597656,111.59159851074219,2.553622007369995,0.0,0.08094652742147446,98
1656402651.37972593,174908582,0,22.533845901489258,23.980823516845703,17.870820999145508,112.08792877197266,2.5648062229156494,0.0,0.08096875250339508,98
1656402651.47974205,175008598,0,22.51929473876953,23.991233825683594,18.16628646850586,112.59266662597656,2.5761725902557373,0.0,0.0810258612036705,98
1656402651.57974100,175108597,0,22.50665283203125,23.9771728515625,18.150941848754883,113.0969009399414,2.5875210762023926,0.0,0.08101613074541092,98
1656402651.67970490,175208561,0,22.466829299926758,23.91526985168457,17.87842559814453,113.59337615966797,2.598675489425659,0.0,0.08101613074541092,98
1656402651.77981997,175308676,0,22.492197036743164,23.969072341918945,18.228891372680664,114.1003646850586,2.610078811645508,0.0,0.0810183435678482,98
1656402651.87972188,175408578,0,22.495359420776367,23.960533142089844,18.091405868530273,114.60245513916016,2.621373414993286,0.0,0.08098729699850082,98
1656402651.97971392,175508570,0,22.50799560546875,23.990816116333008,18.309297561645508,115.11104583740234,2.6328208446502686,0.0,0.08098729699850082,98
1656402652.07976007,175608616,0,22.435426712036133,23.973997116088867,19.00102424621582,115.6391372680664,2.6446688175201416,0.0,0.08097301423549652,98
1656402652.17968488,175708541,0,22.347475051879883,23.945100784301758,19.701923370361328,116.18604278564453,2.656890630722046,0.0,0.0810898095369339,98
1656402652.27973390,175808590,0,22.485305786132812,23.960906982421875,18.20372772216797,116.6919937133789,2.668267011642456,0.0,0.08106040954589844,98
1656402652.38005590,175908912,0,22.541982650756836,23.953344345092773,17.422388076782227,117.17754364013672,2.6792123317718506,0.0,0.08100848644971848,98
1656402652.47997499,176008831,0,22.43370246887207,23.98728370666504,19.202957153320312,117.7105712890625,2.6911699771881104,0.0,0.08090326935052872,98
1656402652.58016896,176109025,0,22.321306228637695,23.93716812133789,19.940717697143555,118.26559448242188,2.7035586833953857,0.0,0.08103326708078384,98
1656402652.67997408,176208830,0,22.465679168701172,23.91916847229004,17.9744815826416,118.76395416259766,2.714754819869995,0.0,0.0808640867471695,98
1656402652.78006792,176308924,0,22.401151657104492,23.9766788482666,19.50892448425293,119.3064193725586,2.7269067764282227,0.0,0.08075927197933197,98
1656402652.87997985,176408836,0,22.445192337036133,23.983766555786133,19.051355361938477,119.83519744873047,2.7387752532958984,0.0,0.08075927197933197,98
1656402652.97999001,176508846,0,22.480806350708008,23.964214324951172,18.364845275878906,120.34542083740234,2.7502455711364746,0.0,0.08077437430620193,98
1656402653.07999706,176608853,0,22.37566375732422,23.90983772277832,18.939476013183594,120.87159729003906,2.762019157409668,0.0,0.08100400120019913,98
1656402653.17999005,176708846,0,22.44318199157715,23.928884506225586,18.364845275878906,121.3817367553711,2.773468255996704,0.0,0.08089928328990936,98
1656402653.27997589,176808832,0,22.485401153564453,23.975563049316406,18.397680282592773,121.89275360107422,2.784958600997925,0.0,0.08099722117185593,98
1656402653.37996888,176908825,0,22.483102798461914,23.954078674316406,18.16229820251465,122.39727020263672,2.7963016033172607,0.0,0.08099062740802765,98
1656402653.48000288,177008859,0,22.46969985961914,23.973756790161133,18.570764541625977,122.91333770751953,2.8078975677490234,0.0,0.08099062740802765,98
1656402653.58002305,177108879,0,22.460031509399414,23.951919555664062,18.426223754882812,123.42513275146484,2.819392442703247,0.0,0.08096552640199661,98
1656402653.68002105,177208877,0,22.392536163330078,23.910268783569336,18.69720458984375,123.9447250366211,2.8310272693634033,0.0,0.08117429912090302,98
1656402653.78000808,177308864,0,22.473051071166992,23.960243225097656,18.314207077026367,124.45343017578125,2.8424594402313232,0.0,0.08120425790548325,98
1656402653.88010406,177408960,0,22.435808181762695,23.96908950805664,18.897296905517578,124.9789047241211,2.8542487621307373,0.0,0.08113764226436615,98
1656402653.98001194,177508868,0,22.4521484375,23.970869064331055,18.71783447265625,125.49840545654297,2.865912675857544,0.0,0.08113764226436615,98
1656402654.08007693,177608933,0,22.422021865844727,23.91695785522461,18.4246883392334,126.01057434082031,2.87739634513855,0.0,0.08113764226436615,98
1656402654.17999196,177708848,0,22.395885467529297,23.92180824279785,18.77607536315918,126.53173828125,2.889068126678467,0.0,0.08126954734325409,98
1656402654.27998590,177808842,0,22.417713165283203,23.955232620239258,18.92583656311035,127.05746459960938,2.9008536338806152,0.0,0.08123917132616043,98
1656402654.38003302,177908889,0,22.423458099365234,23.964506149291992,18.98537254333496,127.58512878417969,2.9126856327056885,0.0,0.08117025345563889,98
1656402654.47996187,178008818,0,22.431406021118164,23.968542098999023,18.937192916870117,128.11082458496094,2.9244778156280518,0.0,0.08117025345563889,98
1656402654.57997990,178108836,0,22.389280319213867,23.901630401611328,18.631837844848633,128.62850952148438,2.936068296432495,0.0,0.08117025345563889,98
1656402654.68000984,178208866,0,22.41675567626953,23.91861915588379,18.502635955810547,129.14266967773438,2.947593927383423,0.0,0.08117025345563889,98
1656402654.77997589,178308832,0,22.45907211303711,23.96396827697754,18.519515991210938,129.65696716308594,2.9591445922851562,0.0,0.08125998824834824,98
1656402654.87997198,178408828,0,22.422788619995117,23.947614669799805,18.7665958404541,130.17828369140625,2.9708340167999268,0.0,0.0812520980834961,98
1656402654.98006892,178508925,0,22.44088363647461,23.962589263916016,18.728200912475586,130.6988983154297,2.9825170040130615,0.0,0.0812520980834961,98
1656402655.08002687,178608883,0,22.44021224975586,23.934932708740234,18.408113479614258,131.21022033691406,2.9939911365509033,0.0,0.08119901269674301,98
1656402655.17998886,178708845,0,22.397418975830078,23.897621154785156,18.475629806518555,131.72328186035156,3.0054824352264404,0.0,0.08119901269674301,98
1656402655.27999592,178808852,0,22.447681427001953,23.935606002807617,18.326175689697266,132.23240661621094,3.016911268234253,0.0,0.08119118958711624,98
1656402655.37999487,178908851,0,22.447490692138672,23.950780868530273,18.503557205200195,132.74642944335938,3.0284500122070312,0.0,0.08124327659606934,98
1656402655.48005605,179008912,0,22.44451904296875,23.96498680114746,18.715002059936523,133.2666473388672,3.040126085281372,0.0,0.08124327659606934,98
1656402655.58000588,179108862,0,22.43619155883789,23.89503288269043,17.9984188079834,133.76638793945312,3.0513384342193604,0.0,0.08105383813381195,98
1656402655.68000793,179208864,0,22.415658950805664,23.89375877380371,18.23601722717285,134.2729949951172,3.0626943111419678,0.0,0.08105383813381195,98
1656402655.77998590,179308842,0,22.404024124145508,23.943172454833984,19.006547927856445,134.80088806152344,3.074521064758301,0.0,0.08097989112138748,98
1656402655.88006401,179408920,0,22.413692474365234,23.95349884033203,19.041227340698242,135.33026123046875,3.0863864421844482,0.0,0.08086696267127991,98
1656402655.98007989,179508936,0,22.44107437133789,23.937562942504883,18.499568939208984,135.84423828125,3.0979206562042236,0.0,0.08089315891265869,98
1656402656.07992291,179608779,0,22.363622665405273,23.892946243286133,18.864458084106445,136.36749267578125,3.1096224784851074,0.0,0.08106902241706848,98
1656402656.17997193,179708828,0,22.384109497070312,23.902881622314453,18.707944869995117,136.887451171875,3.1212613582611084,0.0,0.08118326216936111,98
1656402656.27993989,179808796,0,22.441267013549805,23.956127166748047,18.65976333618164,137.40565490722656,3.132890462875366,0.0,0.08118326216936111,98
1656402656.37996888,179908825,0,22.376834869384766,23.949003219604492,19.38494110107422,137.94432067871094,3.144944190979004,0.0,0.08110252022743225,98
1656402656.47997904,180008835,0,22.37970542907715,23.95091438293457,19.392614364624023,138.4831085205078,3.1570019721984863,0.0,0.0810210332274437,98
1656402656.58002806,180108884,0,22.350133895874023,23.91634178161621,19.311492919921875,139.01983642578125,3.1689980030059814,0.0,0.08110235631465912,98
1656402656.68002391,180208880,0,22.410247802734375,23.84412956237793,17.754440307617188,139.51303100585938,3.1800506114959717,0.0,0.08076183497905731,98
1656402656.78014302,180308999,0,22.414461135864258,23.93794059753418,18.86384391784668,140.03770446777344,3.1918108463287354,0.0,0.08076183497905731,98
1656402656.88002205,180408878,0,22.366209030151367,23.92595100402832,19.322643280029297,140.57383728027344,3.2038021087646484,0.0,0.0807209387421608,98
1656402656.98003006,180508886,0,22.414840698242188,23.94153594970703,18.913253784179688,141.0992889404297,3.2155799865722656,0.0,0.0807209387421608,98
1656402657.08005500,180608911,0,22.380569458007812,23.881948471069336,18.5996150970459,141.61611938476562,3.227146863937378,0.0,0.0807209387421608,98
1656402657.17998099,180708837,0,22.355772018432617,23.89415740966797,19.0360107421875,142.14454650878906,3.2389602661132812,0.0,0.08081447333097458,98
1656402657.28000093,180808857,0,22.391672134399414,23.91904640197754,18.899749755859375,142.66969299316406,3.2507190704345703,0.0,0.08081447333097458,98
1656402657.37996697,180908823,0,22.434490203857422,23.93085479736328,18.501306533813477,143.18319702148438,3.2622392177581787,0.0,0.08087888360023499,98
1656402657.48004985,181008906,0,22.42795753479004,23.934904098510742,18.61710548400879,143.7010955810547,3.2738547325134277,0.0,0.08094415813684464,98
1656402657.57988000,181108736,0,22.357208251953125,23.873817443847656,18.73648452758789,144.220703125,3.2854719161987305,0.0,0.08094415813684464,98
1656402657.67988992,181208746,0,22.37731170654297,23.89061737060547,18.695669174194336,144.74012756347656,3.2970950603485107,0.0,0.08094415813684464,98
1656402657.77990603,181308762,0,22.417234420776367,23.937122344970703,18.776994705200195,145.26182556152344,3.3087902069091797,0.0,0.08094415813684464,98
1656402657.87987304,181408729,0,22.43044662475586,23.932838439941406,18.544679641723633,145.77682495117188,3.3203420639038086,0.0,0.08101469278335571,98
1656402657.97989607,181508752,0,22.41972541809082,23.9190673828125,18.50662612915039,146.2910614013672,3.3318710327148438,0.0,0.08101648092269897,98
1656402658.07989407,181608750,0,22.416566848754883,23.893455505371094,18.25129508972168,146.79806518554688,3.3432364463806152,0.0,0.08091963827610016,98
1656402658.17993593,181708792,0,22.32427406311035,23.851964950561523,18.815664291381836,147.32098388671875,3.354910135269165,0.0,0.08119247108697891,98
1656402658.27992988,181808786,0,22.444169998168945,23.920265197753906,18.16884422302246,147.82568359375,3.3662376403808594,0.0,0.08124316483736038,98
1656402658.37997985,181908836,0,22.42317008972168,23.921213150024414,18.429290771484375,148.33790588378906,3.377723217010498,0.0,0.0812859758734703,98
1656402658.47989488,182008751,0,22.438201904296875,23.935544967651367,18.40074920654297,148.84864807128906,3.389183282852173,0.0,0.08137404918670654,98
1656402658.58006501,182108921,0,22.348590850830078,23.8685359954834,18.628154754638672,149.3670196533203,3.400768280029297,0.0,0.08159393072128296,98
1656402658.67990088,182208757,0,22.388227462768555,23.879776000976562,18.280141830444336,149.87400817871094,3.412118911743164,0.0,0.08159393072128296,98
1656402658.77985287,182308709,0,22.39349365234375,23.91748046875,18.687997817993164,150.39291381835938,3.423738956451416,0.0,0.08154897391796112,98
1656402658.88001704,182408873,0,22.43868064880371,23.940908432006836,18.393075942993164,150.90472412109375,3.43522310256958,0.0,0.08167356997728348,98
1656402658.97983003,182508686,0,22.432937622070312,23.94244384765625,18.45905876159668,151.41656494140625,3.4467051029205322,0.0,0.08177588135004044,98
1656402659.07996607,182608822,0,22.425275802612305,23.938018798828125,18.498645782470703,151.93115234375,3.458245038986206,0.0,0.08177588135004044,98
1656402659.17987990,182708736,0,22.41108512878418,23.9271183013916,18.54154396057129,152.44580078125,3.4697787761688232,0.0,0.0817641094326973,98
1656402659.27989888,182808755,0,22.36582374572754,23.85491371154785,18.212013244628906,152.9518280029297,3.4810965061187744,0.0,0.0817641094326973,98
1656402659.37986398,182908720,0,22.386503219604492,23.894487380981445,18.443099975585938,153.46400451660156,3.4925622940063477,0.0,0.0817641094326973,98
1656402659.47988605,183008742,0,22.420682907104492,23.938928604125977,18.568618774414062,153.97994995117188,3.5041301250457764,0.0,0.0817641094326973,98
1656402659.57994604,183108802,0,22.39684295654297,23.902568817138672,18.415481567382812,154.49179077148438,3.5155937671661377,0.0,0.0817641094326973,98
1656402659.67988801,183208744,0,22.344091415405273,23.85137176513672,18.434507369995117,155.00364685058594,3.5270307064056396,0.0,0.0817641094326973,98
1656402659.77992296,183308779,0,22.393110275268555,23.919269561767578,18.68247413635254,155.5228271484375,3.538656711578369,0.0,0.08168939501047134,98
1656402659.87992406,183408780,0,22.402971267700195,23.925922393798828,18.643192291259766,156.04074096679688,3.550259590148926,0.0,0.08168939501047134,98
1656402659.97998786,183508844,0,22.40622329711914,23.9373722076416,18.743545532226562,156.561767578125,3.561933755874634,0.0,0.08168939501047134,98
1656402660.07988191,183608738,0,22.39853286743164,23.930282592773438,18.75090980529785,157.08212280273438,3.5735888481140137,0.0,0.08168939501047134,98
1656402660.17993093,183708787,0,22.35443115234375,23.88651466369629,18.725130081176758,157.60255432128906,3.5852229595184326,0.0,0.08181965351104736,98
1656402660.27989006,183808746,0,22.35443115234375,23.8693904876709,18.515832901000977,158.11671447753906,3.5967166423797607,0.0,0.08181965351104736,98
1656402660.37996507,183908821,0,22.403640747070312,23.933515548706055,18.698123931884766,158.63653564453125,3.6083626747131348,0.0,0.08181965351104736,98
1656402660.47988605,184008742,0,22.39349365234375,23.940643310546875,18.909263610839844,159.1614227294922,3.620116710662842,0.0,0.08181965351104736,98
1656402660.57992792,184108784,0,22.40028953552246,23.93362808227539,18.740474700927734,159.6822509765625,3.6317832469940186,0.0,0.08181965351104736,98
1656402660.67994094,184208797,0,22.35385513305664,23.85620880126953,18.36177635192871,160.19241333007812,3.6431872844696045,0.0,0.08181965351104736,97
1656402660.77988291,184308739,0,22.361421585083008,23.89365005493164,18.712242126464844,160.71194458007812,3.6548047065734863,0.0,0.08188379555940628,97
1656402660.87987995,184408736,0,22.392366409301758,23.932954788208008,18.814332962036133,161.23458862304688,3.6665079593658447,0.0,0.08188379555940628,97
1656402660.97992206,184508778,0,22.394641876220703,23.93717384338379,18.83806610107422,161.7581329345703,3.678232431411743,0.0,0.08188379555940628,97
1656402661.07993197,184608788,0,22.362184524536133,23.902040481567383,18.791725158691406,162.28021240234375,3.6899073123931885,0.0,0.08194334805011749,97
1656402661.17987299,184708729,0,22.344762802124023,23.856731414794922,18.451385498046875,162.79248046875,3.7013540267944336,0.0,0.08194334805011749,97
1656402661.27989101,184808747,0,22.393970489501953,23.912002563476562,18.518901824951172,163.30703735351562,3.712876796722412,0.0,0.08197203278541565,97
1656402661.37995100,184908807,0,22.383440017700195,23.925622940063477,18.81351661682129,163.82998657226562,3.7245821952819824,0.0,0.08197203278541565,97
1656402661.47996402,185008820,0,22.42135238647461,23.93234634399414,18.413331985473633,164.34156799316406,3.7360527515411377,0.0,0.08205980807542801,97
1656402661.57995486,185108811,0,22.352325439453125,23.85634422302246,18.328323364257812,164.85067749023438,3.7474327087402344,0.0,0.08205980807542801,97
1656402661.67989707,185208753,0,22.347368240356445,23.867372512817383,18.523130416870117,165.3649444580078,3.758925437927246,0.0,0.08205980807542801,97
1656402661.78007102,185308927,0,22.36228370666504,23.89203643798828,18.635211944580078,165.88352966308594,3.770522117614746,0.0,0.0820893868803978,97
1656402661.87987900,185408735,0,22.404216766357422,23.932130813598633,18.612810134887695,166.3995361328125,3.7820827960968018,0.0,0.0820893868803978,97
1656402661.97988296,185508739,0,22.38966178894043,23.92596435546875,18.715002059936523,166.91952514648438,3.79372501373291,0.0,0.0820893868803978,97
1656402662.07988095,185608737,0,22.39512062072754,23.92860221862793,18.680631637573242,167.43846130371094,3.805346727371216,0.0,0.0820893868803978,97
1656402662.17995787,185708814,0,22.348495483398438,23.848697662353516,18.275232315063477,167.946533203125,3.8167014122009277,0.0,0.0820893868803978,97
1656402662.27989697,185808753,0,22.39444923400879,23.893718719482422,18.26970863342285,168.45375061035156,3.8280603885650635,0.0,0.08206311613321304,97
1656402662.37987089,185908727,0,22.364389419555664,23.915990829467773,18.924915313720703,168.97935485839844,3.839815139770508,0.0,0.08198721706867218,97
1656402662.47992587,186008782,0,22.403066635131836,23.92852020263672,18.58181381225586,169.49583435058594,3.851386070251465,0.0,0.08209384977817535,97
1656402662.57986903,186108725,0,22.37055778503418,23.897262573242188,18.587236404418945,170.0118865966797,3.8629305362701416,0.0,0.08213721960783005,97
1656402662.67989206,186208748,0,22.3577823638916,23.848674774169922,18.151248931884766,170.51625061035156,3.874206781387329,0.0,0.08213721960783005,97
1656402662.77989292,186308749,0,22.386791229248047,23.90522575378418,18.479005813598633,171.02960205078125,3.8856990337371826,0.0,0.082170769572258,97
1656402662.87993193,186408788,0,22.39042854309082,23.92502784729004,18.675722122192383,171.54861450195312,3.897320032119751,0.0,0.082170769572258,97
1656402662.97995186,186508808,0,22.376739501953125,23.932828903198242,18.968185424804688,172.07565307617188,3.9091134071350098,0.0,0.08203677833080292,97
1656402663.07999206,186608848,0,22.31403160095215,23.866422653198242,18.882566452026367,172.6004180908203,3.920823097229004,0.0,0.082212895154953,97
1656402663.17989087,186708747,0,22.327625274658203,23.871679306030273,18.750295639038086,173.1207733154297,3.932441473007202,0.0,0.0823482796549797,97
1656402663.27990699,186808763,0,22.35624885559082,23.935245513916016,19.21247100830078,173.65457153320312,3.9443752765655518,0.0,0.08218606561422348,97
1656402663.37996101,186908817,0,22.333463668823242,23.907798767089844,19.16122055053711,174.18716430664062,3.9562699794769287,0.0,0.0821625217795372,97
1656402663.47985888,187008715,0,22.344388961791992,23.93324089050293,19.369802474975586,174.72470092773438,3.9682810306549072,0.0,0.08202721923589706,97
1656402663.57988095,187108737,0,22.3510799407959,23.91870880126953,19.124393463134766,175.25608825683594,3.9801583290100098,0.0,0.08197014033794403,97
1656402663.67989087,187208747,0,22.296703338623047,23.84596824645996,18.900365829467773,175.78118896484375,3.99186635017395,0.0,0.08197014033794403,97
1656402663.77994299,187308799,0,22.346580505371094,23.904197692871094,19.00225067138672,176.30934143066406,4.003668785095215,0.0,0.08197014033794403,97
1656402663.87986398,187408720,0,22.342559814453125,23.894290924072266,18.930438995361328,176.83480834960938,4.015408992767334,0.0,0.08197014033794403,97
1656402663.97989392,187508750,0,22.37626075744629,23.917150497436523,18.78098487854004,177.35670471191406,4.027087211608887,0.0,0.08204521983861923,97
1656402664.07993197,187608788,0,22.364961624145508,23.888689041137695,18.583349227905273,177.87315368652344,4.038637638092041,0.0,0.08199427276849747,97
1656402664.17987394,187708730,0,22.36687660217285,23.892671585083008,18.614038467407227,178.38995361328125,4.050196647644043,0.0,0.08197015523910522,97
1656402664.27994990,187808806,0,22.347251892089844,23.84821891784668,18.311140060424805,178.89894104003906,4.06157112121582,0.0,0.08197015523910522,97
1656402664.37992191,187908778,0,22.38438606262207,23.9158935546875,18.66054916381836,179.41726684570312,4.073173522949219,0.0,0.08207189291715622,97
1656402664.47994184,188008798,0,22.358354568481445,23.89067840576172,18.670503616333008,179.93603515625,4.08477258682251,0.0,0.08207189291715622,97
1656402664.57995892,188108815,0,22.299192428588867,23.84944725036621,18.842670440673828,180.45957946777344,4.096446990966797,0.0,0.08227363228797913,97
1656402664.67999601,188208852,0,22.30924415588379,23.880826950073242,19.09217071533203,180.9901580810547,4.108283996582031,0.0,0.08231556415557861,97
1656402664.77993894,188308795,0,22.347347259521484,23.917137145996094,19.07038116455078,181.51962280273438,4.120116233825684,0.0,0.08231556415557861,97
1656402664.87996888,188408825,0,22.36927032470703,23.906702041625977,18.666208267211914,182.038330078125,4.131719589233398,0.0,0.08236446976661682,97
