timestamp,TimeUS,Instance,Volt,VoltR,Curr,CurrTot,EnrgTot,Temp,Res,RemPct
1656403447.85994101,79984568,0,23.82753562927246,23.841236114501953,0.18851743638515472,5.386674880981445,0.12829048931598663,0.0,0.07267457991838455,99
1656403447.95997286,80084600,0,23.82879638671875,23.843538284301758,0.20285353064537048,5.392312526702881,0.12842482328414917,0.0,0.07267457991838455,99
1656403448.05992079,80184548,0,23.838943481445312,23.854488372802734,0.21390151977539062,5.398251533508301,0.12856639921665192,0.0,0.07267457991838455,99
1656403448.15989590,80284523,0,23.778533935546875,23.786808013916016,0.1138557642698288,5.401413440704346,0.12864159047603607,0.0,0.07267457991838455,99
1656403448.25996900,80384596,0,23.78533172607422,23.79407501220703,0.12030044198036194,5.404757976531982,0.12872113287448883,0.0,0.07267457991838455,99
1656403448.35993981,80484567,0,23.843923568725586,23.859891891479492,0.21973243355751038,5.410860538482666,0.12886664271354675,0.0,0.07267457991838455,99
1656403448.45999694,80584624,0,23.83281707763672,23.847225189208984,0.1982502043247223,5.416370868682861,0.12899796664714813,0.0,0.07267457991838455,99
1656403448.55987287,80684500,0,23.813764572143555,23.82587432861328,0.16664065420627594,5.420994281768799,0.12910807132720947,0.0,0.07267457991838455,99
1656403448.65999079,80784618,0,23.779821395874023,23.788122177124023,0.11423085629940033,5.424171447753906,0.12918362021446228,0.0,0.07267457991838455,99
1656403448.75993180,80884559,0,23.817594528198242,23.83039665222168,0.1761542111635208,5.429062366485596,0.1293001025915146,0.0,0.07267457991838455,99
1656403448.85998082,80984608,0,23.833965301513672,23.848663330078125,0.2022397667169571,5.434683322906494,0.12943406403064728,0.0,0.07267457991838455,99
1656403448.95986581,81084493,0,23.83453941345215,23.84968376159668,0.20837755501270294,5.440465450286865,0.12957188487052917,0.0,0.07267457991838455,99
1656403449.05992985,81184557,0,23.794044494628906,23.80341148376465,0.12889331579208374,5.4440484046936035,0.12965713441371918,0.0,0.07267457991838455,99
1656403449.15994191,81284569,0,23.781599044799805,23.79022979736328,0.11876599490642548,5.447348117828369,0.12973560392856598,0.0,0.07267457991838455,99
1656403449.25997281,81384600,0,23.833105087280273,23.848649978637695,0.21390151977539062,5.453292369842529,0.1298772692680359,0.0,0.07267457991838455,99
1656403449.35994482,81484572,0,23.83186149597168,23.84624671936035,0.197943314909935,5.458789825439453,0.1300082802772522,0.0,0.07267457991838455,99
1656403449.45994282,81584570,0,23.834732055664062,23.849496841430664,0.20316042006015778,5.464433670043945,0.13014279305934906,0.0,0.07267457991838455,99
1656403449.55997586,81684603,0,23.83375358581543,23.848819732666016,0.20732048153877258,5.4701948165893555,0.13028010725975037,0.0,0.07267457991838455,99
1656403449.65996385,81784591,0,23.777002334594727,23.784696578979492,0.10587666183710098,5.473135471343994,0.1303500235080719,0.0,0.07267457991838455,99
1656403449.75993299,81884560,0,23.806777954101562,23.818220138549805,0.15743398666381836,5.477508068084717,0.13045412302017212,0.0,0.07267457991838455,99
1656403449.85993481,81984562,0,23.82305145263672,23.836523056030273,0.1853608787059784,5.482657432556152,0.13057680428028107,0.0,0.07267457991838455,99
1656403449.95996499,82084592,0,23.832529067993164,23.84740447998047,0.20469486713409424,5.488345623016357,0.1307123750448227,0.0,0.07267457991838455,99
1656403450.05997491,82184602,0,23.7814998626709,23.836015701293945,0.7527983784675598,5.509260654449463,0.13120976090431213,0.0,0.07241824269294739,99
1656403450.15984678,82284474,0,23.609365463256836,23.8896427154541,3.9591734409332275,5.619105815887451,0.133803129196167,0.0,0.07079201191663742,99
1656403450.25999498,82384622,0,23.67925262451172,23.865079879760742,2.64937162399292,5.692814350128174,0.13554848730564117,0.0,0.0701398029923439,99
1656403450.35991192,82484539,0,23.752492904663086,23.878053665161133,1.8130993843078613,5.743139743804932,0.13674384355545044,0.0,0.0692521333694458,99
1656403450.45986080,82584488,0,23.76407814025879,23.874473571777344,1.5941171646118164,5.787402153015137,0.13779570162296295,0.0,0.0692521333694458,99
1656403450.55988693,82684514,0,23.738515853881836,23.861730575561523,1.7848656177520752,5.836998462677002,0.13897304236888885,0.0,0.06903290003538132,99
1656403450.66000199,82784629,0,23.6319580078125,23.89178466796875,3.8213798999786377,5.9432783126831055,0.14148464798927307,0.0,0.06799279153347015,99
1656403450.75992298,82884550,0,23.402477264404297,23.909303665161133,8.196694374084473,6.17080020904541,0.14680922031402588,0.0,0.061832915991544724,99
1656403450.85999084,82984618,0,23.588014602661133,23.899755477905273,5.085762023925781,6.312178611755371,0.1501440554857254,0.0,0.061296772211790085,99
1656403450.95994377,83084571,0,23.635499954223633,23.894062042236328,4.24488639831543,6.430046081542969,0.15292991697788239,0.0,0.06091152876615524,99
1656403451.05997896,83184606,0,23.64229965209961,23.887516021728516,4.04233980178833,6.542382717132568,0.15558581054210663,0.0,0.060661979019641876,99
1656403451.15998697,83284614,0,23.593278884887695,23.830472946166992,3.8772342205047607,6.6501007080078125,0.15812723338603973,0.0,0.0611758716404438,99
1656403451.25993991,83384567,0,23.614246368408203,23.855846405029297,3.941373825073242,6.759527683258057,0.16071125864982605,0.0,0.06129855662584305,99
1656403451.35994792,83484575,0,23.648447036743164,23.893022537231445,3.989896297454834,6.870388984680176,0.1633329540491104,0.0,0.06129855662584305,99
1656403451.45990896,83584536,0,23.638660430908203,23.880720138549805,3.958559513092041,6.9803147315979,0.16593144834041595,0.0,0.06114828586578369,99
1656403451.56002092,83684648,0,23.620088577270508,23.859758377075195,3.910684823989868,7.089075088500977,0.1685003787279129,0.0,0.06128574535250664,99
1656403451.65988898,83784516,0,23.591461181640625,23.82963752746582,3.8545241355895996,7.196012496948242,0.1710231900215149,0.0,0.0617913082242012,99
1656403451.75990486,83884532,0,23.62525749206543,23.868755340576172,3.9444429874420166,7.305606842041016,0.17361238598823547,0.0,0.06173208728432655,99
1656403451.85998583,83984613,0,23.636171340942383,23.88173484802246,3.977893590927124,7.416202068328857,0.1762264370918274,0.0,0.06173208728432655,99
1656403451.95991588,84084543,0,23.637990951538086,23.883119583129883,3.9708352088928223,7.526434898376465,0.17883211374282837,0.0,0.06173208728432655,99
1656403452.05995893,84184586,0,23.587535858154297,23.8258056640625,3.859740972518921,7.633704662322998,0.1813623458147049,0.0,0.06173208728432655,99
1656403452.15987897,84284506,0,23.599409103393555,23.8403263092041,3.884531259536743,7.741530418395996,0.18390697240829468,0.0,0.06201941892504692,99
1656403452.25994682,84384574,0,23.639713287353516,23.886476516723633,3.978813886642456,7.8521246910095215,0.18652139604091644,0.0,0.06201941892504692,99
1656403452.35991192,84484539,0,23.622289657592773,23.867450714111328,3.955490827560425,7.961981773376465,0.1891164779663086,0.0,0.06197992339730263,99
1656403452.45994997,84584577,0,23.63760757446289,23.88261604309082,3.953035593032837,8.07183837890625,0.19171324372291565,0.0,0.06197992339730263,99
1656403452.55994892,84684576,0,23.629180908203125,23.873332977294922,3.939225435256958,8.181268692016602,0.19429899752140045,0.0,0.06197992339730263,99
1656403452.65998292,84784610,0,23.579111099243164,23.815160751342773,3.8084909915924072,8.287104606628418,0.1967945098876953,0.0,0.06197992339730263,99
1656403452.75998998,84884617,0,23.614341735839844,23.856979370117188,3.9125261306762695,8.39580249786377,0.19936133921146393,0.0,0.06201542541384697,99
1656403452.85997581,84984603,0,23.623247146606445,23.86655044555664,3.9232676029205322,8.504776000976562,0.20193563401699066,0.0,0.06201542541384697,99
1656403452.95998192,85084609,0,23.633203506469727,23.876277923583984,3.9195845127105713,8.613668441772461,0.20450910925865173,0.0,0.06201542541384697,99
1656403453.05996895,85184596,0,23.601749420166016,23.841381072998047,3.8640716075897217,8.720998764038086,0.20704229176044464,0.0,0.06201542541384697,99
1656403453.15991187,85284539,0,23.580549240112305,23.817628860473633,3.8229143619537354,8.82711124420166,0.20954447984695435,0.0,0.06201542541384697,99
1656403453.25986981,85384497,0,23.620088577270508,23.862497329711914,3.908843517303467,8.935681343078613,0.21210892498493195,0.0,0.06201542541384697,99
1656403453.35990977,85484537,0,23.627267837524414,23.871484756469727,3.937997579574585,9.045123100280762,0.21469472348690033,0.0,0.06201542541384697,99
1656403453.45993495,85584562,0,23.623916625976562,23.869522094726562,3.9604008197784424,9.155167579650879,0.21729439496994019,0.0,0.06201542541384697,99
1656403453.55995178,85684579,0,23.58131217956543,23.819496154785156,3.8407139778137207,9.261883735656738,0.21981090307235718,0.0,0.06201542541384697,99
1656403453.65997386,85784601,0,23.592323303222656,23.83355140686035,3.8898165225982666,9.369966506958008,0.22236083447933197,0.0,0.06201542541384697,99
1656403453.75991488,85884542,0,23.621810913085938,23.86770248413086,3.9650042057037354,9.480049133300781,0.22496119141578674,0.0,0.06201542541384697,99
1656403453.85992098,85984548,0,23.61812973022461,23.861547470092773,3.9251084327697754,9.589095115661621,0.2275366485118866,0.0,0.06201542541384697,99
1656403453.95992398,86084551,0,23.6262149810791,23.871307373046875,3.952115058898926,9.698887825012207,0.2301306426525116,0.0,0.06201542541384697,99
1656403454.05995893,86184586,0,23.62295913696289,23.867555618286133,3.9441354274749756,9.808494567871094,0.23271986842155457,0.0,0.06201542541384697,99
1656403454.15996385,86284591,0,23.56896209716797,23.807659149169922,3.8490002155303955,9.915425300598145,0.2352401167154312,0.0,0.06201542541384697,99
1656403454.25998878,86384616,0,23.606204986572266,23.84966468811035,3.925415277481079,10.024489402770996,0.23781470954418182,0.0,0.062021564692258835,99
1656403454.35993695,86484564,0,23.614246368408203,23.858488082885742,3.937997579574585,10.13383960723877,0.24039694666862488,0.0,0.062021564692258835,99
1656403454.45993590,86584563,0,23.61309814453125,23.858043670654297,3.949352979660034,10.243552207946777,0.24298761785030365,0.0,0.062021564692258835,99
1656403454.55999184,86684619,0,23.58619499206543,23.82666778564453,3.8772342205047607,10.351322174072266,0.24552950263023376,0.0,0.062021564692258835,99
1656403454.65995598,86784583,0,23.56647300720215,23.80258560180664,3.8069562911987305,10.45704174041748,0.2480209320783615,0.0,0.062021564692258835,99
1656403454.75998092,86884608,0,23.612384796142578,23.856821060180664,3.9411349296569824,10.566554069519043,0.2506067752838135,0.0,0.062021564692258835,99
1656403454.85994482,86984572,0,23.61711883544922,23.861835479736328,3.9456698894500732,10.676125526428223,0.25319454073905945,0.0,0.062021564692258835,99
1656403454.95991182,87084539,0,23.621810913085938,23.86618423461914,3.9401464462280273,10.78554630279541,0.2557792663574219,0.0,0.062021564692258835,99
1656403455.05993795,87184565,0,23.604768753051758,23.847543716430664,3.914367437362671,10.894303321838379,0.25834646821022034,0.0,0.062021564692258835,99
1656403455.15994978,87284577,0,23.576047897338867,23.813875198364258,3.8345766067504883,11.000852584838867,0.2608584761619568,0.0,0.062021564692258835,99
1656403455.25987387,87384501,0,23.599313735961914,23.840051651000977,3.88153076171875,11.108599662780762,0.26340124011039734,0.0,0.062021564692258835,99
1656403455.35992599,87484553,0,23.604578018188477,23.847219467163086,3.912219762802124,11.217337608337402,0.2659679651260376,0.0,0.062021564692258835,99
1656403455.45994496,87584572,0,23.621618270874023,23.867704391479492,3.967766046524048,11.327583312988281,0.2685721516609192,0.0,0.062021564692258835,99
1656403455.55993891,87684566,0,23.600460052490234,23.844696044921875,3.9355428218841553,11.436905860900879,0.27115222811698914,0.0,0.062059078365564346,99
1656403455.65999794,87784625,0,23.565155029296875,23.803071975708008,3.833723783493042,11.543469429016113,0.2736634314060211,0.0,0.062059078365564346,99
1656403455.75997400,87884601,0,23.589643478393555,23.830888748168945,3.8873612880706787,11.651433944702148,0.2762102782726288,0.0,0.062059078365564346,99
1656403455.85994387,87984571,0,23.602949142456055,23.847471237182617,3.9401464462280273,11.760858535766602,0.27879300713539124,0.0,0.062059078365564346,99
1656403455.95989490,88084522,0,23.613386154174805,23.85838508605957,3.9478185176849365,11.870473861694336,0.28138139843940735,0.0,0.062059078365564346,99
1656403456.05997992,88184607,0,23.59356689453125,23.836030960083008,3.9070022106170654,11.979104042053223,0.28394436836242676,0.0,0.062059078365564346,99
1656403456.15995979,88284587,0,23.593950271606445,23.83586311340332,3.898102045059204,12.087371826171875,0.2864988148212433,0.0,0.062059078365564346,99
1656403456.25987792,88384505,0,23.559675216674805,23.79859733581543,3.8499209880828857,12.194234848022461,0.2890164852142334,0.0,0.062059078365564346,99
1656403456.35990191,88484529,0,23.6146297454834,23.860637664794922,3.964083433151245,12.304383277893066,0.29161760210990906,0.0,0.062059078365564346,99
1656403456.45986080,88584488,0,23.619192123413086,23.866378784179688,3.983076333999634,12.414987564086914,0.29422998428344727,0.0,0.062059078365564346,99
1656403456.55998898,88684616,0,23.610416412353516,23.856557846069336,3.9662318229675293,12.525310516357422,0.2968347668647766,0.0,0.062059078365564346,99
1656403456.65990496,88784532,0,23.569059371948242,23.807029724121094,3.8345766067504883,12.631744384765625,0.2993433177471161,0.0,0.062059078365564346,99
1656403456.75995898,88884586,0,23.558719635009766,23.79743194580078,3.8465452194213867,12.738659858703613,0.30186212062835693,0.0,0.062059078365564346,99
1656403456.85995793,88984585,0,23.60247039794922,23.84661102294922,3.9340083599090576,12.847930908203125,0.3044411838054657,0.0,0.062059078365564346,99
1656403456.95994282,89084570,0,23.61367416381836,23.860061645507812,3.9702212810516357,12.958220481872559,0.30704551935195923,0.0,0.062059078365564346,99
1656403457.05992985,89184557,0,23.59893035888672,23.842103958129883,3.9159018993377686,13.066990852355957,0.3096123933792114,0.0,0.062098972499370575,99
1656403457.15994477,89284572,0,23.55843162536621,23.796764373779297,3.837952136993408,13.173624992370605,0.3121245205402374,0.0,0.062098972499370575,99
1656403457.25994086,89384568,0,23.590024948120117,23.834321975708008,3.9340083599090576,13.282907485961914,0.31470248103141785,0.0,0.062098972499370575,99
1656403457.35995197,89484579,0,23.594301223754883,23.83959197998047,3.950000524520874,13.392650604248047,0.317291796207428,0.0,0.062098972499370575,99
1656403457.45999885,89584626,0,23.607927322387695,23.854721069335938,3.9742109775543213,13.503105163574219,0.31989941000938416,0.0,0.062098972499370575,99
1656403457.55997300,89684600,0,23.573463439941406,23.81534194946289,3.895033359527588,13.611282348632812,0.3224495053291321,0.0,0.062098972499370575,99
1656403457.65998292,89784610,0,23.547420501708984,23.787715911865234,3.8695619106292725,13.718789100646973,0.32498103380203247,0.0,0.062098972499370575,99
1656403457.75995278,89884580,0,23.588397979736328,23.833839416503906,3.9524216651916504,13.828553199768066,0.32757019996643066,0.0,0.062098972499370575,99
1656403457.85998797,89984615,0,23.60084342956543,23.848705291748047,3.99139666557312,13.939474105834961,0.3301880359649658,0.0,0.062098972499370575,99
1656403457.95984888,90084476,0,23.604578018188477,23.85186767578125,3.9821901321411133,14.049945831298828,0.3327956795692444,0.0,0.062098972499370575,99
1656403458.05990386,90184531,0,23.552783966064453,23.79180335998535,3.8490002155303955,14.156929969787598,0.335315465927124,0.0,0.062098972499370575,99
1656403458.16000390,90284631,0,23.56089973449707,23.800474166870117,3.857933759689331,14.264183044433594,0.3378424346446991,0.0,0.062098972499370575,99
1656403458.25987196,90384499,0,23.59414291381836,23.84114646911621,3.977586507797241,14.374563217163086,0.3404467701911926,0.0,0.062098972499370575,99
1656403458.35995793,90484585,0,23.59825897216797,23.843433380126953,3.948125123977661,14.484334945678711,0.3430371880531311,0.0,0.062098972499370575,99
1656403458.45988679,90584514,0,23.603622436523438,23.849960327148438,3.9668455123901367,14.594456672668457,0.3456364572048187,0.0,0.062098972499370575,99
1656403458.55995584,90684583,0,23.59117317199707,23.8355655670166,3.9355428218841553,14.703861236572266,0.3482174575328827,0.0,0.062098972499370575,99
1656403458.65990496,90784532,0,23.558048248291016,23.79731559753418,3.852989673614502,14.810842514038086,0.35073772072792053,0.0,0.062098972499370575,99
1656403458.75993490,90884562,0,23.58533477783203,23.829099655151367,3.925415277481079,14.919922828674316,0.3533104360103607,0.0,0.062098972499370575,99
1656403458.85997081,90984598,0,23.584089279174805,23.828197479248047,3.9309396743774414,15.029163360595703,0.3558867871761322,0.0,0.062098972499370575,99
1656403458.95998979,91084617,0,23.599695205688477,23.845842361450195,3.9637763500213623,15.139298439025879,0.3584859371185303,0.0,0.062098972499370575,99
1656403459.05998778,91184615,0,23.560260772705078,23.800025939941406,3.8610029220581055,15.24655532836914,0.36101293563842773,0.0,0.062098972499370575,99
1656403459.15996981,91284597,0,23.543975830078125,23.781299591064453,3.8216872215270996,15.352703094482422,0.3635120689868927,0.0,0.062098972499370575,99
1656403459.25997496,91384602,0,23.583898544311523,23.827472686767578,3.922346591949463,15.461670875549316,0.36608195304870605,0.0,0.062098972499370575,99
1656403459.35994697,91484574,0,23.59844970703125,23.8438720703125,3.952115058898926,15.571430206298828,0.36867210268974304,0.0,0.062098972499370575,99
1656403459.45996594,91584593,0,23.593759536743164,23.83941078186035,3.9557971954345703,15.681341171264648,0.37126532196998596,0.0,0.062098972499370575,99
1656403459.55990100,91684528,0,23.601991653442383,23.848766326904297,3.9739038944244385,15.791666984558105,0.3738692104816437,0.0,0.062098972499370575,99
1656403459.66000390,91784631,0,23.54426383972168,23.782806396484375,3.8413279056549072,15.898488998413086,0.37638425827026367,0.0,0.062098972499370575,99
1656403459.75988078,91884508,0,23.56321907043457,23.807273864746094,3.9180500507354736,16.007186889648438,0.37894555926322937,0.0,0.06228990480303764,99
1656403459.85996389,91984591,0,23.59653663635254,23.843650817871094,3.9671521186828613,16.117496490478516,0.3815484941005707,0.0,0.06228990480303764,99
1656403459.95993495,92084562,0,23.57206916809082,23.81603240966797,3.916583776473999,16.226255416870117,0.384112149477005,0.0,0.06228990480303764,99
1656403460.05992699,92184554,0,23.57796287536621,23.821941375732422,3.916822671890259,16.33506965637207,0.38667774200439453,0.0,0.06228990480303764,99
1656403460.15993500,92284562,0,23.54206085205078,23.781719207763672,3.847465753555298,16.44196128845215,0.38919419050216675,0.0,0.06228990480303764,99
1656403460.25993490,92384562,0,23.57470703125,23.818199157714844,3.90730881690979,16.550506591796875,0.39175310730934143,0.0,0.06231706589460373,99
1656403460.35995197,92484579,0,23.583515167236328,23.82893943786621,3.938304901123047,16.659931182861328,0.39433372020721436,0.0,0.06231706589460373,99
1656403460.45994592,92584573,0,23.594812393188477,23.84170913696289,3.961935043334961,16.76998519897461,0.396930456161499,0.0,0.06231706589460373,99
1656403460.55999398,92684621,0,23.555273056030273,23.795494079589844,3.8548309803009033,16.87710952758789,0.3994537889957428,0.0,0.06231706589460373,99
1656403460.65992093,92784548,0,23.571165084838867,23.815082550048828,3.911912202835083,16.985719680786133,0.4020138382911682,0.0,0.06235253065824509,99
1656403460.75995278,92884580,0,23.583131790161133,23.82887077331543,3.9411349296569824,17.095237731933594,0.40459662675857544,0.0,0.06235253065824509,99
1656403460.85996890,92984596,0,23.568866729736328,23.815143585205078,3.946284294128418,17.204883575439453,0.40718087553977966,0.0,0.06240710988640785,99
1656403460.95993781,93084565,0,23.596343994140625,23.844266891479492,3.9726765155792236,17.315210342407227,0.409784197807312,0.0,0.06240710988640785,99
1656403461.05995083,93184578,0,23.590600967407227,23.83909797668457,3.9818830490112305,17.42584228515625,0.41239404678344727,0.0,0.06240710988640785,99
1656403461.15990591,93284533,0,23.538711547851562,23.780277252197266,3.8707892894744873,17.5333251953125,0.4149240255355835,0.0,0.06240710988640785,99
1656403461.25999188,93384619,0,23.56302833557129,23.8079833984375,3.9251084327697754,17.642457962036133,0.4174955189228058,0.0,0.06240710988640785,99
1656403461.35993195,93484559,0,23.579111099243164,23.825578689575195,3.949352979660034,17.752105712890625,0.42008092999458313,0.0,0.06240710988640785,99
1656403461.45988178,93584509,0,23.59605598449707,23.844650268554688,3.983417510986328,17.862709045410156,0.422690749168396,0.0,0.06240710988640785,99
1656403461.55989194,93684519,0,23.57059097290039,23.816370010375977,3.938304901123047,17.972126007080078,0.4252697825431824,0.0,0.06240710988640785,99
1656403461.65993500,93784562,0,23.54132843017578,23.782644271850586,3.866799831390381,18.079578399658203,0.4277993440628052,0.0,0.06240710988640785,99
1656403461.75996280,93884590,0,23.56389045715332,23.80807876586914,3.9128332138061523,18.188308715820312,0.43036144971847534,0.0,0.06240710988640785,99
1656403461.85991478,93984542,0,23.57480239868164,23.820924758911133,3.94382905960083,18.297828674316406,0.4329433739185333,0.0,0.06240710988640785,99
1656403461.95996094,94084588,0,23.59174919128418,23.83944320678711,3.968993902206421,18.408138275146484,0.43554577231407166,0.0,0.06240710988640785,99
1656403462.05998397,94184611,0,23.574995040893555,23.8198299407959,3.9226531982421875,18.517133712768555,0.43811535835266113,0.0,0.06241586059331894,99
1656403462.15998888,94284616,0,23.552400588989258,23.793310165405273,3.859740972518921,18.62436294555664,0.4406408667564392,0.0,0.06241586059331894,99
1656403462.25992179,94384549,0,23.538135528564453,23.77649688720703,3.818925142288208,18.73038101196289,0.4431363344192505,0.0,0.06241586059331894,99
1656403462.35996985,94484597,0,23.59519386291504,23.842769622802734,3.966538667678833,18.840625762939453,0.4457375705242157,0.0,0.06241586059331894,99
1656403462.45996690,94584594,0,23.585525512695312,23.832487106323242,3.9567182064056396,18.95054054260254,0.44832995533943176,0.0,0.06241586059331894,99
1656403462.55993891,94684566,0,23.5815372467041,23.828102111816406,3.9503414630889893,19.060251235961914,0.4509170949459076,0.0,0.06241586059331894,99
1656403462.65996099,94784588,0,23.535072326660156,23.774545669555664,3.836724281311035,19.166858673095703,0.4534261226654053,0.0,0.06241586059331894,99
1656403462.75991988,94884547,0,23.5321044921875,23.769853591918945,3.8091044425964355,19.272632598876953,0.4559151828289032,0.0,0.06241586059331894,99
1656403462.86002994,94984657,0,23.58849334716797,23.835378646850586,3.955490827560425,19.38263702392578,0.45851001143455505,0.0,0.06241586059331894,99
1656403462.95986390,95084491,0,23.588109970092773,23.83608627319336,3.9729831218719482,19.492822647094727,0.46110907196998596,0.0,0.06241586059331894,99
1656403463.05998182,95184609,0,23.562835693359375,23.808439254760742,3.9303252696990967,19.602136611938477,0.4636847972869873,0.0,0.06248946860432625,99
1656403463.15993094,95284558,0,23.52789306640625,23.76824188232422,3.846238374710083,19.70893096923828,0.4661974608898163,0.0,0.06248946860432625,99
1656403463.25995898,95384586,0,23.57901382446289,23.82626724243164,3.9567182064056396,19.818864822387695,0.46878960728645325,0.0,0.06248946860432625,99
1656403463.35992599,95484553,0,23.585683822631836,23.833242416381836,3.961594581604004,19.92889404296875,0.471384733915329,0.0,0.06248946860432625,99
1656403463.45992994,95584557,0,23.574995040893555,23.82171058654785,3.948125123977661,20.038578033447266,0.47397053241729736,0.0,0.06248946860432625,99
1656403463.55995893,95684586,0,23.544931411743164,23.786949157714844,3.8729376792907715,20.14620018005371,0.47650447487831116,0.0,0.06248946860432625,99
1656403463.65997100,95784598,0,23.53306007385254,23.773696899414062,3.850841760635376,20.253189086914062,0.4790222644805908,0.0,0.06248946860432625,99
1656403463.75996280,95884590,0,23.56656837463379,23.81222915649414,3.931246280670166,20.362388610839844,0.4815957248210907,0.0,0.06248946860432625,99
1656403463.85992479,95984552,0,23.58198356628418,23.83023452758789,3.9726765155792236,20.47270965576172,0.4841972887516022,0.0,0.06248946860432625,99
1656403463.95997882,96084606,0,23.579301834106445,23.827590942382812,3.973289966583252,20.58314323425293,0.48680123686790466,0.0,0.06248946860432625,99
1656403464.05994892,96184576,0,23.58265495300293,23.832382202148438,3.9963066577911377,20.69413185119629,0.4894186556339264,0.0,0.06248946860432625,99
1656403464.15998888,96284616,0,23.51388168334961,23.753171920776367,3.829291343688965,20.800552368164062,0.49192100763320923,0.0,0.06248946860432625,99
1656403464.25985980,96384487,0,23.54837989807129,23.792966842651367,3.914060592651367,20.90914535522461,0.4944781959056854,0.0,0.06248946860432625,99
1656403464.35999489,96484622,0,23.568771362304688,23.81556510925293,3.949352979660034,21.019004821777344,0.4970674514770508,0.0,0.06248946860432625,99
1656403464.45997691,96584604,0,23.578535079956055,23.825557708740234,3.953035593032837,21.128801345825195,0.4996562898159027,0.0,0.06248946860432625,99
1656403464.55987978,96684507,0,23.554794311523438,23.80120086669922,3.937077283859253,21.238067626953125,0.5022300481796265,0.0,0.06258605420589447,99
1656403464.65992594,96784553,0,23.52664566040039,23.767213821411133,3.843783140182495,21.34489631652832,0.5047433972358704,0.0,0.06258605420589447,99
1656403464.75992680,96884554,0,23.56484603881836,23.812116622924805,3.9508872032165527,21.454652786254883,0.5073298215866089,0.0,0.06258605420589447,99
1656403464.85999084,96984618,0,23.58016586303711,23.829837799072266,3.989248275756836,21.56554412841797,0.5099446773529053,0.0,0.06258605420589447,99
1656403464.95991182,97084539,0,23.569059371948242,23.816713333129883,3.9570250511169434,21.675382614135742,0.5125334858894348,0.0,0.06258605420589447,99
1656403465.05996084,97184588,0,23.53356170654297,23.775997161865234,3.873619318008423,21.783031463623047,0.5150668621063232,0.0,0.06258605420589447,99
1656403465.15993500,97284562,0,23.52827262878418,23.77045249938965,3.8695619106292725,21.890512466430664,0.5175957083702087,0.0,0.06258605420589447,99
1656403465.25990891,97384536,0,23.570398330688477,23.818111419677734,3.9579455852508545,22.00043487548828,0.5201866030693054,0.0,0.06258605420589447,99
1656403465.36001492,97484642,0,23.569440841674805,23.815847396850586,3.937077283859253,22.109922409057617,0.522767186164856,0.0,0.06258605420589447,99
1656403465.45992088,97584548,0,23.57642936706543,23.825237274169922,3.975438356399536,22.220256805419922,0.5253685116767883,0.0,0.06258605420589447,99
1656403465.55996895,97684596,0,23.58131217956543,23.830617904663086,3.983417510986328,22.330968856811523,0.5279792547225952,0.0,0.06258605420589447,99
1656403465.65995193,97784579,0,23.515350341796875,23.754457473754883,3.8204596042633057,22.437082290649414,0.5304745435714722,0.0,0.06258605420589447,99
1656403465.75994277,97884570,0,23.551921844482422,23.796464920043945,3.90730881690979,22.545618057250977,0.5330307483673096,0.0,0.06258605420589447,99
1656403465.85988593,97984513,0,23.56733512878418,23.81352996826172,3.933701515197754,22.65483283996582,0.5356046557426453,0.0,0.06258605420589447,99
1656403465.95993900,98084566,0,23.57281494140625,23.820222854614258,3.9530696868896484,22.764707565307617,0.5381947159767151,0.0,0.06258605420589447,99
1656403466.05999994,98184627,0,23.55766487121582,23.80282211303711,3.9171297550201416,22.873592376708984,0.540759801864624,0.0,0.06258605420589447,99
1656403466.15993285,98284560,0,23.5201358795166,23.759511947631836,3.824756145477295,22.97972869873047,0.5432561039924622,0.0,0.06258605420589447,99
1656403466.25996900,98384596,0,23.553932189941406,23.798648834228516,3.9100708961486816,23.088424682617188,0.5458163022994995,0.0,0.06258605420589447,99
1656403466.35994101,98484568,0,23.571834564208984,23.818010330200195,3.933394432067871,23.197673797607422,0.5483915209770203,0.0,0.06258605420589447,99
1656403466.45996690,98584594,0,23.580833435058594,23.828622817993164,3.9591734409332275,23.30768585205078,0.5509856939315796,0.0,0.06258605420589447,99
1656403466.55987978,98684507,0,23.525115966796875,23.765625,3.842862129211426,23.414350509643555,0.5534949898719788,0.0,0.06258605420589447,99
1656403466.65994692,98784574,0,23.532392501831055,23.77336311340332,3.8502275943756104,23.521381378173828,0.5560137033462524,0.0,0.06258605420589447,99
1656403466.75997686,98884604,0,23.564653396606445,23.81328773498535,3.9726765155792236,23.63177490234375,0.5586150884628296,0.0,0.06258605420589447,99
1656403466.86005092,98984678,0,23.55388069152832,23.799579620361328,3.925790548324585,23.74091339111328,0.5611857175827026,0.0,0.06258605420589447,99
1656403466.95991397,99084541,0,23.57135581970215,23.81937599182129,3.9628560543060303,23.85085105895996,0.5637770891189575,0.0,0.06258605420589447,99
1656403467.05997086,99184598,0,23.577484130859375,23.82508087158203,3.956104278564453,23.960813522338867,0.5663697719573975,0.0,0.06258605420589447,99
1656403467.15996480,99284592,0,23.502904891967773,23.740840911865234,3.801739454269409,24.06641960144043,0.5688518285751343,0.0,0.06258605420589447,99
1656403467.25992990,99384557,0,23.55364418029785,23.79974365234375,3.9321670532226562,24.175617218017578,0.5714238286018372,0.0,0.06258605420589447,99
1656403467.35994697,99484574,0,23.56254768371582,23.81081771850586,3.9668455123901367,24.28583335876465,0.5740208029747009,0.0,0.06258605420589447,99
1656403467.45987892,99584506,0,23.569345474243164,23.81784439086914,3.9705283641815186,24.396060943603516,0.5766187906265259,0.0,0.06258605420589447,99
1656403467.56000996,99684637,0,23.542827606201172,23.786449432373047,3.892578601837158,24.50433921813965,0.5791679620742798,0.0,0.06258605420589447,99
1656403467.65987587,99784503,0,23.537273406982422,23.782487869262695,3.9180500507354736,24.613035202026367,0.5817263722419739,0.0,0.06258605420589447,99
1656403467.75995684,99884584,0,23.52260398864746,23.763395309448242,3.847363233566284,24.719995498657227,0.5842423439025879,0.0,0.06258605420589447,99
1656403467.85990000,99984527,0,23.560346603393555,23.80713653564453,3.9432151317596436,24.829483032226562,0.5868219137191772,0.0,0.06258605420589447,99
1656403467.95993996,100084567,0,23.57068634033203,23.818283081054688,3.956104278564453,24.93941307067871,0.589413046836853,0.0,0.06258605420589447,99
1656403468.05995297,100184580,0,23.520998001098633,23.761930465698242,3.849614143371582,25.046382904052734,0.5919290781021118,0.0,0.06258605420589447,99
1656403468.15993285,100284560,0,23.525306701660156,23.76710319519043,3.863424062728882,25.1536865234375,0.5944534540176392,0.0,0.06258605420589447,99
1656403468.25998783,100384615,0,23.570781707763672,23.81926155090332,3.9702212810516357,25.2640380859375,0.5970545411109924,0.0,0.06258605420589447,99
1656403468.35997081,100484598,0,23.559770584106445,23.807559967041016,3.9591734409332275,25.373994827270508,0.5996450781822205,0.0,0.06258605420589447,99
1656403468.45995879,100584586,0,23.569345474243164,23.81822967529297,3.976666212081909,25.484451293945312,0.60224848985672,0.0,0.06258605420589447,99
1656403468.55991793,100684545,0,23.570049285888672,23.818950653076172,3.9769389629364014,25.594898223876953,0.6048517227172852,0.0,0.06258605420589447,99
1656403468.65996885,100784596,0,23.50759506225586,23.748470306396484,3.8486931324005127,25.70186996459961,0.6073663830757141,0.0,0.06258605420589447,99
1656403468.75995898,100884586,0,23.511423110961914,23.754487991333008,3.883678674697876,25.80974578857422,0.6099027395248413,0.0,0.06258605420589447,99
1656403468.85988879,100984516,0,23.556804656982422,23.806148529052734,3.9840309619903564,25.920345306396484,0.6125081181526184,0.0,0.06258605420589447,99
1656403468.96000886,101084636,0,23.562164306640625,23.810317993164062,3.9650042057037354,26.030622482299805,0.6151065230369568,0.0,0.06258605420589447,99
1656403469.05998182,101184609,0,23.53947639465332,23.785114288330078,3.924801826477051,26.13957405090332,0.6176711916923523,0.0,0.06258605420589447,99
1656403469.15995979,101284587,0,23.522626876831055,23.764577865600586,3.8658788204193115,26.24699592590332,0.6201980113983154,0.0,0.06258605420589447,99
1656403469.25988078,101384508,0,23.55498504638672,23.802082061767578,3.948125123977661,26.35658836364746,0.6227794289588928,0.0,0.06258605420589447,99
1656403469.35991096,101484538,0,23.54789924621582,23.794727325439453,3.94382905960083,26.4661808013916,0.6253600716590881,0.0,0.06258605420589447,99
1656403469.45989394,101584521,0,23.550050735473633,23.797883987426758,3.9598894119262695,26.5761661529541,0.6279502511024475,0.0,0.06258605420589447,99
1656403469.55997586,101684603,0,23.515827178955078,23.758468627929688,3.876927137374878,26.683956146240234,0.6304850578308105,0.0,0.06258605420589447,99
1656403469.65987778,101784505,0,23.537273406982422,23.783571243286133,3.9330875873565674,26.793109893798828,0.633054256439209,0.0,0.06262180209159851,99
1656403469.75994682,101884574,0,23.533538818359375,23.779067993164062,3.9208123683929443,26.9021053314209,0.6356192827224731,0.0,0.06262180209159851,99
1656403469.85997891,101984606,0,23.558719635009766,23.8074951171875,3.9726765155792236,27.012500762939453,0.6382200717926025,0.0,0.06262180209159851,99
1656403469.95997500,102084602,0,23.562259674072266,23.81149673461914,3.980041742324829,27.123062133789062,0.6408251523971558,0.0,0.06262180209159851,99
1656403470.05999684,102184624,0,23.558624267578125,23.807016372680664,3.966538667678833,27.2332763671875,0.6434216499328613,0.0,0.06262180209159851,99
1656403470.15994978,102284577,0,23.51094627380371,23.752073287963867,3.850534439086914,27.340194702148438,0.6459354162216187,0.0,0.06262180209159851,99
1656403470.25998092,102384608,0,23.545368194580078,23.791805267333984,3.9353384971618652,27.449552536010742,0.6485102772712708,0.0,0.06262180209159851,99
1656403470.35995483,102484582,0,23.555465698242188,23.803281784057617,3.957332134246826,27.559457778930664,0.6510991454124451,0.0,0.06262180209159851,99
1656403470.45998096,102584608,0,23.550678253173828,23.798646926879883,3.959787368774414,27.66948890686035,0.6536904573440552,0.0,0.06262180209159851,99
1656403470.55989194,102684519,0,23.53612518310547,23.78173065185547,3.922039747238159,27.778345108032227,0.6562525033950806,0.0,0.06262180209159851,99
1656403470.65995383,102784581,0,23.518892288208008,23.762113571166992,3.8839855194091797,27.886310577392578,0.658791720867157,0.0,0.06262180209159851,99
1656403470.75994778,102884575,0,23.549335479736328,23.796152114868164,3.941373825073242,27.99579620361328,0.661370038986206,0.0,0.06262180209159851,99
1656403470.85986781,102984495,0,23.541486740112305,23.785484313964844,3.8977956771850586,28.10399055480957,0.663917064666748,0.0,0.06259874999523163,99
1656403470.95992279,103084550,0,23.56245231628418,23.809926986694336,3.9533419609069824,28.21387481689453,0.6665062308311462,0.0,0.06259874999523163,99
1656403471.05991483,103184542,0,23.509126663208008,23.748992919921875,3.8318142890930176,28.320314407348633,0.6690085530281067,0.0,0.06259874999523163,99
1656403471.15997887,103284606,0,23.521669387817383,23.762727737426758,3.850841760635376,28.427358627319336,0.6715264320373535,0.0,0.06259874999523163,99
1656403471.25993180,103384559,0,23.56707000732422,23.81454849243164,3.9534106254577637,28.537132263183594,0.6741135120391846,0.0,0.06259874999523163,99
1656403471.35995698,103484584,0,23.547040939331055,23.79349708557129,3.937077283859253,28.646516799926758,0.6766892075538635,0.0,0.06259874999523163,99
1656403471.45991492,103584542,0,23.563507080078125,23.810136795043945,3.9398393630981445,28.75593376159668,0.6792674660682678,0.0,0.06259874999523163,99
1656403471.55996299,103684590,0,23.552017211914062,23.79829978942871,3.9343154430389404,28.86528205871582,0.6818428039550781,0.0,0.06259874999523163,99
1656403471.65996885,103784596,0,23.5050106048584,23.74380111694336,3.8146286010742188,28.97125816345215,0.6843337416648865,0.0,0.06259874999523163,99
1656403471.75996900,103884596,0,23.5272216796875,23.769758224487305,3.87447190284729,29.07889175415039,0.686866044998169,0.0,0.06259874999523163,99
1656403471.85997891,103984606,0,23.549240112304688,23.795772552490234,3.938304901123047,29.188308715820312,0.6894427537918091,0.0,0.06259874999523163,99
1656403471.95983791,104084465,0,23.566282272338867,23.814102172851562,3.9588663578033447,29.29813003540039,0.6920308470726013,0.0,0.06259874999523163,99
1656403472.05996895,104184596,0,23.53302764892578,23.777006149291992,3.897488594055176,29.406545639038086,0.6945821642875671,0.0,0.06259874999523163,99
1656403472.15991879,104284546,0,23.502424240112305,23.742656707763672,3.8376452922821045,29.513090133666992,0.6970862150192261,0.0,0.06259874999523163,99
1656403472.25997996,104384607,0,23.53708267211914,23.781368255615234,3.9023985862731934,29.621578216552734,0.6996396780014038,0.0,0.06259874999523163,99
1656403472.35986781,104484495,0,23.563411712646484,23.811405181884766,3.9616286754608154,29.731508255004883,0.7022300362586975,0.0,0.06259874999523163,99
1656403472.45991087,104584538,0,23.554889678955078,23.802209854125977,3.9508872032165527,29.841310501098633,0.7048164010047913,0.0,0.06259874999523163,99
1656403472.56010699,104684734,0,23.506732940673828,23.746484756469727,3.829972982406616,29.94791603088379,0.707322359085083,0.0,0.06259874999523163,99
1656403472.65995383,104784581,0,23.504436492919922,23.74489974975586,3.8413279056549072,30.05446434020996,0.7098267078399658,0.0,0.06259874999523163,99
1656403472.75997591,104884603,0,23.550485610961914,23.79828643798828,3.958559513092041,30.16445541381836,0.7124170660972595,0.0,0.06259874999523163,99
1656403472.86001778,104984645,0,23.54359245300293,23.789684295654297,3.931246280670166,30.273712158203125,0.7149893641471863,0.0,0.06259874999523163,99
1656403472.96005583,105084683,0,23.546432495117188,23.79303550720215,3.939429759979248,30.383182525634766,0.7175670266151428,0.0,0.06259874999523163,99
1656403473.05998898,105184616,0,23.546369552612305,23.793325424194336,3.945056438446045,30.492712020874023,0.7201460599899292,0.0,0.06259874999523163,99
1656403473.16000891,105284636,0,23.499361038208008,23.739784240722656,3.8407139778137207,30.599428176879883,0.7226538062095642,0.0,0.06259874999523163,99
1656403473.25996494,105384592,0,23.531049728393555,23.776460647583008,3.919891834259033,30.708274841308594,0.7252150774002075,0.0,0.06260678917169571,99
1656403473.35998678,105484614,0,23.5418701171875,23.788991928100586,3.94720458984375,30.81795310974121,0.7277970910072327,0.0,0.06260678917169571,99
1656403473.45996499,105584592,0,23.55508041381836,23.803932189941406,3.9748244285583496,30.928348541259766,0.7303974628448486,0.0,0.06260678917169571,99
1656403473.55997491,105684602,0,23.518604278564453,23.76307487487793,3.9048538208007812,31.036834716796875,0.732948899269104,0.0,0.06260678917169571,99
1656403473.65996981,105784597,0,23.505489349365234,23.746597290039062,3.8511483669281006,31.143783569335938,0.7354627847671509,0.0,0.06260678917169571,99
1656403473.75995493,105884582,0,23.53545379638672,23.782556533813477,3.9468977451324463,31.25344467163086,0.7380436658859253,0.0,0.06260678917169571,99
1656403473.86007285,105984700,0,23.547815322875977,23.794898986816406,3.9465906620025635,31.363210678100586,0.7406284213066101,0.0,0.06260678917169571,99
1656403473.95987296,106084500,0,23.553359985351562,23.80242156982422,3.9782004356384277,31.4735050201416,0.7432262301445007,0.0,0.06260678917169571,99
1656403474.06000090,106184628,0,23.565038681030273,23.788175582885742,3.5605244636535645,31.572542190551758,0.7455600500106812,0.0,0.06266973167657852,99
1656403474.15995884,106284586,0,23.69418716430664,23.70170021057129,0.12183487415313721,31.575925827026367,0.745640218257904,0.0,0.06166842579841614,99
1656403474.25995278,106384580,0,23.7060604095459,23.706602096557617,0.008899778127670288,31.576173782348633,0.745646059513092,0.0,0.06093201786279678,99
1656403474.35997081,106484598,0,23.716876983642578,23.7481746673584,0.5143457651138306,31.590465545654297,0.7459850311279297,0.0,0.060850270092487335,99
1656403474.45995879,106584586,0,23.698686599731445,23.760242462158203,1.0102781057357788,31.618528366088867,0.7466500401496887,0.0,0.06093020364642143,99
1656403474.55997896,106684606,0,23.67714500427246,23.74435806274414,1.105413794517517,31.649242401123047,0.7473772764205933,0.0,0.06080363690853119,99
1656403474.65996599,106784593,0,23.640575408935547,23.704687118530273,1.0645633935928345,31.67881202697754,0.748076319694519,0.0,0.06022300198674202,99
1656403474.76003289,106884660,0,23.661638259887695,23.729511260986328,1.1302716732025146,31.71023178100586,0.7488197684288025,0.0,0.06004958972334862,99
1656403474.85997891,106984606,0,23.680307388305664,23.7512149810791,1.1784532070159912,31.742952346801758,0.7495945692062378,0.0,0.06016932800412178,99
1656403474.95998383,107084611,0,23.6829891204834,23.753976821899414,1.1772257089614868,31.775657653808594,0.750369131565094,0.0,0.06030028313398361,99
1656403475.05996585,107184593,0,23.666807174682617,23.7354793548584,1.1410127878189087,31.807350158691406,0.7511191964149475,0.0,0.0601847842335701,99
1656403475.15995097,107284578,0,23.63837242126465,23.704126358032227,1.0925242900848389,31.837696075439453,0.7518365383148193,0.0,0.0601847842335701,99
1656403475.25998497,107384612,0,23.676860809326172,23.747943878173828,1.1784532070159912,31.870445251464844,0.7526119351387024,0.0,0.06031884625554085,99
1656403475.35993695,107484564,0,23.693326950073242,23.766855239868164,1.212211012840271,31.904104232788086,0.7534094452857971,0.0,0.06065596640110016,99
1656403475.45997882,107584606,0,23.692752838134766,23.771379470825195,1.2892401218414307,31.93993377685547,0.7542583346366882,0.0,0.060986366122961044,99
1656403475.55995393,107684581,0,23.6146297454834,23.79645538330078,3.0111935138702393,32.02355194091797,0.7562329173088074,0.0,0.06038312241435051,99
1656403475.66001678,107784644,0,23.326234817504883,23.798145294189453,7.889430522918701,32.242897033691406,0.7613493800163269,0.0,0.05981547012925148,99
1656403475.75994682,107884574,0,23.43646240234375,23.768526077270508,5.558985233306885,32.397216796875,0.7649661302566528,0.0,0.0597345270216465,99
1656403475.86000299,107984630,0,23.52703094482422,23.789613723754883,4.421041011810303,32.520103454589844,0.7678572535514832,0.0,0.059393830597400665,99
1656403475.95993400,108084561,0,23.549240112304688,23.796287536621094,4.186270713806152,32.636314392089844,0.7705939412117004,0.0,0.05901350826025009,99
1656403476.05998278,108184610,0,23.540241241455078,23.777202606201172,4.021164894104004,32.748077392578125,0.7732248902320862,0.0,0.05892845615744591,99
1656403476.15996981,108284597,0,23.50271224975586,23.734172821044922,3.8962607383728027,32.85630416870117,0.7757684588432312,0.0,0.05940569192171097,99
1656403476.25990677,108384534,0,23.541677474975586,23.776674270629883,3.964390277862549,32.966365814208984,0.7783594727516174,0.0,0.05927712842822075,99
1656403476.35998487,108484612,0,23.547325134277344,23.781057357788086,3.9542629718780518,33.07630157470703,0.7809481620788574,0.0,0.059108857065439224,99
1656403476.45995688,108584584,0,23.564834594726562,23.800230026245117,3.9823944568634033,33.1869010925293,0.7835544347763062,0.0,0.059108857065439224,99
1656403476.55999398,108684621,0,23.52243423461914,23.753538131713867,3.8919641971588135,33.29505920410156,0.7860985994338989,0.0,0.059379953891038895,99
1656403476.65994287,108784570,0,23.51410484313965,23.747024536132812,3.9014782905578613,33.403385162353516,0.7886458039283752,0.0,0.05970028042793274,99
1656403476.76007390,108884701,0,23.528751373291016,23.763673782348633,3.9306328296661377,33.51272201538086,0.7912183403968811,0.0,0.059766948223114014,99
1656403476.85999584,108984623,0,23.550390243530273,23.787860870361328,3.973289966583252,33.62301254272461,0.7938157320022583,0.0,0.059766948223114014,99
1656403476.95992494,109084552,0,23.55594253540039,23.792570114135742,3.9591734409332275,33.73291778564453,0.7964046597480774,0.0,0.059766948223114014,99
1656403477.05996299,109184590,0,23.55910301208496,23.796390533447266,3.9702212810516357,33.84325408935547,0.799004077911377,0.0,0.059766948223114014,99
1656403477.15991688,109284544,0,23.504627227783203,23.734853744506836,3.8520689010620117,33.950199127197266,0.8015177845954895,0.0,0.059766948223114014,99
1656403477.25996089,109384588,0,23.49859619140625,23.728548049926758,3.847465753555298,34.057132720947266,0.8040305376052856,0.0,0.059766948223114014,99
1656403477.35993886,109484566,0,23.55185890197754,23.789140701293945,3.970118761062622,34.16741180419922,0.8066278100013733,0.0,0.059766948223114014,99
1656403477.45996189,109584589,0,23.55182647705078,23.790912628173828,4.000296115875244,34.278568267822266,0.8092457056045532,0.0,0.059766948223114014,99
1656403477.55993485,109684562,0,23.552400588989258,23.7911376953125,3.9944653511047363,34.389503479003906,0.8118585348129272,0.0,0.059766948223114014,99
1656403477.66004395,109784671,0,23.502424240112305,23.733055114746094,3.858820676803589,34.49681854248047,0.8143806457519531,0.0,0.059766948223114014,99
1656403477.75997686,109884604,0,23.51563835144043,23.750688552856445,3.9180500507354736,34.6055908203125,0.8169384598731995,0.0,0.05999171361327171,99
1656403477.85998583,109984613,0,23.5369873046875,23.773786544799805,3.94720458984375,34.71525573730469,0.819519579410553,0.0,0.05999171361327171,99
1656403477.95996594,110084593,0,23.55086898803711,23.788681030273438,3.964083433151245,34.82535171508789,0.8221124410629272,0.0,0.05999171361327171,99
1656403478.05996394,110184591,0,23.511615753173828,23.743701934814453,3.8686411380767822,34.932823181152344,0.8246392607688904,0.0,0.05999171361327171,99
1656403478.15998578,110284613,0,23.496437072753906,23.727205276489258,3.846681594848633,35.03970718383789,0.8271507024765015,0.0,0.05999171361327171,99
1656403478.25988388,110384511,0,23.535551071166992,23.772737503051758,3.9536495208740234,35.1494140625,0.8297327756881714,0.0,0.05999171361327171,99
1656403478.35992599,110484553,0,23.543785095214844,23.78308868408203,3.9889419078826904,35.260284423828125,0.8323431015014648,0.0,0.05999171361327171,99
1656403478.45993996,110584567,0,23.550580978393555,23.78931427001953,3.9794278144836426,35.370849609375,0.8349469304084778,0.0,0.05999171361327171,99
1656403478.55998492,110684612,0,23.55144500732422,23.790546417236328,3.985565662384033,35.48161697387695,0.8375557065010071,0.0,0.05999171361327171,99
1656403478.65989280,110784520,0,23.49773406982422,23.729047775268555,3.8557519912719727,35.58863067626953,0.8400703072547913,0.0,0.05999171361327171,99
1656403478.75993395,110884561,0,23.535741806030273,23.772192001342773,3.941373825073242,35.69816589355469,0.8426483273506165,0.0,0.05999171361327171,99
1656403478.86002398,110984651,0,23.516403198242188,23.751710891723633,3.922346591949463,35.807228088378906,0.8452130556106567,0.0,0.05999171361327171,99
1656403478.95990586,111084533,0,23.548763275146484,23.7873477935791,3.976973056793213,35.917579650878906,0.8478116393089294,0.0,0.05999171361327171,99
1656403479.05996680,111184594,0,23.539730072021484,23.775779724121094,3.928859233856201,36.026790618896484,0.850382387638092,0.0,0.060081157833337784,99
1656403479.15996790,111284595,0,23.502042770385742,23.733867645263672,3.8585140705108643,36.13398361206055,0.8529016375541687,0.0,0.060081157833337784,99
1656403479.26002979,111384657,0,23.53057098388672,23.767318725585938,3.940452814102173,36.2435188293457,0.8554790019989014,0.0,0.060081157833337784,99
1656403479.35995197,111484579,0,23.540433883666992,23.77823257446289,3.9579455852508545,36.35337448120117,0.8580650091171265,0.0,0.060081157833337784,99
1656403479.45998192,111584609,0,23.541486740112305,23.78107261657715,3.9877140522003174,36.46419906616211,0.8606739640235901,0.0,0.060081157833337784,99
1656403479.55996799,111684595,0,23.50366973876953,23.7377986907959,3.8968751430511475,36.57243728637695,0.8632179498672485,0.0,0.060081157833337784,99
1656403479.65999484,111784622,0,23.502424240112305,23.735244750976562,3.8750855922698975,36.680118560791016,0.8657487034797668,0.0,0.060081157833337784,99
1656403479.75998187,111884609,0,23.523679733276367,23.760150909423828,3.935849666595459,36.78944396972656,0.8683204054832458,0.0,0.060081157833337784,99
1656403479.85999680,111984624,0,23.5467529296875,23.784900665283203,3.9637763500213623,36.899574279785156,0.8709136247634888,0.0,0.060081157833337784,99
1656403479.95998192,112084609,0,23.545900344848633,23.783138275146484,3.948636770248413,37.00925064086914,0.8734959959983826,0.0,0.060081157833337784,99
1656403480.05997491,112184602,0,23.4872989654541,23.71755599975586,3.832428216934204,37.1157112121582,0.875996470451355,0.0,0.060081157833337784,99
1656403480.15996885,112284596,0,23.504148483276367,23.73672866821289,3.87109637260437,37.223243713378906,0.8785239458084106,0.0,0.060081157833337784,99
1656403480.25991488,112384542,0,23.532678604125977,23.771011352539062,3.9668455123901367,37.3333740234375,0.8811156153678894,0.0,0.060081157833337784,99
1656403480.36001992,112484647,0,23.54119873046875,23.779273986816406,3.9625489711761475,37.44357681274414,0.8837099075317383,0.0,0.060081157833337784,99
1656403480.45994878,112584576,0,23.534879684448242,23.772031784057617,3.94720458984375,37.55315399169922,0.8862887620925903,0.0,0.060081157833337784,99
1656403480.55996680,112684594,0,23.52482795715332,23.761627197265625,3.9401464462280273,37.66263198852539,0.8888641595840454,0.0,0.06009918078780174,99
1656403480.65999794,112784625,0,23.48567008972168,23.71796989440918,3.865265369415283,37.770023345947266,0.8913863897323608,0.0,0.06009918078780174,99
1656403480.75997281,112884600,0,23.541006088256836,23.779155731201172,3.9626171588897705,37.880096435546875,0.8939775824546814,0.0,0.06009918078780174,99
1656403480.86005878,112984686,0,23.521381378173828,23.758798599243164,3.9499664306640625,37.98992156982422,0.8965608477592468,0.0,0.06010613963007927,99
1656403480.95997977,113084607,0,23.546178817749023,23.787063598632812,4.007661819458008,38.101165771484375,0.8991802334785461,0.0,0.06010613963007927,99
1656403481.05996799,113184595,0,23.503002166748047,23.737966537475586,3.9091506004333496,38.209747314453125,0.9017322659492493,0.0,0.06010613963007927,99
1656403481.15997481,113284602,0,23.49534034729004,23.730377197265625,3.9103779792785645,38.31838607788086,0.9042847752571106,0.0,0.06010613963007927,99
1656403481.25999188,113384619,0,23.470735549926758,23.77684783935547,5.117372035980225,38.46056365966797,0.9076218008995056,0.0,0.05981816351413727,99
1656403481.35989690,113484524,0,23.46499252319336,23.79026985168457,5.47704553604126,38.612579345703125,0.9111887812614441,0.0,0.05938924849033356,99
1656403481.45997787,113584605,0,23.377296447753906,23.822233200073242,7.5964202880859375,38.82378005981445,0.9161260724067688,0.0,0.058571990579366684,99
1656403481.56003690,113684664,0,23.001907348632812,23.89438247680664,15.475790023803711,39.25394821166992,0.9260207414627075,0.0,0.057669054716825485,99
1656403481.65997195,113784599,0,22.88701057434082,23.87946128845215,17.389686584472656,39.736724853515625,0.9370700716972351,0.0,0.057071227580308914,99
1656403481.76000190,113884629,0,22.936613082885742,23.814054489135742,15.401525497436523,40.16470718383789,0.9468865394592285,0.0,0.05697103962302208,99
1656403481.85992980,113984557,0,22.96581268310547,23.793567657470703,14.518912315368652,40.5677375793457,0.9561424255371094,0.0,0.05701213330030441,99
1656403481.96004200,114084669,0,23.010332107543945,23.835506439208984,14.531495094299316,40.97188949584961,0.9654421210289001,0.0,0.056785278022289276,99
1656403482.05998182,114184609,0,22.95049476623535,23.82777976989746,15.491134643554688,41.401973724365234,0.9753127694129944,0.0,0.0566314272582531,99
1656403482.15996695,114284594,0,22.95346450805664,23.768657684326172,14.335392951965332,41.800148010253906,0.9844522476196289,0.0,0.05686575919389725,99
1656403482.25996184,114384589,0,22.826229095458984,23.865663528442383,18.402896881103516,42.31135559082031,0.9961211681365967,0.0,0.05648215115070343,99
1656403482.35999298,114484620,0,23.116121292114258,23.771987915039062,11.650728225708008,42.63511657714844,1.0036052465438843,0.0,0.056294020265340805,99
1656403482.46003294,114584660,0,22.941688537597656,23.824783325195312,15.727372169494629,43.07219314575195,1.0136325359344482,0.0,0.05615023896098137,99
1656403482.56000280,114684630,0,22.819143295288086,23.80836296081543,17.627389907836914,43.56174087524414,1.0248035192489624,0.0,0.05611836910247803,99
1656403482.66003585,114784663,0,22.72464942932129,23.79593849182129,19.074678421020508,44.09181213378906,1.0368491411209106,0.0,0.05616291984915733,99
1656403482.75997186,114884599,0,22.664621353149414,23.88007354736328,21.794326782226562,44.69686508178711,1.0505623817443848,0.0,0.055769164115190506,99
1656403482.85999894,114984626,0,22.599903106689453,23.86588478088379,22.810129165649414,45.33070755004883,1.0648871660232544,0.0,0.055500827729701996,99
1656403482.95997977,115084607,0,22.712778091430664,23.832530975341797,20.203720092773438,45.89186096191406,1.0776325464248657,0.0,0.05542312562465668,99
1656403483.06012583,115184753,0,22.70818328857422,23.830102920532227,20.264179229736328,46.45561599731445,1.0904344320297241,0.0,0.05536466836929321,99
1656403483.16001391,115284641,0,22.62958335876465,23.792987823486328,20.965726852416992,47.03739929199219,1.1035999059677124,0.0,0.05549080669879913,99
1656403483.25997782,115384605,0,22.608041763305664,23.77428436279297,20.93964195251465,47.618892669677734,1.1167463064193726,0.0,0.055695414543151855,99
1656403483.36002898,115484656,0,22.62447738647461,23.819774627685547,21.47437858581543,48.21574783325195,1.1302498579025269,0.0,0.05566156655550003,99
1656403483.45998979,115584617,0,22.69525718688965,23.81273651123047,20.07513427734375,48.773223876953125,1.14290189743042,0.0,0.05566481128334999,99
1656403483.55997682,115684604,0,22.717565536499023,23.788494110107422,19.238862991333008,49.30760955810547,1.1550418138504028,0.0,0.05566481128334999,99
1656403483.65997982,115784607,0,22.70425796508789,23.787912368774414,19.46749496459961,49.848426818847656,1.167320728302002,0.0,0.05566481128334999,99
1656403483.76001000,115884637,0,22.65542984008789,23.74941635131836,19.558334350585938,50.39192199707031,1.1796338558197021,0.0,0.05593450739979744,99
1656403483.85999393,115984621,0,22.714500427246094,23.79786491394043,19.372360229492188,50.93000411987305,1.1918561458587646,0.0,0.05592319741845131,99
1656403483.96003699,116084664,0,22.7336483001709,23.77937126159668,18.727279663085938,51.450469970703125,1.2036882638931274,0.0,0.05583956465125084,99
1656403484.06000590,116184633,0,22.71143913269043,23.72863006591797,18.21630859375,51.956363677978516,1.2151777744293213,0.0,0.05583956465125084,99
1656403484.15998483,116284612,0,22.71074676513672,23.729570388793945,18.24556541442871,52.46311950683594,1.2266865968704224,0.0,0.05583956465125084,99
1656403484.26000690,116384634,0,22.769264221191406,23.78908920288086,18.244850158691406,52.97006607055664,1.2382293939590454,0.0,0.05589663237333298,99
1656403484.35998178,116484609,0,22.74360466003418,23.77459716796875,18.44954490661621,53.48247146606445,1.2498832941055298,0.0,0.055881697684526443,99
1656403484.45996499,116584592,0,22.775392532348633,23.77416229248047,17.877195358276367,53.97900390625,1.2611920833587646,0.0,0.05586841329932213,99
1656403484.55997682,116684604,0,22.832643508911133,23.75987434387207,16.617111206054688,54.44068908691406,1.2717335224151611,0.0,0.05579974129796028,99
1656403484.66000199,116784629,0,22.772613525390625,23.71894645690918,17.02650260925293,54.9138069152832,1.2825076580047607,0.0,0.05558000132441521,99
1656403484.76001883,116884646,0,22.718523025512695,23.687456130981445,17.433130264282227,55.3981819152832,1.293511986732483,0.0,0.05558000132441521,99
1656403484.85996795,116984595,0,22.750595092773438,23.72211265563965,17.513229370117188,55.88445281982422,1.3045748472213745,0.0,0.05547333508729935,99
1656403484.95997095,117084598,0,22.743032455444336,23.742725372314453,18.02174186706543,56.38507080078125,1.31596040725708,0.0,0.05547153204679489,99
1656403485.06000495,117184632,0,22.641069412231445,23.76392364501953,20.279897689819336,56.94868469238281,1.3287211656570435,0.0,0.055367887020111084,99
1656403485.16009593,117284723,0,22.735660552978516,23.7348575592041,18.05918312072754,57.45082473754883,1.3401377201080322,0.0,0.055329013615846634,99
1656403485.25995183,117384579,0,22.801816940307617,23.65227699279785,15.474257469177246,57.88008117675781,1.3499255180358887,0.0,0.054959673434495926,99
1656403485.35999680,117484624,0,22.764476776123047,23.74163246154785,17.75321388244629,58.37348556518555,1.3611576557159424,0.0,0.05504107102751732,99
1656403485.46002793,117584655,0,22.718618392944336,23.720800399780273,18.19942855834961,58.87922286987305,1.3726472854614258,0.0,0.055066630244255066,99
1656403485.56002998,117684657,0,22.688365936279297,23.669557571411133,17.818275451660156,59.37421798706055,1.3838779926300049,0.0,0.055066630244255066,99
1656403485.65999699,117784624,0,22.686738967895508,23.669620513916016,17.84896469116211,59.86989974975586,1.3951233625411987,0.0,0.055066630244255066,99
1656403485.76000190,117884629,0,22.708471298217773,23.727697372436523,18.539772033691406,60.38496017456055,1.4068195819854736,0.0,0.054975129663944244,99
1656403485.85999393,117984621,0,22.670461654663086,23.720989227294922,19.126848220825195,60.91626739501953,1.4188646078109741,0.0,0.05492424964904785,99
1656403485.95990586,118084533,0,22.666494369506836,23.733917236328125,19.472780227661133,61.45674514770508,1.4311153888702393,0.0,0.05481616035103798,99
1656403486.05996990,118184597,0,22.699281692504883,23.726152420043945,18.753671646118164,61.978050231933594,1.4429486989974976,0.0,0.05475568398833275,99
1656403486.15996099,118284588,0,22.697843551635742,23.69920539855957,18.287813186645508,62.48603820800781,1.4544789791107178,0.0,0.05475568398833275,99
1656403486.26002192,118384649,0,22.626420974731445,23.66655158996582,18.920618057250977,63.01197814941406,1.466379165649414,0.0,0.05497341975569725,99
1656403486.35995197,118484579,0,22.665294647216797,23.692161560058594,18.653932571411133,63.529823303222656,1.4781162738800049,0.0,0.05504831671714783,99
1656403486.45996881,118584596,0,22.71976661682129,23.71288299560547,18.032175064086914,64.03084564208984,1.4894993305206299,0.0,0.055074699223041534,99
1656403486.55993986,118684567,0,22.685588836669922,23.689573287963867,18.22950553894043,64.53705596923828,1.5009831190109253,0.0,0.055074699223041534,99
1656403486.66004491,118784672,0,22.61771011352539,23.646961212158203,18.595012664794922,65.05420684814453,1.5126798152923584,0.0,0.05535091459751129,99
1656403486.75998092,118884608,0,22.65782356262207,23.707210540771484,18.9715633392334,65.58091735839844,1.5246139764785767,0.0,0.055313680320978165,99
1656403486.85996294,118984590,0,22.646602630615234,23.71610450744629,19.36195945739746,66.11869049072266,1.5367927551269531,0.0,0.05523724853992462,99
