timestamp,TimeUS,Instance,Volt,VoltR,Curr,CurrTot,EnrgTot,Temp,Res,RemPct
1656400695.41934896,90074169,0,24.98692512512207,25.000015258789062,0.17536506056785583,5.679706573486328,0.14193397760391235,0.0,0.0746474638581276,99
1656400695.51935101,90174171,0,24.95429039001465,24.96297264099121,0.11631087958812714,5.682938098907471,0.14201462268829346,0.0,0.0746474638581276,99
1656400695.61932397,90274144,0,25.00091552734375,25.015302658081055,0.19272620975971222,5.688290596008301,0.1421484351158142,0.0,0.0746474638581276,99
1656400695.71934009,90374160,0,24.963674545288086,24.97322654724121,0.12797266244888306,5.6918463706970215,0.14223720133304596,0.0,0.0746474638581276,99
1656400695.81937313,90474193,0,24.957185745239258,24.966527938842773,0.12514245510101318,5.695323944091797,0.14232398569583893,0.0,0.0746474638581276,99
1656400695.91934204,90574162,0,24.985692977905273,24.99881935119629,0.17584732174873352,5.700207710266113,0.14244601130485535,0.0,0.0746474638581276,99
1656400696.01937103,90674191,0,24.996511459350586,25.01018714904785,0.18321265280246735,5.705298900604248,0.1425732672214508,0.0,0.0746474638581276,99
1656400696.11930513,90774125,0,24.995363235473633,25.009521484375,0.1896573156118393,5.710564136505127,0.14270487427711487,0.0,0.0746474638581276,99
1656400696.21936893,90874189,0,24.99900245666504,25.01343536376953,0.1933399885892868,5.715938568115234,0.1428392231464386,0.0,0.0746474638581276,99
1656400696.31931615,90974136,0,24.975353240966797,24.986623764038086,0.1509893238544464,5.720130920410156,0.14294393360614777,0.0,0.0746474638581276,99
1656400696.41933894,91074159,0,24.956588745117188,24.965431213378906,0.11845909804105759,5.723422527313232,0.14302608370780945,0.0,0.0746474638581276,99
1656400696.51929212,91174112,0,24.96319580078125,24.97283935546875,0.12920020520687103,5.727008819580078,0.14311560988426208,0.0,0.0746474638581276,99
1656400696.61935496,91274175,0,24.998329162597656,25.012876510620117,0.19487443566322327,5.732428073883057,0.14325107634067535,0.0,0.0746474638581276,99
1656400696.71936607,91374186,0,24.998991012573242,25.0136775970459,0.19674988090991974,5.737894058227539,0.14338771998882294,0.0,0.0746474638581276,99
1656400696.81934214,91474162,0,24.99373435974121,25.007732391357422,0.18750908970832825,5.743102073669434,0.1435178816318512,0.0,0.0746474638581276,99
1656400696.91938305,91574203,0,24.940601348876953,24.947656631469727,0.09452176839113235,5.745728969573975,0.14358340203762054,0.0,0.0746474638581276,99
1656400697.01932096,91674141,0,24.98674774169922,24.999507904052734,0.17093710601329803,5.750474452972412,0.14370198547840118,0.0,0.0746474638581276,99
1656400697.11933994,91774160,0,24.984928131103516,24.99773406982422,0.17155088484287262,5.7552409172058105,0.14382107555866241,0.0,0.0746474638581276,99
1656400697.21935415,91874174,0,24.962907791137695,24.972644805908203,0.1304277777671814,5.758864879608154,0.14391154050827026,0.0,0.0746474638581276,99
1656400697.31935310,91974173,0,24.94692039489746,24.954687118530273,0.10403533279895782,5.761754989624023,0.1439836323261261,0.0,0.0746474638581276,99
1656400697.41933703,92074157,0,24.99689483642578,25.01112174987793,0.19057798385620117,5.767048358917236,0.14411595463752747,0.0,0.0746474638581276,99
1656400697.51935196,92174172,0,24.98617172241211,24.999160766601562,0.17400598526000977,5.771883010864258,0.144236758351326,0.0,0.0746474638581276,99
1656400697.61935401,92274174,0,24.98590660095215,25.031265258789062,0.6076399087905884,5.788763523101807,0.14465853571891785,0.0,0.0746474638581276,99
1656400697.71934414,92374164,0,24.82179069519043,25.083864212036133,3.9877140522003174,5.899531364440918,0.14740799367427826,0.0,0.06572014093399048,99
1656400697.81934905,92474169,0,24.84323501586914,24.988954544067383,2.1988587379455566,5.960618019104004,0.14892558753490448,0.0,0.06627041846513748,99
1656400697.91935802,92574178,0,24.893592834472656,24.998130798339844,1.5721917152404785,6.004297733306885,0.15001294016838074,0.0,0.06649218499660492,99
1656400698.01934600,92674166,0,24.924707412719727,25.020376205444336,1.447287917137146,6.044498443603516,0.15101493895053864,0.0,0.0661027580499649,99
1656400698.11928701,92774107,0,24.938879013061523,25.027812957763672,1.3454008102416992,6.081847190856934,0.15194638073444366,0.0,0.0661027580499649,99
1656400698.21936393,92874184,0,24.92643165588379,25.008544921875,1.241058588027954,6.116353988647461,0.15280652046203613,0.0,0.06616397202014923,99
1656400698.31930709,92974127,0,24.899816513061523,24.97606086730957,1.1523677110671997,6.148348808288574,0.1536031812429428,0.0,0.06616397202014923,99
1656400698.41935015,93074170,0,24.926761627197266,25.00535774230957,1.1876598596572876,6.181355953216553,0.1544259488582611,0.0,0.0661768913269043,99
1656400698.51937199,93174192,0,24.935239791870117,25.013954162597656,1.185511589050293,6.214296817779541,0.15524733066558838,0.0,0.06639666855335236,99
1656400698.61935306,93274173,0,24.951229095458984,25.031797409057617,1.2134385108947754,6.24799919128418,0.15608824789524078,0.0,0.06639666855335236,99
1656400698.71935201,93374172,0,24.91427230834961,24.98982810974121,1.1379438638687134,6.279611110687256,0.1568758338689804,0.0,0.06639666855335236,99
1656400698.81933403,93474154,0,24.88689422607422,24.95882225036621,1.083317756652832,6.3097004890441895,0.15762466192245483,0.0,0.06639666855335236,99
1656400698.91939211,93574212,0,24.939451217651367,25.019224166870117,1.201469898223877,6.34309720993042,0.15845754742622375,0.0,0.06639666855335236,99
1656400699.01924992,93674070,0,24.922794342041016,25.000530242919922,1.1707810163497925,6.375575542449951,0.15926699340343475,0.0,0.06639666855335236,99
1656400699.11936307,93774183,0,24.94375991821289,25.024633407592773,1.2180418968200684,6.409451007843018,0.16011197865009308,0.0,0.06639666855335236,99
1656400699.21933007,93874150,0,24.95036506652832,25.032073974609375,1.2306243181228638,6.443626403808594,0.16096466779708862,0.0,0.06639666855335236,99
1656400699.31931615,93974136,0,24.893573760986328,24.966861724853516,1.1037769317626953,6.474284648895264,0.16172786056995392,0.0,0.06639666855335236,99
1656400699.41936302,94074183,0,24.904794692993164,24.980310440063477,1.137330174446106,6.505894660949707,0.16251510381698608,0.0,0.06639666855335236,99
1656400699.51931310,94174133,0,24.937345504760742,25.017160415649414,1.202083706855774,6.53926944732666,0.16334737837314606,0.0,0.06639666855335236,99
1656400699.61935806,94274178,0,24.944143295288086,25.02536392211914,1.2232590913772583,6.573268890380859,0.1641954630613327,0.0,0.06639666855335236,99
1656400699.71929502,94374115,0,24.930931091308594,25.009868621826172,1.188887357711792,6.60627555847168,0.16501834988594055,0.0,0.06639666855335236,99
1656400699.81935596,94474176,0,24.89369010925293,24.967453002929688,1.1109377145767212,6.637156009674072,0.16578708589076996,0.0,0.06639666855335236,99
1656400699.91927814,94574098,0,24.931793212890625,25.010894775390625,1.1913427114486694,6.670225620269775,0.16661156713962555,0.0,0.06639666855335236,99
1656400700.01936007,94674180,0,24.92987823486328,25.00857162475586,1.1852047443389893,6.703177452087402,0.16743305325508118,0.0,0.06639666855335236,99
1656400700.11935115,94774171,0,24.944910049438477,25.02625274658203,1.2251003980636597,6.737207412719727,0.1682819277048111,0.0,0.06639666855335236,99
1656400700.21934414,94874164,0,24.907188415527344,24.98296546936035,1.1412855386734009,6.7689104080200195,0.16907155513763428,0.0,0.06639666855335236,99
1656400700.31932306,94974143,0,24.894454956054688,24.968196868896484,1.1106308698654175,6.799757480621338,0.16983947157859802,0.0,0.06639666855335236,99
1656400700.41932297,95074143,0,24.9345703125,25.0145263671875,1.204231858253479,6.8332109451293945,0.17067360877990723,0.0,0.06639666855335236,99
1656400700.51934695,95174167,0,24.933610916137695,25.013486862182617,1.2030043601989746,6.866638660430908,0.1715070903301239,0.0,0.06639666855335236,99
1656400700.61935210,95274172,0,24.9456729888916,25.026588439941406,1.2186557054519653,6.90049409866333,0.1723516434431076,0.0,0.06639666855335236,99
1656400700.71934915,95374169,0,24.94443130493164,25.025957107543945,1.2278623580932617,6.934603214263916,0.17320246994495392,0.0,0.06639666855335236,99
1656400700.81934214,95474162,0,24.88583755493164,24.958805084228516,1.0989689826965332,6.965130805969238,0.17396217584609985,0.0,0.06639666855335236,99
1656400700.91933513,95574155,0,24.92145347595215,24.999780654907227,1.1790670156478882,6.997882843017578,0.17477840185165405,0.0,0.06643187999725342,99
1656400701.01930904,95674129,0,24.930261611938477,25.00960922241211,1.1944115161895752,7.031054973602295,0.1756053864955902,0.0,0.06643187999725342,99
1656400701.11933613,95774156,0,24.943674087524414,25.025087356567383,1.2255096435546875,7.065093040466309,0.17645442485809326,0.0,0.06643187999725342,99
1656400701.21932006,95874140,0,24.92738914489746,25.006059646606445,1.1842840909957886,7.0980024337768555,0.17727476358413696,0.0,0.06642904877662659,99
1656400701.31933498,95974155,0,24.8928279876709,24.96648406982422,1.1087894439697266,7.128808975219727,0.17804162204265594,0.0,0.06642904877662659,99
1656400701.41935396,96074174,0,24.922985076904297,25.001432418823242,1.1809083223342896,7.161617755889893,0.17885932326316833,0.0,0.06642904877662659,99
1656400701.51933908,96174159,0,24.9274845123291,25.006399154663086,1.1879668235778809,7.194617748260498,0.1796819269657135,0.0,0.06642904877662659,99
1656400701.61937714,96274197,0,24.944143295288086,25.02587127685547,1.23031747341156,7.228808879852295,0.18053479492664337,0.0,0.06642904877662659,99
1656400701.71933007,96374150,0,24.900774002075195,24.97593879699707,1.1314992904663086,7.260227203369141,0.18131713569164276,0.0,0.06642904877662659,99
1656400701.81936598,96474186,0,24.893497467041016,24.967784881591797,1.1183030605316162,7.291305065155029,0.18209077417850494,0.0,0.06642904877662659,99
1656400701.91933393,96574154,0,24.94186782836914,25.023412704467773,1.227555513381958,7.325395107269287,0.18294104933738708,0.0,0.06642904877662659,99
1656400702.01932812,96674148,0,24.93954849243164,25.02007484436035,1.212211012840271,7.359068870544434,0.18378084897994995,0.0,0.06642904877662659,99
1656400702.11935592,96774176,0,24.937345504760742,25.01764678955078,1.208835244178772,7.392659664154053,0.1846185177564621,0.0,0.06642904877662659,99
1656400702.21933508,96874155,0,24.936485290527344,25.016929626464844,1.2109835147857666,7.426293849945068,0.1854572296142578,0.0,0.06642904877662659,99
1656400702.31935096,96974171,0,24.891010284423828,24.964767456054688,1.1103239059448242,7.457143783569336,0.18622511625289917,0.0,0.06642904877662659,99
1656400702.41931605,97074136,0,24.90843391418457,24.98504638671875,1.1532882452011108,7.489165306091309,0.18702273070812225,0.0,0.06642904877662659,99
1656400702.51933408,97174154,0,24.923368453979492,25.01331329345703,1.3539936542510986,7.526792526245117,0.18796052038669586,0.0,0.06642904877662659,99
1656400702.61935997,97274180,0,24.85529899597168,25.0565242767334,3.1004981994628906,7.612946033477783,0.19010189175605774,0.0,0.06490104645490646,99
1656400702.71936512,97374185,0,24.640846252441406,25.08279800415039,7.102635383605957,7.810266971588135,0.19496405124664307,0.0,0.062223516404628754,99
1656400702.81928706,97474107,0,24.728689193725586,24.99175262451172,4.201990604400635,7.926908493041992,0.19784843921661377,0.0,0.06260450184345245,99
1656400702.91936111,97574181,0,24.802547454833984,25.03962516784668,3.8103320598602295,8.032837867736816,0.2004757523536682,0.0,0.062219519168138504,99
1656400703.01935792,97674178,0,24.803407669067383,25.0296688079834,3.647374391555786,8.134159088134766,0.202988862991333,0.0,0.06203417107462883,99
1656400703.11933303,97774153,0,24.820354461669922,25.044775009155273,3.640315532684326,8.235260963439941,0.20549824833869934,0.0,0.061648882925510406,99
1656400703.21939492,97874215,0,24.777559280395508,24.995805740356445,3.517867088317871,8.333048820495605,0.20792119204998016,0.0,0.062039345502853394,99
1656400703.31932902,97974149,0,24.79230308532715,25.011682510375977,3.5301427841186523,8.431051254272461,0.210350900888443,0.0,0.06214470416307449,99
1656400703.41936707,98074187,0,24.79555892944336,25.015592575073242,3.5387356281280518,8.52939510345459,0.212789386510849,0.0,0.062178757041692734,99
1656400703.51933312,98174153,0,24.80704689025879,25.02854347229004,3.571572780609131,8.628579139709473,0.21524983644485474,0.0,0.062016550451517105,99
1656400703.61936903,98274189,0,24.823259353637695,25.046401977539062,3.5981016159057617,8.728570938110352,0.21773196756839752,0.0,0.062016550451517105,99
1656400703.71933508,98374155,0,24.81853485107422,25.039936065673828,3.570038318634033,8.827713012695312,0.22019252181053162,0.0,0.062016550451517105,99
1656400703.81935811,98474178,0,24.757549285888672,24.973289489746094,3.4353139400482178,8.923168182373047,0.2225557565689087,0.0,0.0628005638718605,99
1656400703.91936207,98574182,0,24.796707153320312,25.018356323242188,3.528301239013672,9.021187782287598,0.22498631477355957,0.0,0.06282025575637817,99
1656400704.01930499,98674125,0,24.806472778320312,25.029239654541016,3.5461008548736572,9.119643211364746,0.2274286448955536,0.0,0.06282025575637817,99
1656400704.11935401,98774174,0,24.817291259765625,25.042564392089844,3.585996627807617,9.219310760498047,0.22990213334560394,0.0,0.06282025575637817,99
1656400704.21932602,98874146,0,24.792112350463867,25.01351547241211,3.5151052474975586,9.316932678222656,0.23232239484786987,0.0,0.0629861056804657,99
1656400704.31936002,98974180,0,24.76405906677246,24.981672286987305,3.4549551010131836,9.412940979003906,0.23469994962215424,0.0,0.0629861056804657,99
1656400704.41932297,99074143,0,24.801971435546875,25.024070739746094,3.526153087615967,9.510851860046387,0.23712831735610962,0.0,0.0629861056804657,99
1656400704.51937413,99174194,0,24.819854736328125,25.044960021972656,3.5738914012908936,9.610198020935059,0.23959407210350037,0.0,0.0629861056804657,99
1656400704.61935401,99274174,0,24.799291610717773,25.021799087524414,3.5322909355163574,9.708305358886719,0.24202707409858704,0.0,0.06299231201410294,99
1656400704.71936893,99374189,0,24.77526092529297,24.994211196899414,3.475823163986206,9.804878234863281,0.24441969394683838,0.0,0.06299231201410294,99
1656400704.81937695,99474197,0,24.76205062866211,24.978641510009766,3.438382863998413,9.90040397644043,0.24678510427474976,0.0,0.06299231201410294,99
1656400704.91936398,99574184,0,24.81288719177246,25.038158416748047,3.5761759281158447,9.999736785888672,0.24924984574317932,0.0,0.06299231201410294,99
1656400705.01937199,99674192,0,24.79977035522461,25.021272659301758,3.5163328647613525,10.097428321838379,0.25167256593704224,0.0,0.06299231201410294,99
1656400705.11933708,99774157,0,24.812599182128906,25.035919189453125,3.545179843902588,10.195878028869629,0.25411534309387207,0.0,0.06299231201410294,99
1656400705.21938014,99874200,0,24.812503814697266,25.036518096923828,3.5562283992767334,10.294713973999023,0.25656768679618835,0.0,0.06299231201410294,99
1656400705.31933093,99974151,0,24.74826431274414,24.963361740112305,3.4146499633789062,10.3895263671875,0.25891414284706116,0.0,0.06299231201410294,99
1656400705.41935110,100074171,0,24.7734432220459,24.99256706237793,3.4785854816436768,10.486181259155273,0.26130861043930054,0.0,0.06299231201410294,99
1656400705.51929498,100174115,0,24.800825119018555,25.024375915527344,3.548862934112549,10.584712028503418,0.2637522518634796,0.0,0.06299231201410294,99
1656400705.61938000,100274200,0,24.81221580505371,25.03630828857422,3.5574557781219482,10.68359375,0.26620572805404663,0.0,0.06299231201410294,99
1656400705.71936512,100374185,0,24.79058074951172,25.012346267700195,3.5175600051879883,10.781326293945312,0.2686285674571991,0.0,0.06304517388343811,99
1656400705.81926894,100474089,0,24.753816604614258,24.970996856689453,3.4448275566101074,10.876932144165039,0.270995169878006,0.0,0.06304517388343811,99
1656400705.91937995,100574200,0,24.804079055786133,25.028379440307617,3.557762861251831,10.975875854492188,0.2734493613243103,0.0,0.06304517388343811,99
1656400706.01930594,100674126,0,24.80742835998535,25.036216735839844,3.6289608478546143,11.076613426208496,0.2759484052658081,0.0,0.06304517388343811,99
1656400706.11932898,100774149,0,24.792491912841797,25.01917266845703,3.598578691482544,11.176606178283691,0.27842748165130615,0.0,0.06299186497926712,99
1656400706.21934009,100874160,0,24.754220962524414,24.975975036621094,3.5203561782836914,11.274412155151367,0.28084859251976013,0.0,0.06299186497926712,99
1656400706.31939197,100974212,0,24.750083923339844,24.975324630737305,3.547328472137451,11.373007774353027,0.2832888662815094,0.0,0.06349604576826096,99
1656400706.41933203,101074152,0,24.794790267944336,25.02630615234375,3.646146774291992,11.474235534667969,0.2857987880706787,0.0,0.06349604576826096,99
1656400706.51935792,101174178,0,24.78742027282715,25.026086807250977,3.758774995803833,11.578682899475098,0.2883877456188202,0.0,0.06349604576826096,99
1656400706.61938405,101274204,0,24.792491912841797,25.033302307128906,3.7925329208374023,11.684066772460938,0.29100048542022705,0.0,0.06349604576826096,99
1656400706.71934700,101374167,0,24.789430618286133,25.034215927124023,3.855138063430786,11.791121482849121,0.29365432262420654,0.0,0.06349604576826096,99
1656400706.81935501,101474175,0,24.732177734375,24.970802307128906,3.716731071472168,11.894381523132324,0.2962081730365753,0.0,0.06420288234949112,99
1656400706.91935110,101574171,0,24.763198852539062,25.016510009765625,3.9490458965301514,12.004081726074219,0.29892468452453613,0.0,0.06414474546909332,99
1656400707.01935601,101674176,0,24.762624740600586,25.019359588623047,4.008275508880615,12.115398406982422,0.30168116092681885,0.0,0.0640510767698288,99
1656400707.11931300,101774133,0,24.780813217163086,25.038400650024414,4.021608352661133,12.2271089553833,0.3044494390487671,0.0,0.0640510767698288,99
1656400707.21936512,101874185,0,24.74941062927246,25.01555061340332,4.152819633483887,12.342535018920898,0.307306170463562,0.0,0.06408670544624329,99
1656400707.31927514,101974095,0,24.73935890197754,25.0008544921875,4.064436435699463,12.455343246459961,0.31009697914123535,0.0,0.06433752179145813,99
1656400707.41930699,102074127,0,24.719541549682617,25.004539489746094,4.418278694152832,12.57812213897705,0.31313201785087585,0.0,0.0645044669508934,99
1656400707.51937199,102174192,0,24.753719329833984,25.04775047302246,4.5941267013549805,12.705817222595215,0.316292941570282,0.0,0.06400168687105179,99
1656400707.61936498,102274185,0,24.744338989257812,25.028512954711914,4.450809478759766,12.829463005065918,0.31935247778892517,0.0,0.06384751200675964,99
1656400707.71935201,102374172,0,24.693883895874023,24.989328384399414,4.59473991394043,12.957088470458984,0.32250404357910156,0.0,0.06430070102214813,99
1656400707.81933093,102474151,0,24.69455337524414,24.992311477661133,4.605174541473389,13.084993362426758,0.32566261291503906,0.0,0.06465712189674377,99
1656400707.91939497,102574215,0,24.72710609436035,25.047971725463867,5.003209590911865,13.224071502685547,0.3291016221046448,0.0,0.06413187831640244,99
1656400708.01934910,102674169,0,24.68699073791504,25.037357330322266,5.489560127258301,13.376501083374023,0.3328646421432495,0.0,0.06382425129413605,99
1656400708.11933208,102774152,0,24.709394454956055,25.04414939880371,5.276033401489258,13.52304458618164,0.3364856243133545,0.0,0.06344827264547348,99
1656400708.21932197,102874142,0,24.718584060668945,25.044065475463867,5.156960487365723,13.666290283203125,0.34002646803855896,0.0,0.06311498582363129,99
1656400708.31936002,102974180,0,24.65865135192871,24.977497100830078,4.995537281036377,13.805120468139648,0.34344983100891113,0.0,0.0638263002038002,99
1656400708.41936493,103074185,0,24.693405151367188,25.018096923828125,5.085455417633057,13.946401596069336,0.3469385504722595,0.0,0.0638471469283104,99
1656400708.51927614,103174096,0,24.70106315612793,25.02583885192871,5.094662189483643,14.08780574798584,0.3504313826560974,0.0,0.06374837458133698,99
1656400708.61939192,103274212,0,24.70336151123047,25.042396545410156,5.346924781799316,14.2365140914917,0.3541049659252167,0.0,0.06340756267309189,99
1656400708.71930504,103374125,0,24.67397117614746,25.013530731201172,5.343855857849121,14.38483715057373,0.35776469111442566,0.0,0.06354189664125443,99
1656400708.81936407,103474184,0,24.645610809326172,24.98381805419922,5.275078773498535,14.531466484069824,0.3613784611225128,0.0,0.06411409378051758,99
1656400708.91933107,103574151,0,24.64936637878418,25.019929885864258,5.783013820648193,14.69206428527832,0.365337073802948,0.0,0.0640779435634613,99
1656400709.01931596,103674136,0,24.66094970703125,25.044193267822266,6.019011497497559,14.859249114990234,0.36946001648902893,0.0,0.06367212533950806,99
1656400709.11931109,103774131,0,24.64649200439453,25.044231414794922,6.282935619354248,15.033780097961426,0.3737615942955017,0.0,0.0633048266172409,99
1656400709.21958804,103874408,0,24.60350799560547,25.000410079956055,6.235674858093262,15.207468032836914,0.37803491950035095,0.0,0.06365016102790833,99
1656400709.31936002,103974180,0,24.57354164123535,25.004201889038086,6.7389726638793945,15.394270896911621,0.3826253116130829,0.0,0.06390579044818878,99
1656400709.41933203,104074152,0,24.6252384185791,25.058149337768555,6.839325904846191,15.584212303161621,0.3873026669025421,0.0,0.06329730153083801,99
1656400709.51937699,104174197,0,24.61537742614746,25.03973960876465,6.732528209686279,15.771326065063477,0.39190855622291565,0.0,0.06303165853023529,99
1656400709.61935306,104274173,0,24.621601104736328,25.05024528503418,6.844542503356934,15.961423873901367,0.396589070558548,0.0,0.06262563169002533,99
1656400709.71937299,104374193,0,24.61370086669922,25.047075271606445,6.955807209014893,16.154693603515625,0.4013461470603943,0.0,0.06230395287275314,99
1656400709.81935096,104474171,0,24.53907585144043,24.98932456970215,7.157261848449707,16.35348129272461,0.40622419118881226,0.0,0.06290794909000397,99
1656400709.91936207,104574182,0,24.572776794433594,25.03541374206543,7.372697830200195,16.558317184448242,0.4112575948238373,0.0,0.06275012344121933,99
1656400710.01934004,104674160,0,24.56339454650879,25.035215377807617,7.535655975341797,16.767488479614258,0.41639554500579834,0.0,0.06261181831359863,99
1656400710.11935115,104774171,0,24.578712463378906,25.053573608398438,7.63201904296875,16.97965431213379,0.4216102957725525,0.0,0.06221964210271835,99
1656400710.21937203,104874192,0,24.51944923400879,25.020437240600586,8.036806106567383,17.20296287536621,0.4270857274532318,0.0,0.06233677640557289,99
1656400710.31930208,104974122,0,24.507959365844727,24.99720001220703,7.794977188110352,17.419355392456055,0.4323890805244446,0.0,0.06276359409093857,99
1656400710.41938710,105074207,0,24.554393768310547,25.04196548461914,7.796511173248291,17.636123657226562,0.4377117156982422,0.0,0.06253727525472641,99
1656400710.51937795,105174198,0,24.56476593017578,25.051279067993164,7.821574687957764,17.853389739990234,0.4430488049983978,0.0,0.062201470136642456,99
1656400710.61942697,105274247,0,24.53074836730957,25.037778854370117,8.16723346710205,18.080387115478516,0.44861721992492676,0.0,0.06208110228180885,99
1656400710.71935415,105374174,0,24.526630401611328,25.05673599243164,8.587364196777344,18.318767547607422,0.4544638991355896,0.0,0.06173082813620567,99
1656400710.81934810,105474168,0,24.480865478515625,25.00509262084961,8.444660186767578,18.553348541259766,0.46020665764808655,0.0,0.06207805126905441,99
1656400710.91934705,105574167,0,24.48661231994629,25.006498336791992,8.334487915039062,18.784875869750977,0.4658759832382202,0.0,0.06237764284014702,99
1656400711.01937294,105674193,0,24.513132095336914,25.036359786987305,8.402924537658691,19.01837158203125,0.4715996980667114,0.0,0.06226729974150658,99
1656400711.11931705,105774137,0,24.52835464477539,25.046886444091797,8.359345436096191,19.25046157836914,0.4772924780845642,0.0,0.062030207365751266,99
1656400711.21943998,105874260,0,24.51715087890625,25.03313636779785,8.323746681213379,19.481977462768555,0.48296859860420227,0.0,0.06198965758085251,99
1656400711.31936002,105974180,0,24.475793838500977,25.006580352783203,8.520462036132812,19.718488693237305,0.4887574017047882,0.0,0.0622955858707428,99
1656400711.41934395,106074164,0,24.34552764892578,25.03661346435547,11.108354568481445,20.02703285217285,0.4962690770626068,0.0,0.062213100492954254,99
1656400711.51937914,106174199,0,24.403701782226562,25.059553146362305,10.593496322631836,20.321422576904297,0.5034533143043518,0.0,0.06191083416342735,99
1656400711.61935401,106274174,0,24.382734298706055,25.06861114501953,11.144055366516113,20.630924224853516,0.5109997987747192,0.0,0.06154641881585121,99
1656400711.71936512,106374185,0,24.372682571411133,25.033323287963867,10.730369567871094,20.92905044555664,0.5182659029960632,0.0,0.06156730651855469,99
1656400711.81931305,106474133,0,24.2799129486084,25.015541076660156,11.912812232971191,21.259817123413086,0.526296854019165,0.0,0.06175101548433304,99
1656400711.91935802,106574178,0,24.314571380615234,25.076459884643555,12.415496826171875,21.604875564575195,0.534686803817749,0.0,0.06136585399508476,99
1656400712.01935697,106674177,0,24.321081161499023,25.063644409179688,12.146968841552734,21.94231414794922,0.5428937077522278,0.0,0.061131514608860016,99
1656400712.11931014,106774130,0,24.330556869506836,25.05890464782715,11.947796821594238,22.2740421295166,0.5509648323059082,0.0,0.06096078082919121,99
1656400712.21939802,106874218,0,24.323474884033203,25.059032440185547,12.097251892089844,22.61042594909668,0.5591468811035156,0.0,0.06080363690853119,99
1656400712.31932092,106974141,0,24.297550201416016,24.99946403503418,11.47116470336914,22.928850173950195,0.5668838024139404,0.0,0.061189405620098114,99
1656400712.41935396,107074174,0,24.302793502807617,25.003032684326172,11.384042739868164,23.245203018188477,0.5745720863342285,0.0,0.061510585248470306,99
1656400712.51933002,107174150,0,24.27828598022461,25.057838439941406,12.712564468383789,23.59827423095703,0.5831440091133118,0.0,0.06132145971059799,99
1656400712.61948013,107274300,0,24.26919174194336,25.072961807250977,13.17074966430664,23.964702606201172,0.5920369625091553,0.0,0.06102689355611801,99
1656400712.71936893,107374189,0,24.174888610839844,25.078969955444336,14.883495330810547,24.37771224975586,0.6020213961601257,0.0,0.06074385717511177,99
1656400712.81934905,107474169,0,24.11859703063965,25.024551391601562,14.877664566040039,24.790931701660156,0.6119876503944397,0.0,0.06089358776807785,99
1656400712.91935396,107574174,0,24.12558364868164,25.05975914001465,15.372062683105469,25.217988967895508,0.6222906708717346,0.0,0.06077098101377487,99
1656400713.01934505,107674165,0,24.19499397277832,25.039409637451172,13.887028694152832,25.603736877441406,0.6316238045692444,0.0,0.060806140303611755,99
1656400713.11935902,107774179,0,24.221174240112305,25.0779972076416,14.147918701171875,25.9968204498291,0.6411447525024414,0.0,0.06056179106235504,99
1656400713.21935201,107874172,0,24.170005798339844,25.015811920166016,13.914955139160156,26.383346557617188,0.6504871249198914,0.0,0.0607839860022068,99
1656400713.31936002,107974180,0,24.169336318969727,24.98649024963379,13.443573951721191,26.75684356689453,0.659514307975769,0.0,0.0607839860022068,99
1656400713.41934896,108074169,0,24.239511489868164,25.035369873046875,13.092185974121094,27.12050437927246,0.6683292984962463,0.0,0.06078878790140152,99
1656400713.51936412,108174184,0,24.274839401245117,25.05479621887207,12.805245399475098,27.476287841796875,0.6769658923149109,0.0,0.06090911477804184,99
1656400713.61929107,108274111,0,24.231184005737305,25.046955108642578,13.393244743347168,27.848079681396484,0.6859748959541321,0.0,0.06090911477804184,99
1656400713.71932411,108374144,0,24.173261642456055,25.079845428466797,14.95346736907959,28.26362419128418,0.6960199475288391,0.0,0.06062699481844902,99
1656400713.81939292,108474213,0,24.083173751831055,25.030271530151367,15.596399307250977,28.697153091430664,0.7064606547355652,0.0,0.06072542071342468,99
1656400713.91937304,108574193,0,23.879154205322266,25.08185386657715,20.33967399597168,29.262121200561523,0.7199516296386719,0.0,0.0591307207942009,99
1656400714.01935911,108674179,0,23.868751525878906,25.081510543823242,20.908679962158203,29.84288787841797,0.7338138222694397,0.0,0.058002617210149765,99
1656400714.11933208,108774152,0,23.9985408782959,25.05704689025879,18.30193328857422,30.351179122924805,0.7460120320320129,0.0,0.057835765182971954,99
1656400714.21939301,108874213,0,24.025251388549805,25.033578872680664,17.442644119262695,30.836030960083008,0.7576607465744019,0.0,0.05780820921063423,99
1656400714.31932211,108974142,0,23.971540451049805,24.962526321411133,17.040924072265625,31.309091567993164,0.769000768661499,0.0,0.05815332010388374,99
1656400714.41938210,109074202,0,24.09446907043457,24.9782772064209,15.249614715576172,31.732975006103516,0.7792140245437622,0.0,0.057956114411354065,99
1656400714.51933408,109174154,0,24.26670265197754,24.95234489440918,11.886113166809082,32.06301498413086,0.7872230410575867,0.0,0.0576842799782753,99
1656400714.61927915,109274099,0,24.291019439697266,24.960391998291016,11.639067649841309,32.38616943359375,0.7950727939605713,0.0,0.05751078575849533,99
1656400714.71938014,109374200,0,24.290061950683594,24.906719207763672,10.793588638305664,32.686317443847656,0.8023634552955627,0.0,0.057131845504045486,99
1656400714.81933999,109474160,0,24.208194732666016,24.888769149780273,11.990829467773438,33.019290924072266,0.8104240894317627,0.0,0.05675797536969185,99
1656400714.91937399,109574194,0,24.24477767944336,24.971406936645508,12.78376293182373,33.37450408935547,0.8190361857414246,0.0,0.056840043514966965,99
1656400715.01933408,109674154,0,24.124147415161133,24.987024307250977,15.22199535369873,33.79724884033203,0.8292345404624939,0.0,0.056686125695705414,99
1656400715.11936593,109774186,0,24.143295288085938,24.97909164428711,14.769333839416504,34.207672119140625,0.8391435146331787,0.0,0.05658992752432823,99
1656400715.21927404,109874094,0,24.15976333618164,24.978923797607422,14.497122764587402,34.61002731323242,0.8488643169403076,0.0,0.056504987180233,99
1656400715.31938004,109974200,0,24.094181060791016,24.91045570373535,14.37590217590332,35.009788513183594,0.8584962487220764,0.0,0.05678076297044754,99
1656400715.41935897,110074179,0,23.927310943603516,24.96782112121582,18.340906143188477,35.519222259521484,0.8706856369972229,0.0,0.056731682270765305,99
1656400715.51935697,110174177,0,23.919841766357422,24.9990291595459,19.092782974243164,36.04961395263672,0.8833725452423096,0.0,0.056523311883211136,99
1656400715.61938810,110274208,0,23.97970199584961,24.998018264770508,18.07370948791504,36.551856994628906,0.8954162001609802,0.0,0.056342363357543945,99
1656400715.71933103,110374151,0,23.979488372802734,24.976898193359375,17.719148635864258,37.04381561279297,0.9072130918502808,0.0,0.05628993734717369,99
1656400715.81936002,110474180,0,23.918310165405273,24.915590286254883,17.631380081176758,37.53356170654297,0.918927013874054,0.0,0.05656283348798752,99
1656400715.91934395,110574164,0,23.964168548583984,24.97433090209961,17.87811851501465,38.030330657958984,0.9308316707611084,0.0,0.05650271475315094,99
1656400716.01937008,110674190,0,23.961679458618164,24.966995239257812,17.797405242919922,38.52487564086914,0.9426817893981934,0.0,0.05648665875196457,99
1656400716.11934400,110774164,0,23.98819923400879,24.979841232299805,17.58074378967285,39.01313781738281,0.9543942809104919,0.0,0.05640504136681557,99
1656400716.21937799,110874198,0,23.934301376342773,24.930971145629883,17.613271713256836,39.50260543823242,0.9661093354225159,0.0,0.05658625066280365,99
1656400716.31933498,110974155,0,23.93267059326172,24.900808334350586,17.109054565429688,39.977691650390625,0.9774793982505798,0.0,0.05658625066280365,99
1656400716.41935015,111074170,0,23.96378517150879,24.96915626525879,17.794950485229492,40.472110748291016,0.9893275499343872,0.0,0.056497521698474884,99
1656400716.51933408,111174154,0,23.968955993652344,24.974624633789062,17.834674835205078,40.96747970581055,1.0012010335922241,0.0,0.056388359516859055,99
1656400716.61936712,111274187,0,23.94875717163086,24.963680267333984,18.01222801208496,41.46802520751953,1.0131884813308716,0.0,0.05634637922048569,99
1656400716.71935010,111374170,0,23.910844802856445,24.90390968322754,17.539005279541016,41.955177307128906,1.0248366594314575,0.0,0.056620366871356964,99
1656400716.81931901,111474139,0,23.905004501342773,24.914194107055664,17.762420654296875,42.44845962524414,1.0366286039352417,0.0,0.05681602656841278,99
1656400716.91940713,111574227,0,24.0185489654541,24.953853607177734,16.45476722717285,42.905975341796875,1.0476174354553223,0.0,0.0568409189581871,99
1656400717.01936102,111674181,0,24.005146026611328,24.930564880371094,16.30500602722168,43.358726501464844,1.058485746383667,0.0,0.056756746023893356,99
1656400717.11935592,111774176,0,24.134967803955078,24.9195556640625,13.851736068725586,43.743507385253906,1.0677725076675415,0.0,0.056641899049282074,99
1656400717.21935105,111874171,0,24.12778663635254,24.90861701965332,13.81889820098877,44.127323150634766,1.0770331621170044,0.0,0.05650446563959122,99
1656400717.31936812,111974188,0,24.070344924926758,24.865278244018555,14.143587112426758,44.52030563354492,1.0864924192428589,0.0,0.056204479187726974,99
1656400717.41937804,112074198,0,24.095117568969727,24.902217864990234,14.37706184387207,44.91978454589844,1.0961178541183472,0.0,0.05613812059164047,99
1656400717.51934099,112174161,0,24.102127075195312,24.910139083862305,14.397383689880371,45.31959915161133,1.1057542562484741,0.0,0.056122176349163055,99
1656400717.61936498,112274185,0,24.106914520263672,24.920942306518555,14.495281219482422,45.722373962402344,1.1154639720916748,0.0,0.05615813657641411,99
1656400717.71932411,112374144,0,24.071205139160156,24.878154754638672,14.41119384765625,46.1225471496582,1.1250966787338257,0.0,0.055994607508182526,99
1656400717.81936097,112474181,0,24.04851531982422,24.857166290283203,14.441575050354004,46.523887634277344,1.1347483396530151,0.0,0.055994607508182526,99
1656400717.91934013,112574160,0,24.083650588989258,24.926807403564453,15.057809829711914,46.94210433959961,1.1448205709457397,0.0,0.055994607508182526,99
1656400718.01936412,112674184,0,24.025920867919922,24.91865348815918,15.966200828552246,47.3857536315918,1.1554796695709229,0.0,0.055913858115673065,99
1656400718.11933804,112774158,0,24.018356323242188,24.935922622680664,16.45814323425293,47.84284210205078,1.1664581298828125,0.0,0.0557515025138855,99
1656400718.21935415,112874174,0,24.018632888793945,24.93246078491211,16.428783416748047,48.2993049621582,1.1774218082427979,0.0,0.055623553693294525,99
1656400718.31933904,112974159,0,23.970203399658203,24.855690002441406,15.838842391967773,48.739166259765625,1.1879653930664062,0.0,0.055906035006046295,99
1656400718.41930103,113074121,0,23.986574172973633,24.88385581970215,16.018678665161133,49.184017181396484,1.1986358165740967,0.0,0.056014735251665115,99
1656400718.51936793,113174188,0,24.02821922302246,24.906007766723633,15.670665740966797,49.619693756103516,1.209104299545288,0.0,0.056014735251665115,99
1656400718.61938095,113274201,0,24.06105613708496,24.91672134399414,15.259435653686523,50.04365539550781,1.2193052768707275,0.0,0.05607455223798752,99
1656400718.71938109,113374201,0,24.018260955810547,24.88604164123535,15.475484848022461,50.47356414794922,1.229630947113037,0.0,0.05607455223798752,99
1656400718.81933999,113474160,0,23.925586700439453,24.850175857543945,16.408428192138672,50.92919921875,1.2405322790145874,0.0,0.05634840950369835,99
1656400718.91938496,113574205,0,23.97747802734375,24.885770797729492,16.101539611816406,51.376705169677734,1.2512623071670532,0.0,0.05641024932265282,99
1656400719.01932502,113674145,0,24.02228355407715,24.883037567138672,15.275086402893066,51.8007926940918,1.2614498138427734,0.0,0.05635013058781624,99
1656400719.11935902,113774179,0,24.04352378845215,24.909448623657227,15.347511291503906,52.22728729248047,1.2717041969299316,0.0,0.056421250104904175,99
1656400719.21937609,113874196,0,23.8205623626709,24.901304244995117,19.162446975708008,52.75971603393555,1.2843869924545288,0.0,0.05639899894595146,99
1656400719.31932092,113974141,0,23.758426666259766,24.883153915405273,19.915552139282227,53.31266403198242,1.2975242137908936,0.0,0.05647481232881546,99
1656400719.41936707,114074187,0,23.87819480895996,24.917633056640625,18.44217872619629,53.82522201538086,1.3097631931304932,0.0,0.05636202171444893,99
1656400719.51936102,114174181,0,23.873506546020508,24.91689682006836,18.544679641723633,54.34035873413086,1.32206130027771,0.0,0.056263551115989685,99
1656400719.61933613,114274156,0,23.86402702331543,24.93105697631836,19.020357131958008,54.86860275268555,1.3346673250198364,0.0,0.05609939247369766,99
1656400719.71934915,114374169,0,23.8023738861084,24.941930770874023,20.388776779174805,55.435089111328125,1.3481509685516357,0.0,0.05589140206575394,99
1656400719.81934309,114474163,0,23.866901397705078,24.815603256225586,16.974021911621094,55.9066047668457,1.3594045639038086,0.0,0.05589140206575394,99
1656400719.91930604,114574126,0,24.153200149536133,24.795658111572266,11.584372520446777,56.22829818725586,1.367174506187439,0.0,0.05545899271965027,99
1656400720.01933694,114674157,0,24.09111785888672,24.850234985351562,13.708418846130371,56.60923767089844,1.3763517141342163,0.0,0.05537600442767143,99
1656400720.11937094,114774191,0,24.087862014770508,24.867639541625977,14.077912330627441,57.00045394897461,1.3857753276824951,0.0,0.05539017170667648,99
1656400720.21935797,114874178,0,24.06756591796875,24.847373962402344,14.09878158569336,57.392066955566406,1.395200490951538,0.0,0.05531030520796776,99
1656400720.31939006,114974210,0,24.01347541809082,24.800411224365234,14.297952651977539,57.789390563964844,1.404741644859314,0.0,0.05503832548856735,99
1656400720.41933203,115074152,0,24.05205726623535,24.85688591003418,14.611899375915527,58.195072174072266,1.4144991636276245,0.0,0.055080294609069824,99
1656400720.51936102,115174181,0,24.038654327392578,24.852460861206055,14.771480560302734,58.60554122924805,1.4243663549423218,0.0,0.05509306117892265,99
1656400720.61931896,115274139,0,24.06316375732422,24.86760139465332,14.580904006958008,59.01042938232422,1.4341092109680176,0.0,0.05517067387700081,99
1656400720.71935511,115374175,0,23.84746551513672,24.862051010131836,18.403818130493164,59.52186965942383,1.446305751800537,0.0,0.055129073560237885,99
1656400720.81933808,115474158,0,23.476970672607422,24.8875789642334,25.653181076049805,60.23439407348633,1.463033676147461,0.0,0.05498762056231499,99
1656400720.91935110,115574171,0,23.560346603393555,24.93440818786621,25.13849449157715,60.932830810546875,1.4794890880584717,0.0,0.054659653455019,99
1656400721.01938009,115674200,0,23.525306701660156,24.909570693969727,25.41193389892578,61.638980865478516,1.4961014986038208,0.0,0.054473016411066055,99
1656400721.11928606,115774106,0,23.491703033447266,24.9185791015625,26.29178237915039,62.36859130859375,1.5132412910461426,0.0,0.054270803928375244,99
1656400721.21933103,115874151,0,23.52817726135254,24.90957260131836,25.521493911743164,63.07796859741211,1.529931664466858,0.0,0.05412675812840462,99
1656400721.31932402,115974144,0,23.748279571533203,24.75296401977539,18.715925216674805,63.597869873046875,1.5422784090042114,0.0,0.05368075147271156,99
1656400721.41937995,116074200,0,23.966083526611328,24.7733154296875,15.114891052246094,64.01799774169922,1.552347183227539,0.0,0.053406357765197754,99
1656400721.51929903,116174119,0,24.429744720458984,24.72317123413086,5.5362749099731445,64.17166900634766,1.5561013221740723,0.0,0.05300075188279152,99
1656400721.61939001,116274210,0,24.334102630615234,24.77243423461914,8.290295600891113,64.40216064453125,1.5617101192474365,0.0,0.0528729148209095,99
1656400721.71930695,116374127,0,24.203407287597656,24.749149322509766,10.357839584350586,64.68968963623047,1.568669319152832,0.0,0.05268888175487518,99
1656400721.81935596,116474176,0,24.191452026367188,24.708873748779297,9.875070571899414,64.96415710449219,1.5753090381622314,0.0,0.05239666625857353,99
1656400721.91939306,116574213,0,24.191736221313477,24.74012565612793,10.489153861999512,65.25565338134766,1.5823607444763184,0.0,0.052281517535448074,99
1656400722.01932597,116674146,0,24.17622947692871,24.7729549407959,11.407365798950195,65.57234191894531,1.5900170803070068,0.0,0.052310556173324585,99
1656400722.11936092,116774181,0,23.98092269897461,24.829513549804688,16.3016300201416,66.02536010742188,1.6008808612823486,0.0,0.052055638283491135,99
1656400722.21934795,116874168,0,23.87226104736328,24.794551849365234,17.745542526245117,66.51826477050781,1.6126476526260376,0.0,0.05197305977344513,99
1656400722.31937194,116974192,0,23.970487594604492,24.795040130615234,15.887636184692383,66.95973205566406,1.623229742050171,0.0,0.05189895257353783,99
1656400722.41936302,117074183,0,23.89830207824707,24.77597999572754,16.907428741455078,67.42937469482422,1.634453535079956,0.0,0.05191079527139664,99
1656400722.51935196,117174172,0,23.73110008239746,24.763891220092773,19.872419357299805,67.98136901855469,1.6475529670715332,0.0,0.05197111889719963,99
1656400722.61932707,117274147,0,23.8485164642334,24.808992385864258,18.527801513671875,68.49594116210938,1.6598247289657593,0.0,0.0518396720290184,99
1656400722.71932793,117374148,0,24.04545021057129,24.78166961669922,14.200667381286621,68.89044189453125,1.6693105697631836,0.0,0.05184394121170044,99
1656400722.81940103,117474221,0,23.98676300048828,24.707162857055664,13.96712589263916,69.27872467041016,1.6786242723464966,0.0,0.051578205078840256,99
1656400722.91931605,117574136,0,24.01701545715332,24.73673439025879,13.981550216674805,69.66680908203125,1.687944769859314,0.0,0.05147632211446762,99
1656400723.01935196,117674172,0,24.02276039123535,24.763839721679688,14.391552925109863,70.0667495727539,1.6975524425506592,0.0,0.05149407312273979,99
1656400723.11933804,117774158,0,23.9000244140625,24.803279876708984,17.60130500793457,70.55564880371094,1.7092370986938477,0.0,0.05131750926375389,99
1656400723.21937299,117874193,0,23.693708419799805,24.771808624267578,21.02004623413086,71.1397933959961,1.7230775356292725,0.0,0.0512891560792923,99
1656400723.31931210,117974132,0,23.62066078186035,24.741151809692383,21.803226470947266,71.7451171875,1.7373757362365723,0.0,0.05139106884598732,99
1656400723.41936803,118074188,0,23.707592010498047,24.7808837890625,20.914817810058594,72.32645416259766,1.7511578798294067,0.0,0.05131729319691658,99
1656400723.51932812,118174148,0,23.731525421142578,24.796049118041992,20.796016693115234,72.90393829345703,1.7648624181747437,0.0,0.05118880048394203,99
1656400723.61935997,118274180,0,23.715059280395508,24.76854133605957,20.580886840820312,73.47586059570312,1.7784255743026733,0.0,0.051187388598918915,99
1656400723.71936297,118374183,0,23.701080322265625,24.7779541015625,21.054418563842773,74.0607681274414,1.7922885417938232,0.0,0.05114720016717911,99
1656400723.81933999,118474160,0,23.648616790771484,24.736351013183594,21.210317611694336,74.64983367919922,1.8062191009521484,0.0,0.05128321796655655,99
1656400723.91935802,118574178,0,23.770395278930664,24.708383560180664,18.363615036010742,75.16008758544922,1.8183480501174927,0.0,0.051078666001558304,99
1656400724.01933813,118674158,0,23.896005630493164,24.73703956604004,16.48392105102539,75.61791229248047,1.8292882442474365,0.0,0.0510215237736702,99
1656400724.11938000,118774200,0,23.87953758239746,24.764667510986328,17.329708099365234,76.09954071044922,1.8407893180847168,0.0,0.05107591301202774,99
1656400724.21934509,118874165,0,24.02448272705078,24.727052688598633,13.780537605285645,76.48222351074219,1.8499830961227417,0.0,0.05098278820514679,99
1656400724.31927705,118974097,0,24.326271057128906,24.649694442749023,6.389085292816162,76.65959167480469,1.8542977571487427,0.0,0.0506211556494236,99
1656400724.41934204,119074162,0,24.232234954833984,24.683595657348633,8.943662643432617,76.90821075439453,1.8603222370147705,0.0,0.050467051565647125,99
1656400724.51932907,119174149,0,24.1982479095459,24.717418670654297,10.28660774230957,77.19393920898438,1.8672362565994263,0.0,0.05047052726149559,99
1656400724.61937499,119274195,0,24.17364501953125,24.736703872680664,11.140066146850586,77.50355529785156,1.874720811843872,0.0,0.05054363235831261,99
1656400724.71935296,119374173,0,24.057514190673828,24.727012634277344,13.240105628967285,77.87128448486328,1.883567452430725,0.0,0.05056590586900711,99
1656400724.81937695,119474197,0,23.97834014892578,24.692325592041016,14.086505889892578,78.2626953125,1.8929529190063477,0.0,0.05068571865558624,99
1656400724.91929293,119574113,0,24.070152282714844,24.741382598876953,13.221386909484863,78.62968444824219,1.9017863273620605,0.0,0.05076853185892105,99
1656400725.01937413,119674194,0,24.09906578063965,24.748680114746094,12.772407531738281,78.98478698730469,1.9103440046310425,0.0,0.050860725343227386,99
1656400725.11932492,119774145,0,24.086606979370117,24.7418155670166,12.870237350463867,79.34214782714844,1.9189516305923462,0.0,0.05090887099504471,99
1656400725.21938515,119874205,0,24.053205490112305,24.689451217651367,12.497742652893066,79.68954467773438,1.9273076057434082,0.0,0.05090887099504471,99
1656400725.31932402,119974144,0,23.942150115966797,24.72868537902832,15.455231666564941,80.11862182617188,1.9375807046890259,0.0,0.0508912168443203,98
1656400725.41936207,120074182,0,23.936214447021484,24.715179443359375,15.294726371765137,80.5436782836914,1.9477548599243164,0.0,0.05093027651309967,98
1656400725.51935410,120174174,0,23.99738883972168,24.73221778869629,14.437893867492676,80.94473266601562,1.9573791027069092,0.0,0.050895918160676956,98
1656400725.61933613,120274156,0,23.997486114501953,24.744705200195312,14.704580307006836,81.3531494140625,1.9671801328659058,0.0,0.050815362483263016,98
1656400725.71935415,120374174,0,24.00619888305664,24.741004943847656,14.4762544631958,81.75537109375,1.9768359661102295,0.0,0.05075942352414131,98
1656400725.81931305,120474133,0,23.93238639831543,24.669918060302734,14.462445259094238,82.1568603515625,1.9864444732666016,0.0,0.05099629610776901,98
1656400725.91938615,120574206,0,23.88930320739746,24.725568771362305,16.40351676940918,82.61300659179688,1.9973416328430176,0.0,0.050980813801288605,98
1656400726.01935601,120674176,0,23.897472381591797,24.738666534423828,16.521873474121094,83.07185363769531,2.0083067417144775,0.0,0.05091400444507599,98
1656400726.11931300,120774133,0,23.930755615234375,24.749561309814453,16.11473274230957,83.51927185058594,2.0190138816833496,0.0,0.05081100016832352,98
1656400726.21931815,120874138,0,23.765321731567383,24.735475540161133,19.106287002563477,84.05013275146484,2.031629800796509,0.0,0.0507766455411911,98
1656400726.31935596,120974176,0,23.78370475769043,24.68821144104004,17.756589889526367,84.5436019897461,2.0433661937713623,0.0,0.050939202308654785,98
1656400726.41934013,121074160,0,23.837125778198242,24.737558364868164,17.696439743041992,85.0351333618164,2.0550830364227295,0.0,0.050882112234830856,98
1656400726.51933098,121174151,0,23.83875274658203,24.751665115356445,17.980005264282227,85.53457641601562,2.066988945007324,0.0,0.05077376216650009,98
1656400726.61940503,121274225,0,23.824871063232422,24.73841094970703,18.0073184967041,86.03518676757812,2.078916072845459,0.0,0.05073155090212822,98
1656400726.71930408,121374124,0,23.7828426361084,24.68813705444336,17.786052703857422,86.52877807617188,2.0906550884246826,0.0,0.050899114459753036,98
1656400726.81937313,121474193,0,23.805818557739258,24.735502243041992,18.281063079833984,87.03697967529297,2.1027534008026123,0.0,0.05085504427552223,98
1656400726.91931510,121574135,0,23.81418228149414,24.706817626953125,17.525741577148438,87.5235595703125,2.1143410205841064,0.0,0.050932787358760834,98
1656400727.01938415,121674204,0,23.81654167175293,24.724672317504883,17.83116340637207,88.01924896240234,2.1261467933654785,0.0,0.05092936009168625,98
1656400727.11932993,121774150,0,24.03874969482422,24.71930694580078,13.367158889770508,88.39038848876953,2.135068416595459,0.0,0.050912655889987946,98
1656400727.21936297,121874183,0,24.04133415222168,24.724647521972656,13.419635772705078,88.7633056640625,2.144033908843994,0.0,0.05091894045472145,98
1656400727.31938601,121974206,0,23.857709884643555,24.66942596435547,15.9413423538208,89.20626068115234,2.154601812362671,0.0,0.05091894045472145,98
1656400727.41932011,122074140,0,23.784086227416992,24.718732833862305,18.36208152770996,89.71602630615234,2.1667261123657227,0.0,0.05090086907148361,98
1656400727.51935315,122174173,0,23.789159774780273,24.728416442871094,18.472867965698242,90.2293701171875,2.178938150405884,0.0,0.0508451908826828,98
1656400727.61932397,122274144,0,23.766376495361328,24.752704620361328,19.455833435058594,90.76969909667969,2.191779851913452,0.0,0.05069570615887642,98
1656400727.71936703,122374187,0,23.7362060546875,24.721033096313477,19.42742919921875,91.30962371826172,2.2045955657958984,0.0,0.050692614167928696,98
1656400727.81930709,122474127,0,23.703283309936523,24.68811798095703,19.376962661743164,91.84759521484375,2.2173471450805664,0.0,0.05082501471042633,98
1656400727.91937995,122574200,0,23.757375717163086,24.741500854492188,19.401514053344727,92.38695526123047,2.23016095161438,0.0,0.050724126398563385,98
1656400728.01931810,122674138,0,23.753067016601562,24.751544952392578,19.735715866088867,92.93487548828125,2.243175745010376,0.0,0.05059244483709335,98
1656400728.11934304,122774163,0,23.746652603149414,24.729982376098633,19.447547912597656,93.47526550292969,2.2560081481933594,0.0,0.05056321248412132,98
1656400728.21941996,122874240,0,23.768672943115234,24.73350715637207,19.097078323364258,94.00618743896484,2.268627643585205,0.0,0.05052259936928749,98
1656400728.31934214,122974162,0,23.73238754272461,24.67563819885254,18.669891357421875,94.52442932128906,2.2809269428253174,0.0,0.05052259936928749,98
1656400728.41938305,123074203,0,23.726356506347656,24.66458511352539,18.570459365844727,95.04031372070312,2.2931671142578125,0.0,0.05052259936928749,98
1656400728.51933408,123174154,0,23.69291114807129,24.70912742614746,20.11622428894043,95.59909057617188,2.306406259536743,0.0,0.05051720514893532,98
1656400728.61937404,123274194,0,23.715538024902344,24.71303367614746,19.753822326660156,96.14807891845703,2.3194258213043213,0.0,0.050496313720941544,98
1656400728.71934605,123374166,0,23.757280349731445,24.705232620239258,18.776994705200195,96.6695556640625,2.331814765930176,0.0,0.05048482120037079,98
1656400728.81936502,123474185,0,23.74176788330078,24.668758392333984,18.36177635192871,97.17974090576172,2.3439276218414307,0.0,0.05048482120037079,98
1656400728.91931295,123574133,0,23.71936798095703,24.63789939880371,18.1942138671875,97.6849136352539,2.355910062789917,0.0,0.05048482120037079,98
1656400729.01932693,123674147,0,23.75938606262207,24.697418212890625,18.571685791015625,98.2009048461914,2.3681697845458984,0.0,0.05050870031118393,98
1656400729.11936212,123774182,0,23.72760009765625,24.715681076049805,19.60007095336914,98.7455825805664,2.381093740463257,0.0,0.05041215196251869,98
1656400729.21926904,123874089,0,23.736982345581055,24.70320701599121,19.179941177368164,99.27790832519531,2.3937294483184814,0.0,0.050376828759908676,98
1656400729.31934595,123974166,0,23.757280349731445,24.67565155029297,18.255592346191406,99.78536224365234,2.405785083770752,0.0,0.050306323915719986,98
1656400729.41935205,124074172,0,23.735994338989258,24.648990631103516,18.148725509643555,100.28964233398438,2.417754650115967,0.0,0.050306323915719986,98
1656400729.51934409,124174164,0,23.786001205444336,24.69123077392578,17.98522186279297,100.78916931152344,2.429636240005493,0.0,0.05033189058303833,98
1656400729.61934900,124274169,0,23.783416748046875,24.683902740478516,17.893156051635742,101.28633117675781,2.441460371017456,0.0,0.050325680524110794,98
1656400729.71938109,124374201,0,23.736696243286133,24.642324447631836,17.99534797668457,101.7863998413086,2.4533305168151855,0.0,0.050325680524110794,98
1656400729.81934810,124474168,0,23.852540969848633,24.622608184814453,15.362548828125,102.21297454833984,2.463505506515503,0.0,0.05012625828385353,98
1656400729.91937709,124574197,0,24.04142951965332,24.67542839050293,12.6392183303833,102.56423950195312,2.4719502925872803,0.0,0.050161201506853104,98
1656400730.01936197,124674182,0,24.037696838378906,24.66145896911621,12.440967559814453,102.9097900390625,2.4802565574645996,0.0,0.0501377135515213,98
1656400730.11932707,124774147,0,24.07685089111328,24.671676635742188,11.859413146972656,103.2391357421875,2.4881861209869385,0.0,0.050156500190496445,98
1656400730.21936297,124874183,0,24.030441284179688,24.675819396972656,12.85966682434082,103.59651184082031,2.4967739582061768,0.0,0.050186190754175186,98
1656400730.31933093,124974151,0,23.977764129638672,24.615964889526367,12.765962600708008,103.9510269165039,2.505274534225464,0.0,0.049992434680461884,98
1656400730.41936994,125074190,0,24.006868362426758,24.650066375732422,12.873373031616211,104.30879211425781,2.5138635635375977,0.0,0.04996350780129433,98
1656400730.51932693,125174147,0,24.015390396118164,24.66668128967285,13.025590896606445,104.67037200927734,2.5225470066070557,0.0,0.050000905990600586,98
1656400730.61939406,125274214,0,24.029367446899414,24.682384490966797,13.037558555603027,105.03291320800781,2.5312585830688477,0.0,0.0500873439013958,98
1656400730.71931601,125374136,0,23.99097442626953,24.667762756347656,13.508020401000977,105.40787506103516,2.5402543544769287,0.0,0.05010266602039337,98
1656400730.81933308,125474153,0,23.961393356323242,24.659025192260742,13.918024063110352,105.79454803466797,2.5495195388793945,0.0,0.05012430250644684,98
1656400730.91935611,125574176,0,23.990114212036133,24.62466049194336,12.695378303527832,106.14730072021484,2.5579822063446045,0.0,0.04998242110013962,98
1656400731.01935005,125674170,0,24.04621696472168,24.670516967773438,12.476874351501465,106.49392700195312,2.566317319869995,0.0,0.05003656819462776,98
1656400731.11933613,125774156,0,24.05139923095703,24.683013916015625,12.60085678100586,106.84393310546875,2.574735403060913,0.0,0.05012478679418564,98
1656400731.21935701,125874177,0,23.97852897644043,24.608266830444336,12.563416481018066,107.1930160522461,2.5831058025360107,0.0,0.05012478679418564,98
1656400731.31937194,125974192,0,24.006484985351562,24.621536254882812,12.299798011779785,107.53475952148438,2.5913097858428955,0.0,0.050004992634058,98
1656400731.41930008,126074120,0,24.04698371887207,24.67941665649414,12.6183500289917,107.88504791259766,2.5997331142425537,0.0,0.05012013018131256,98
1656400731.51950908,126174329,0,24.02668571472168,24.665645599365234,12.738037109375,108.23963928222656,2.608252763748169,0.0,0.05016152933239937,98
1656400731.61944509,126274265,0,23.939373016357422,24.68434715270996,14.884724617004395,108.65288543701172,2.618145704269409,0.0,0.05004959926009178,98
1656400731.71945000,126374270,0,23.864219665527344,24.67245864868164,16.165063858032227,109.10197448730469,2.6288628578186035,0.0,0.04999912902712822,98
1656400731.81942797,126474248,0,23.842580795288086,24.648710250854492,16.106142044067383,109.54930114746094,2.639528274536133,0.0,0.050051044672727585,98
1656400731.91941094,126574231,0,23.774513244628906,24.665447235107422,17.808454513549805,110.04393768310547,2.6512880325317383,0.0,0.05002874881029129,98
1656400732.01946402,126674284,0,23.6592960357666,24.6474609375,19.730567932128906,110.59234619140625,2.6642630100250244,0.0,0.050082914531230927,98
1656400732.11944008,126774260,0,23.678871154785156,24.699668884277344,20.45046043395996,111.16032409667969,2.6777119636535645,0.0,0.0499156154692173,98
1656400732.21947098,126874291,0,23.571453094482422,24.656415939331055,21.722820281982422,111.76396942138672,2.6919407844543457,0.0,0.04994578659534454,98
1656400732.31940794,126974228,0,23.545124053955078,24.63698387145996,21.813968658447266,112.36958312988281,2.706199884414673,0.0,0.05005325376987457,98
1656400732.41948009,127074300,0,23.66067886352539,24.67635726928711,20.319110870361328,112.93421936035156,2.71955943107605,0.0,0.0499863438308239,98
1656400732.51942611,127174246,0,23.701080322265625,24.67245101928711,19.449695587158203,113.4744644165039,2.7323639392852783,0.0,0.04994270205497742,98
1656400732.61947298,127274293,0,23.755748748779297,24.66579818725586,18.218151092529297,113.98065948486328,2.7443888187408447,0.0,0.0499529130756855,98
1656400732.71947598,127374296,0,23.775468826293945,24.681787490844727,18.119945526123047,114.48419189453125,2.7563605308532715,0.0,0.05001775547862053,98
1656400732.81951499,127474335,0,23.707698822021484,24.61615753173828,18.16270637512207,114.98894500732422,2.768327236175537,0.0,0.05001775547862053,98
1656400732.91949010,127574310,0,23.76752281188965,24.624149322509766,17.169204711914062,115.46578979492188,2.77966046333313,0.0,0.04989321902394295,98
1656400733.01941705,127674237,0,23.784469604492188,24.654804229736328,17.439573287963867,115.94990539550781,2.79117488861084,0.0,0.0499056838452816,98
1656400733.11945701,127774277,0,23.78140640258789,24.669147491455078,17.76671600341797,116.44366455078125,2.802917003631592,0.0,0.0499664805829525,98
1656400733.21943402,127874254,0,23.827836990356445,24.64636993408203,16.39277458190918,116.89891815185547,2.8137645721435547,0.0,0.0499325692653656,98
1656400733.31944895,127974269,0,23.7877254486084,24.600685119628906,16.343366622924805,117.35304260253906,2.8245670795440674,0.0,0.04974253848195076,98
1656400733.41939807,128074218,0,23.805627822875977,24.63492202758789,16.680328369140625,117.8161849975586,2.83559250831604,0.0,0.04971686750650406,98
1656400733.51944113,128174261,0,23.83808135986328,24.641071319580078,16.1506404876709,118.26504516601562,2.846292495727539,0.0,0.049718815833330154,98
1656400733.61952496,128274345,0,23.848995208740234,24.662446975708008,16.33538818359375,118.71922302246094,2.857124090194702,0.0,0.04979687184095383,98
1656400733.71942496,128374245,0,23.784074783325195,24.614267349243164,16.671567916870117,119.18189239501953,2.8681282997131348,0.0,0.04979687184095383,98
1656400733.81952095,128474341,0,23.79279899597168,24.617956161499023,16.570465087890625,119.64266204833984,2.879091262817383,0.0,0.04979687184095383,98
1656400733.91938496,128574205,0,23.820466995239258,24.635007858276367,16.359018325805664,120.09649658203125,2.889901876449585,0.0,0.04979151114821434,98
1656400734.01947308,128674293,0,23.83348846435547,24.644495010375977,16.278305053710938,120.54910278320312,2.900689125061035,0.0,0.049821291118860245,98
1656400734.11947513,128774295,0,23.820274353027344,24.651439666748047,16.666826248168945,121.01211547851562,2.9117181301116943,0.0,0.04986942186951637,98
1656400734.21946812,128874288,0,23.840858459472656,24.658632278442383,16.377429962158203,121.46704864501953,2.9225640296936035,0.0,0.049932919442653656,98
1656400734.31946397,128974284,0,23.76896095275879,24.598302841186523,16.609132766723633,121.92838287353516,2.9335296154022217,0.0,0.049932919442653656,98
1656400734.41949296,129074313,0,23.8174991607666,24.617460250854492,16.043230056762695,122.37419128417969,2.9441475868225098,0.0,0.049862876534461975,98
